zip,address,lat,lng,house area,lot area,high,low,estimate,month value change,property tax
77053,"4910 INGOMAR WAY, HOUSTON, TX 77053",29.600938,-95.453009,1201,6050,144573,128359,135115,-354,101540.0
77053,"16218 BUNKER RIDGE RD, HOUSTON, TX 77053",29.585418,-95.454933,2697,,195810,173642,184726,8670,163620.0
77053,"16512 MONTE CARLO LN, HOUSTON, TX 77053",29.585103999999998,-95.470768,1141,3759,113940,102003,108514,1858,70500.0
77053,"5321 MAYWOOD DR, HOUSTON, TX 77053",29.598018,-95.462571,840,,127633,109236,114985,1923,74570.0
77053,"15727 MUNSON LN, HOUSTON, TX 77053",29.598284000000003,-95.473288,1528,,152294,134889,145042,2835,120170.0
77053,"5115 RIDGE MANOR DR, HOUSTON, TX 77053",29.585334999999997,-95.46441899999999,1310,6708,146241,132313,139277,3855,114650.0
77053,"16183 CANARIDGE DR, HOUSTON, TX 77053",29.591113,-95.478204,1027,4200,124657,112785,118721,2864,108760.0
77053,"16319 BANTAM RIDGE CT, HOUSTON, TX 77053",29.588575,-95.46866800000001,1515,,144619,118450,137732,1334,141900.0
77053,"16602 AMY RIDGE RD, HOUSTON, TX 77053",29.583934999999997,-95.461638,2697,,194170,173829,184924,8112,170480.0
77053,"5065 E RIDGE CREEK DR, HOUSTON, TX 77053",29.590957,-95.454071,1221,5525,128530,112617,122410,3765,117780.0
77053,"3914 CURLY OAKS DR, HOUSTON, TX 77053",29.608656,-95.435654,1520,6821,141340,127880,134610,-1179,73000.0
77053,"5002 PORTER RIDGE DR, HOUSTON, TX 77053",29.589723,-95.464773,1419,6930,141780,128278,135029,529,128950.0
77053,"16206 KNOLLRIDGE CT, HOUSTON, TX 77053",29.591896999999996,-95.481711,1803,7150,140463,120397,133774,-937,133630.0
77053,"16706 VILLAGE TRACE DR, HOUSTON, TX 77053",29.582245,-95.478625,1496,,155786,135211,146968,1864,109080.0
77053,"5015 CASTLECREEK LN, HOUSTON, TX 77053",29.593963000000002,-95.457148,987,7150,123212,111478,117345,5574,90490.0
77053,"5027 PORTER RIDGE DR, HOUSTON, TX 77053",29.589281,-95.464403,1181,6050,128909,107424,119360,-4395,116390.0
77053,"4865 BEECHAVEN ST, HOUSTON, TX 77053",29.592603000000004,-95.451899,1627,5871,146103,129406,139146,2370,129020.0
77053,"15111 INSLEY ST, HOUSTON, TX 77053",29.607944,-95.42612199999999,1374,18770,104818,91841,99827,253,54446.0
77053,"5627 ANDERSON RD, HOUSTON, TX 77053",29.605622999999998,-95.468274,1554,11400,155126,140352,147739,166,107380.0
77053,"16383 ANGEL ISLAND LN, HOUSTON, TX 77053",29.58858,-95.476042,1885,5200,171933,152651,160685,1680,141930.0
77053,"16130 DIAMOND RIDGE DR, HOUSTON, TX 77053",29.59222,-95.473729,1453,6300,174780,148147,166457,3814,166300.0
77053,"16103 BECK RIDGE DR, HOUSTON, TX 77053",29.594234000000004,-95.471517,1256,4200,125879,113891,119885,80,124690.0
77053,"3814 DENVER ARBOR CT, HOUSTON, TX 77053",29.602176,-95.434783,1742,4356,184747,165393,175950,39,156728.0
77053,"16242 BANTAM RIDGE CT, HOUSTON, TX 77053",29.592059999999996,-95.467341,2293,,177300,158726,168857,1467,175460.0
77053,"16535 MONTE CARLO LN, HOUSTON, TX 77053",29.585408,-95.47045899999999,1298,,118969,98956,111186,4124,82220.0
77053,"4922 COTTON RIDGE TRL, HOUSTON, TX 77053",29.58447,-95.460321,1168,,138430,116840,127000,3237,106590.0
77053,"5118 MACKINAW ST, HOUSTON, TX 77053",29.596433,-95.458411,990,,127309,111696,120103,5024,72180.0
77053,"4919 INGOMAR WAY, HOUSTON, TX 77053",29.600664000000002,-95.45313900000001,1732,6325,171186,136948,148857,1845,104318.0
77053,"16207 BECK RIDGE DR, HOUSTON, TX 77053",29.592596,-95.47234499999999,1256,4260,125095,113181,119138,468,124690.0
77053,"4007 PEPPERSTONE CT, HOUSTON, TX 77053",29.604552,-95.437294,1340,3998,165175,149445,157310,-1778,134283.0
77053,"16706 SIDONIE DR, HOUSTON, TX 77053",29.582276,-95.44759499999999,1559,5368,186578,160422,174372,-5803,113730.0
77053,"5143 GLENRIDGE LN, HOUSTON, TX 77053",29.602196999999997,-95.45833499999999,1408,4138,148379,116865,131309,666,52885.0
77053,"4010 RAIN WILLOW CT, HOUSTON, TX 77053",29.603446999999996,-95.437928,1533,5583,173203,155058,164955,374,144139.0
77053,"15871 CLARKE SPRINGS DR, HOUSTON, TX 77053",29.590962,-95.44767900000001,1232,4326,132844,109122,118611,1472,52860.0
77053,"4706 ARCRIDGE CIR, HOUSTON, TX 77053",29.590551,-95.44873100000001,1221,7650,138535,118744,131938,3915,102550.0
77053,"5039 SHADOWRIDGE DR, HOUSTON, TX 77053",29.584584999999997,-95.46333299999999,1358,,146196,132272,139234,3680,118420.0
77053,"16119 ROSENRIDGE DR, HOUSTON, TX 77053",29.592112,-95.476582,1408,4359,129135,116837,122986,1326,112070.0
77053,"5239 RIDGE TURN DR, HOUSTON, TX 77053",29.593477000000004,-95.462859,1014,6600,124276,111257,118358,3335,93130.0
77053,"5030 PORTER RIDGE DR, HOUSTON, TX 77053",29.589506,-95.464209,1419,6600,141452,121244,134716,-253,127940.0
77053,"4630 N RIPPLE RIDGE DR, HOUSTON, TX 77053",29.582977000000003,-95.45559399999999,1695,,163799,148199,155999,2474,131040.0
77053,"16138 COYRIDGE LN, HOUSTON, TX 77053",29.592436,-95.48039,1318,,130206,117806,124006,2031,109740.0
77053,"16621 MONTE CARLO CT, HOUSTON, TX 77053",29.583375,-95.470214,1141,7387,126932,105777,111344,3103,71470.0
77053,"3815 ASPEN STAR CT, HOUSTON, TX 77053",29.602643,-95.434699,1964,3999,195907,177249,186578,-675,157000.0
77053,"4711 RIDGETON DR, HOUSTON, TX 77053",29.586826000000002,-95.453722,1731,6600,160136,135161,146914,1791,140560.0
77053,"6211 QUIET VILLAGE CT, HOUSTON, TX 77053",29.582719,-95.48009,1496,,155998,138338,147168,83,107550.0
77053,"5346 CASTLECREEK LN, HOUSTON, TX 77053",29.593643,-95.46453299999999,1099,7020,125952,113956,119954,3608,104900.0
77053,"5710 INGOMAR WAY, HOUSTON, TX 77053",29.602977000000003,-95.468204,1266,7780,142750,126435,135952,-2738,110694.0
77053,"5543 MARKWOOD LN, HOUSTON, TX 77053",29.602977000000003,-95.465323,1568,2340,157878,115687,136102,1165,53798.0
77053,"6203 SANTA CHRISTI DR, HOUSTON, TX 77053",29.583716,-95.48123299999999,1493,,146162,129458,139202,2875,114860.0
77053,"15922 DANTE DR, HOUSTON, TX 77053",29.595837,-95.46968000000001,1744,,151829,137369,144599,5356,130180.0
77053,"5115 RIDGEVAN DR, HOUSTON, TX 77053",29.591532,-95.461422,790,7232,113772,86683,108354,2867,38060.0
77053,"16710 GALLERY CT, HOUSTON, TX 77053",29.583145000000002,-95.472751,1458,5769,144763,129598,137870,6323,111480.0
77053,"4827 COURT RD, HOUSTON, TX 77053",29.586058,-95.458748,1348,7200,146686,132716,139701,3334,125400.0
77053,"4622 OAKSIDE DR, HOUSTON, TX 77053",29.606641999999997,-95.448773,1793,7701,147715,131148,138051,-1365,93800.0
77053,"4797 BEECHAVEN ST, HOUSTON, TX 77053",29.591071999999997,-95.451213,1292,7645,145745,127870,137495,3009,137340.0
77053,"4954 DRAKESTONE BLVD, HOUSTON, TX 77053",29.604024,-95.454225,1285,7260,143259,129615,136437,893,100092.0
77053,"15235 CAMPDEN HILL RD, HOUSTON, TX 77053",29.604664,-95.451418,1124,6874,132304,115924,126004,-1096,79000.0
77053,"4803 CROKER RIDGE RD, HOUSTON, TX 77053",29.593898,-95.452022,1181,6600,129345,117027,123186,1012,93500.0
77053,"16806 RAPIDCREEK DR, HOUSTON, TX 77053",29.582513,-95.463728,1336,,143335,125589,136510,9569,121170.0
77053,"4930 PORTER RIDGE DR, HOUSTON, TX 77053",29.587209,-95.458333,1344,7040,140954,127530,134242,942,123220.0
77053,"5435 MARKWOOD LN, HOUSTON, TX 77053",29.602123,-95.462549,1216,5641,140840,123402,134133,-1409,99715.0
77053,"4707 CURLY OAKS DR, HOUSTON, TX 77053",29.607912,-95.449271,1193,6821,139300,126034,132667,453,90602.0
77053,"16311 EDGEMONT DR, HOUSTON, TX 77053",29.586114000000002,-95.465379,1306,6930,137853,124725,131289,1939,113920.0
77053,"6326 CLAYRIDGE DR, HOUSTON, TX 77053",29.597038,-95.478195,1487,,145131,123224,136916,751,121970.0
77053,"5131 RIDGEVAN DR, HOUSTON, TX 77053",29.591597999999998,-95.46124300000001,790,7232,134406,108272,124450,937,5000.0
77053,"14268 INDUSTRY ST, HOUSTON, TX 77053",29.599349,-95.42636800000001,2611,9601,170213,138097,160578,313,79000.0
77053,"5566 ANDERSON OAKS ST, HOUSTON, TX 77053",29.607505,-95.46674,1152,6050,133957,113254,121779,-621,39650.0
77053,"15706 IRONSIDE CREEK DR, HOUSTON, TX 77053",29.597465000000003,-95.477319,1462,,147708,128013,140674,3860,114460.0
77053,"5130 GLENRIDGE LN, HOUSTON, TX 77053",29.602474,-95.45806400000001,1088,3410,89402,58112,74502,-5306,36704.0
77053,"4922 RIDGESTONE ST, HOUSTON, TX 77053",29.591427000000003,-95.456126,1080,7488,118810,107494,113152,1514,92770.0
77053,"5637 MACKINAW ST, HOUSTON, TX 77053",29.598257,-95.469349,1036,,125959,108783,114508,1315,77500.0
77053,"6137 ARTHINGTON ST, HOUSTON, TX 77053",29.603713,-95.47568000000001,1026,,135153,111018,120672,4984,82460.0
77053,"16706 SONATA CT, HOUSTON, TX 77053",29.583868,-95.477834,1027,6050,141113,109615,125994,6076,85300.0
77053,"6338 MARINWOOD DR, HOUSTON, TX 77053",29.588457000000002,-95.47990300000001,1110,5039,131620,116577,125352,3513,78140.0
77053,"4835 CALLERY CREEK DR, HOUSTON, TX 77053",29.595409000000004,-95.451748,1853,5698,179692,160867,171135,-1334,137762.0
77053,"5519 SANTA CHRISTI DR, HOUSTON, TX 77053",29.582934,-95.472131,1296,8062,139852,116758,128305,4413,104860.0
77053,"15814 IRONSIDE CREEK DR, HOUSTON, TX 77053",29.598340000000004,-95.476734,2092,6599,171089,143389,162942,5615,151620.0
77053,"16731 VILLAGE TRACE DR, HOUSTON, TX 77053",29.583170000000003,-95.478338,1493,,147183,130362,140174,4012,112610.0
77053,"15825 RIDGECROFT RD, HOUSTON, TX 77053",29.593942,-95.45036400000001,1311,6412,133173,114148,126831,-1090,114543.0
77053,"5111 PRAIRIE RIDGE RD, HOUSTON, TX 77053",29.587071,-95.463525,1306,6600,137686,123397,129892,-1977,120630.0
77053,"15423 BOW LN, HOUSTON, TX 77053",29.601921,-95.46162,1688,7349,159342,135952,146185,408,119689.0
77053,"5215 RIDGEWEST ST, HOUSTON, TX 77053",29.592493,-95.460247,1284,6480,139992,125326,133326,7145,98840.0
77053,"6117 ARTHINGTON ST, HOUSTON, TX 77053",29.603481,-95.474852,1376,,136018,115487,128319,6665,94300.0
77053,"4827 RIDGEWEST ST, HOUSTON, TX 77053",29.590086,-95.45684,1052,6780,143127,129495,136311,4872,134180.0
77053,"5622 MELANITE AVE, HOUSTON, TX 77053",29.599005,-95.46819599999999,1544,,146523,125591,139546,3818,109940.0
77053,"15870 CLARKE SPRINGS DR, HOUSTON, TX 77053",29.590770000000003,-95.447908,1232,4620,132653,109946,119507,2006,52860.0
77053,"3911 ASPEN STAR CT, HOUSTON, TX 77053",29.602643,-95.435446,1395,4312,163736,148142,155939,-591,131807.0
77053,"5417 PARKRIDGE DR, HOUSTON, TX 77053",29.583672999999997,-95.469951,1298,,128480,105940,112702,2462,82220.0
77053,"5206 INGOMAR WAY, HOUSTON, TX 77053",29.600876,-95.459682,1164,5750,132179,107002,125885,-3142,96023.0
77053,"4650 CALLERY CREEK DR, HOUSTON, TX 77053",29.595722,-95.44972,1311,6900,142801,122030,129819,-43,115695.0
77053,"5402 RIDGEMONT PL, HOUSTON, TX 77053",29.587033,-95.470469,1048,7117,112651,100850,107287,1463,67770.0
77053,"6238 CLAYRIDGE DR, HOUSTON, TX 77053",29.595978999999996,-95.477212,1417,,138095,122608,129061,-162,118940.0
77053,"5002 COURT RD, HOUSTON, TX 77053",29.588010999999998,-95.46258,1332,7560,140282,126922,133602,1119,127810.0
77053,"14103 INDUSTRY ST, HOUSTON, TX 77053",29.604485999999998,-95.42611099999999,1216,5772,127294,87645,104339,-936,24021.0
77053,"16509 PARKRIDGE CT, HOUSTON, TX 77053",29.583869,-95.469233,1298,5235,118117,104745,111431,1705,83220.0
77053,"6019 IRONSIDE TURN DR, HOUSTON, TX 77053",29.598734000000004,-95.476022,1596,,155535,140723,148129,1262,120900.0
77053,"4837 E RIDGE CREEK DR, HOUSTON, TX 77053",29.589274,-95.45321,1082,3850,131652,117860,125383,3638,102320.0
77053,"5215 RIDGESTONE ST, HOUSTON, TX 77053",29.593131,-95.461534,990,,126817,114739,120778,6301,93100.0
77053,"16503 PARK MANOR ST, HOUSTON, TX 77053",29.583988,-95.462203,1432,,145175,123053,138262,3476,138820.0
77053,"5441 REGAL RIDGE LN, HOUSTON, TX 77053",29.581428999999996,-95.469365,1298,6573,127660,105202,118204,5201,83220.0
77053,"15102 MONRAD DR, HOUSTON, TX 77053",29.607375,-95.441988,748,15002,90997,68050,79128,-17764,43313.0
77053,"5710 W RIDGECREEK DR, HOUSTON, TX 77053",29.596264,-95.472596,1528,,143694,123166,136851,-1409,121280.0
77053,"4914 DRAKESTONE BLVD, HOUSTON, TX 77053",29.603626000000002,-95.453532,1364,6050,142485,128915,135700,348,87575.0
77053,"15403 CAMPDEN HILL RD, HOUSTON, TX 77053",29.602272999999997,-95.450696,1139,10960,128206,109891,122101,-3240,88945.0
77053,"5531 DRAKESTONE BLVD, HOUSTON, TX 77053",29.603783,-95.466987,1384,7322,146028,129496,137762,-3374,108344.0
77053,"15306 LONG LOOK DR, HOUSTON, TX 77053",29.604569,-95.458173,1985,17402,164017,129408,150474,1015,122319.0
77053,"16118 RAPIDCREEK DR, HOUSTON, TX 77053",29.588392,-95.456311,1348,7150,140959,127535,134247,159,123280.0
77053,"5919 IRISH HILL DR, HOUSTON, TX 77053",29.598902000000002,-95.474284,2147,,160376,139392,149884,2015,149780.0
77053,"6211 NOVATO DR, HOUSTON, TX 77053",29.588963,-95.477575,1660,5250,160126,140671,149650,1086,137900.0
77053,"14931 NUWOOD LN, HOUSTON, TX 77053",29.609136,-95.442594,1576,6486,136512,123510,130011,-336,87128.0
77053,"15406 CRAWFORD CREST LN, HOUSTON, TX 77053",29.602758,-95.439908,2114,5445,303782,220242,253152,8319,176654.0
77053,"5431 CASTLECREEK LN, HOUSTON, TX 77053",29.591188,-95.465825,1068,6600,122613,109768,116774,990,102500.0
77053,"4815 CROKER RIDGE RD, HOUSTON, TX 77053",29.593901000000002,-95.451773,1306,6600,133700,120966,127333,1050,98230.0
77053,"15823 DONFORTH DR, HOUSTON, TX 77053",29.597254,-95.471897,1918,,152029,136103,144790,1681,142460.0
77053,"4803 E RIDGE CREEK DR, HOUSTON, TX 77053",29.589356,-95.451814,1014,5523,221984,44397,110992,6639,105760.0
77053,"6130 IRISH HILL DR, HOUSTON, TX 77053",29.599698999999998,-95.475571,1528,,150755,130654,143576,5691,121780.0
77053,"4811 GATEWOOD AVE, HOUSTON, TX 77053",29.604526,-95.451751,1139,6599,132903,116448,126574,-145,84519.0
77053,"6203 VALLEJO CT, HOUSTON, TX 77053",29.589753,-95.47705699999999,2420,7180,187917,159817,175623,1386,157020.0
77053,"4839 WICKVIEW LN, HOUSTON, TX 77053",29.599049,-95.451576,1272,6212,155273,134570,147879,-1255,92900.0
77053,"4606 BRYANT RIDGE RD, HOUSTON, TX 77053",29.594958000000002,-95.450563,1311,8211,132798,117621,126474,-529,118811.0
77053,"16303 ANGEL ISLAND LN, HOUSTON, TX 77053",29.591387,-95.476135,2398,7213,328958,98687,164479,3139,157020.0
77053,"16607 BONNY RIDGE CT, HOUSTON, TX 77053",29.582517,-95.453353,1737,13076,181758,164448,173103,3984,145510.0
77053,"16203 DIAMOND RIDGE DR, HOUSTON, TX 77053",29.592701,-95.473217,1402,4200,128826,116556,122691,1047,112820.0
77053,"4815 RIDGETON DR, HOUSTON, TX 77053",29.588368,-95.457722,1240,6512,137312,124234,130773,1068,113470.0
77053,"15743 RIDGEGATE RD, HOUSTON, TX 77053",29.594962,-95.44867099999999,1311,5057,128726,114290,120305,-3650,111325.0
77053,"4615 S RIDGEWALK DR, HOUSTON, TX 77053",29.581506,-95.457534,1735,,165859,148483,157961,1248,132080.0
77053,"16354 SAINT HELENA WAY, HOUSTON, TX 77053",29.588582000000002,-95.478373,2454,8741,186058,168338,177198,4678,158490.0
77053,"15802 MUNSON LN, HOUSTON, TX 77053",29.597490000000004,-95.47403299999999,1918,,159612,141542,150577,3272,139880.0
77053,"16102 CORSAIR RD, HOUSTON, TX 77053",29.594538,-95.480725,1258,,130968,118494,124731,2157,111680.0
77053,"4734 BEECHAVEN ST, HOUSTON, TX 77053",29.592539000000002,-95.450919,1724,6600,147793,129495,140755,2085,106050.0
77053,"14935 NUWOOD LN, HOUSTON, TX 77053",29.609032,-95.442592,1264,6490,130777,114586,124550,-1514,87571.0
77053,"16522 MONTE CARLO LN, HOUSTON, TX 77053",29.585239,-95.470771,1152,3820,114281,102309,108839,1242,70500.0
77053,"16359 ANGEL ISLAND LN, HOUSTON, TX 77053",29.589404,-95.476057,2027,5200,175290,158596,166943,1751,140700.0
77053,"15558 CRAWFORD CREST LN, HOUSTON, TX 77053",29.601433,-95.439908,1900,6486,197850,179008,188429,-291,167913.0
77053,"4111 MISTISSIN LN, HOUSTON, TX 77053",29.599632,-95.438799,1355,4992,162065,146631,154348,-293,131359.0
77053,"4710 CALLERY CREEK DR, HOUSTON, TX 77053",29.595640999999997,-95.453817,1562,5750,151071,129693,142520,-958,122287.0
77053,"6314 CLAYRIDGE DR, HOUSTON, TX 77053",29.596953000000003,-95.47799,1487,,143208,124294,135102,757,120160.0
77053,"16206 COYRIDGE LN, HOUSTON, TX 77053",29.591007,-95.480362,1011,,121801,110201,116001,1479,89290.0
77053,"4831 CROKER RIDGE RD, HOUSTON, TX 77053",29.593915000000003,-95.451433,1221,7150,136975,123929,130452,5845,101020.0
77053,"4826 WICKVIEW LN, HOUSTON, TX 77053",29.599324,-95.451329,1609,6556,150584,128276,139430,-1116,107645.0
77053,"5119 BEECHAVEN ST, HOUSTON, TX 77053",29.594071999999997,-95.458927,1391,10585,140224,126870,133547,4797,110580.0
77053,"3823 ASPEN STAR CT, HOUSTON, TX 77053",29.602643,-95.434761,1660,3999,184721,167129,175925,365,148666.0
77053,"5027 RIDGE MANOR DR, HOUSTON, TX 77053",29.585359000000004,-95.46327,1348,6710,146120,132204,139162,3859,117730.0
77053,"4831 RIDGESTONE ST, HOUSTON, TX 77053",29.589978000000002,-95.455956,1692,6912,148454,134316,141385,2052,131210.0
77053,"4419 CURLY OAKS DR, HOUSTON, TX 77053",29.608137,-95.444788,1219,5972,128892,112934,122754,445,85055.0
77053,"5622 CONDON LN, HOUSTON, TX 77053",29.595084000000003,-95.471088,1918,,154934,140178,147556,2382,131930.0
77053,"5321 MACKINAW ST, HOUSTON, TX 77053",29.596083,-95.46285,840,,126726,109125,117339,3853,65670.0
77053,"14914 BUXLEY ST, HOUSTON, TX 77053",29.60956,-95.450688,1730,6381,151699,133439,140462,-1638,90666.0
77053,"4938 CALLERY CREEK DR, HOUSTON, TX 77053",29.595628,-95.454566,2048,7125,185845,168145,176995,1638,139413.0
77053,"16222 ALDEN RIDGE DR, HOUSTON, TX 77053",29.591890999999997,-95.471932,1200,5641,122870,111168,117019,2408,108060.0
77053,"4027 CURLY OAKS DR, HOUSTON, TX 77053",29.608358000000003,-95.437499,1647,6821,144532,130768,137650,-350,94671.0
77053,"4915 RIDGEWEST ST, HOUSTON, TX 77053",29.592133,-95.458669,1082,5967,118460,107178,112819,2883,94220.0
77053,"4607 RIDGETON DR, HOUSTON, TX 77053",29.586534000000004,-95.452949,1247,,144803,115306,134077,2011,105680.0
77053,"4646 OAKSIDE DR, HOUSTON, TX 77053",29.606637,-95.44908000000001,1682,6930,140454,127078,133766,-666,89983.0
77053,"5492 QUAIL COVE LN, HOUSTON, TX 77053",29.585038,-95.469978,1568,,175470,157087,167114,-564,112420.0
77053,"5503 CONDON LN, HOUSTON, TX 77053",29.594131,-95.469401,1819,,146521,124194,139544,1682,138290.0
77053,"4119 KNOLLWICK CT, HOUSTON, TX 77053",29.602408,-95.437881,1320,6169,156474,137101,149023,-2118,130458.0
77053,"4027 BROWNSTONE LN, HOUSTON, TX 77053",29.609140999999997,-95.437269,1482,6821,141428,127958,134693,-1315,96319.0
77053,"16702 GALLERY CT, HOUSTON, TX 77053",29.583073,-95.472748,1296,7246,135613,117869,126741,3441,105630.0
77053,"15894 RIDGECROFT RD, HOUSTON, TX 77053",29.590331,-95.448849,1086,13014,139637,125009,132988,4101,91160.0
77053,"16510 SENTINEL DR, HOUSTON, TX 77053",29.583178999999998,-95.47193,1458,6704,142267,124819,134214,4068,108050.0
77053,"4819 COURT RD, HOUSTON, TX 77053",29.585921000000003,-95.458394,1396,6600,149319,135099,142209,3886,128460.0
77053,"5207 DANFIELD DR, HOUSTON, TX 77053",29.599778999999998,-95.459827,1304,6325,138045,123583,131471,1180,115135.0
77053,"4745 BEECHAVEN ST, HOUSTON, TX 77053",29.591345,-95.449551,1158,5525,121625,107985,113668,186,99380.0
77053,"5631 GATEWOOD AVE, HOUSTON, TX 77053",29.604599,-95.467737,1168,5881,141027,127595,134311,-1241,91753.0
77053,"15713 MAIDEN LN, HOUSTON, TX 77053",29.597129,-95.462253,1018,,146216,120729,134143,6627,168120.0
77053,"5019 SHADOWRIDGE DR, HOUSTON, TX 77053",29.584594,-95.46283000000001,1358,,143854,124674,137004,7386,118020.0
77053,"4810 WICKVIEW LN, HOUSTON, TX 77053",29.599326,-95.450998,1272,6438,139263,124673,132631,-148,116085.0
77053,"3810 MISTISSIN LN, HOUSTON, TX 77053",29.599428000000003,-95.4359,1540,4500,178945,161903,170424,2267,138275.0
77053,"5130 WICKVIEW LN, HOUSTON, TX 77053",29.599287,-95.457262,1288,6325,139005,118023,131137,1860,94797.0
77053,"16707 SENTINEL DR, HOUSTON, TX 77053",29.585192,-95.471661,1150,6435,133312,114447,125766,2918,93890.0
77053,"16719 VILLAGE TRACE DR, HOUSTON, TX 77053",29.582712,-95.478324,1344,,138912,124359,132297,5825,106490.0
77053,"14907 NUWOOD LN, HOUSTON, TX 77053",29.609824,-95.442603,1048,6490,127023,111296,120974,-1374,79589.0
77053,"4711 RIDGEROD LN, HOUSTON, TX 77053",29.587613,-95.45240799999999,1181,6380,135421,118813,127756,1573,93980.0
77053,"5437 MACKINAW ST, HOUSTON, TX 77053",29.596725,-95.465369,900,7736,131091,112541,123671,7614,82070.0
77053,"4802 DANFIELD DR, HOUSTON, TX 77053",29.600146999999996,-95.45083199999999,2005,7471,176331,146388,166350,-575,127156.0
77053,"5009 E RIDGE CREEK DR, HOUSTON, TX 77053",29.590186,-95.453967,1433,4350,145282,131446,138364,16836,125000.0
77053,"6311 CANERIDGE DR, HOUSTON, TX 77053",29.595343,-95.478748,1501,,141510,125337,134771,2384,117230.0
77053,"5714 INGOMAR WAY, HOUSTON, TX 77053",29.603094,-95.468357,1418,7941,150817,136453,143635,1829,110798.0
77053,"4854 PORTER RIDGE DR, HOUSTON, TX 77053",29.587792999999998,-95.459788,1348,6600,138912,124359,132297,980,117460.0
77053,"16402 MONTE CARLO LN, HOUSTON, TX 77053",29.586392,-95.470784,1298,,121083,101664,114229,1431,83220.0
77053,"3906 DENVER ARBOR CT, HOUSTON, TX 77053",29.602202000000002,-95.436097,2195,4702,206206,186568,196387,-1032,174633.0
77053,"6514 SONOMA DR, HOUSTON, TX 77053",29.589869,-95.483328,1112,5637,131083,118599,124841,4238,83060.0
77053,"5210 RIDGESTONE ST, HOUSTON, TX 77053",29.593374,-95.461687,1108,6710,124771,112889,118830,3450,95580.0
77053,"5509 MELANITE AVE, HOUSTON, TX 77053",29.597928999999997,-95.46614699999999,1748,,151468,132715,144255,3143,126250.0
77053,"5126 DANFIELD DR, HOUSTON, TX 77053",29.600087,-95.456946,1482,6325,141997,124416,135235,2095,107738.0
77053,"5506 MAYWOOD DR, HOUSTON, TX 77053",29.598912,-95.465829,1036,,127044,109720,115495,2026,77840.0
77053,"4935 RIDGE HARBOR DR, HOUSTON, TX 77053",29.585015000000002,-95.460411,1607,5800,156535,141627,149081,-1677,126170.0
77053,"4814 COURT RD, HOUSTON, TX 77053",29.586474,-95.458649,1357,7200,142705,126396,135910,1035,134670.0
77053,"5335 RIDGE TURN DR, HOUSTON, TX 77053",29.592276000000002,-95.464274,1543,7200,150374,136052,143213,2742,113460.0
77053,"16707 LAZY RIDGE RD, HOUSTON, TX 77053",29.58264,-95.459094,1343,,139998,115138,130839,4575,114780.0
77053,"15110 HIRAM CLARKE RD, HOUSTON, TX 77053",29.607236,-95.44623,1076,6957,117751,99808,112144,-966,68479.0
77053,"16807 PARK MANOR ST, HOUSTON, TX 77053",29.581078,-95.462154,1390,,144035,126202,137176,9835,123560.0
77053,"4839 INGOMAR WAY, HOUSTON, TX 77053",29.600669,-95.45160600000001,1413,7588,149067,129743,138025,-1322,103849.0
77053,"6102 PRESIDIO DR, HOUSTON, TX 77053",29.590964000000003,-95.477234,2488,7170,184108,166574,175341,2861,165040.0
77053,"16715 SONATA CT, HOUSTON, TX 77053",29.583781,-95.477514,1458,5776,145994,129466,137730,6636,109970.0
77053,"5141 INGOMAR WAY, HOUSTON, TX 77053",29.600632,-95.457479,816,2644,73320,54669,64316,-750,31468.0
77053,"4427 BROWNSTONE LN, HOUSTON, TX 77053",29.608862,-95.445174,1259,5972,128772,105906,120348,-80,83800.0
77053,"5163 GLENRIDGE LN, HOUSTON, TX 77053",29.602192,-95.458794,768,2601,74442,55670,64732,-798,26110.0
77053,"5460 QUAIL COVE LN, HOUSTON, TX 77053",29.585804,-95.469998,1530,,170036,145974,160411,1308,112990.0
77053,"5110 PRAIRIE RIDGE RD, HOUSTON, TX 77053",29.587327000000002,-95.463411,1306,6600,146639,132673,139656,1763,119790.0
77053,"15007 NUWOOD LN, HOUSTON, TX 77053",29.608390999999997,-95.442584,1232,6486,136317,120738,129826,-569,92303.0
77053,"5158 DANFIELD DR, HOUSTON, TX 77053",29.600073,-95.458109,1915,6325,178046,144766,166398,-259,122367.0
77053,"14918 BUXLEY ST, HOUSTON, TX 77053",29.609538,-95.450687,1566,6821,143142,129510,136326,-1569,91334.0
77053,"4707 HIGH POINT LN, HOUSTON, TX 77053",29.607138,-95.449454,1099,6930,130576,114409,124358,-138,90943.0
77053,"5706 GATEWOOD AVE, HOUSTON, TX 77053",29.604855,-95.468841,1278,5881,142407,128845,135626,-681,92055.0
77053,"5626 GATEWOOD AVE, HOUSTON, TX 77053",29.604874,-95.467656,1144,6090,141447,127975,134711,-755,88392.0
77053,"15617 CORSAIR RD, HOUSTON, TX 77053",29.601713,-95.47577700000001,1585,13700,151321,132586,144115,3056,111890.0
77053,"4814 CALLERY CREEK DR, HOUSTON, TX 77053",29.595677000000002,-95.452087,2232,5750,189479,169816,178754,-121,140155.0
77053,"5102 INGOMAR WAY, HOUSTON, TX 77053",29.600926,-95.45609499999999,1896,5288,162028,139731,148650,-364,64852.0
77053,"16531 GOLD RIDGE LN, HOUSTON, TX 77053",29.583921999999998,-95.468346,1048,3659,113341,101467,107944,1917,66120.0
77053,"16138 CANARIDGE DR, HOUSTON, TX 77053",29.594471000000002,-95.478116,1251,4269,128940,116660,122800,1183,122050.0
77053,"6017 ARTHINGTON ST, HOUSTON, TX 77053",29.602908000000003,-95.473558,2303,,173831,145687,165553,8710,150380.0
77053,"5406 MARKWOOD LN, HOUSTON, TX 77053",29.602396999999996,-95.461875,1129,6050,133694,99640,126126,-6376,96352.0
77053,"5307 PARKRIDGE DR, HOUSTON, TX 77053",29.583712,-95.467926,1287,,142341,126074,135563,6161,114600.0
77053,"14112 PAPADOSA ST, HOUSTON, TX 77053",29.604237,-95.429233,1064,7096,121485,80658,99578,1119,14413.0
77053,"16214 COYRIDGE LN, HOUSTON, TX 77053",29.591374,-95.480414,1011,,134515,119429,125715,4886,99220.0
77053,"4018 MINTO CT, HOUSTON, TX 77053",29.605814000000002,-95.437392,1937,4225,197277,178489,187883,188,154218.0
77053,"4119 MISTISSIN LN, HOUSTON, TX 77053",29.599689,-95.438875,1355,5565,160732,142536,151634,-1045,143475.0
77053,"5327 DANFIELD DR, HOUSTON, TX 77053",29.600089,-95.46215699999999,1299,5771,140315,124431,132373,28197,101764.0
77053,"3822 JUNIPER MEADOWS LN, HOUSTON, TX 77053",29.600846999999998,-95.435124,1512,4500,175504,158790,167147,39,146179.0
77053,"15014 ALROVER ST, HOUSTON, TX 77053",29.609592,-95.427503,1744,6090,151524,133285,140300,-3046,63914.0
77053,"3931 CURLY OAKS DR, HOUSTON, TX 77053",29.608378000000002,-95.435914,1425,6821,139230,125970,132600,-3132,90011.0
77053,"15814 BITRIDGE CIR, HOUSTON, TX 77053",29.593001,-95.452321,1708,7150,164429,144071,156599,2952,115400.0
77053,"4411 OAKSIDE DR, HOUSTON, TX 77053",29.606684,-95.444705,1105,5972,122931,104199,117077,-2246,73705.0
77053,"5622 ANDERSON OAKS ST, HOUSTON, TX 77053",29.607477000000003,-95.468243,1152,6050,133739,115334,122696,-427,45422.0
77053,"4818 BRYANT RIDGE RD, HOUSTON, TX 77053",29.594956,-95.450724,2002,5304,186066,168346,177206,-172,129900.0
77053,"16330 LAZY RIDGE RD, HOUSTON, TX 77053",29.584335999999997,-95.457562,1716,,157681,141318,148756,-824,134080.0
77053,"16315 NAPA VINE DR, HOUSTON, TX 77053",29.588513,-95.479747,1286,5428,133371,119531,125822,3483,92250.0
77053,"16015 BROAD RIDGE RD, HOUSTON, TX 77053",29.586638,-95.450473,2256,,184637,167053,175845,3209,147140.0
77053,"5817 ARTHINGTON ST, HOUSTON, TX 77053",29.601629,-95.470726,1026,,126822,111268,119643,4875,80580.0
77053,"4815 MACRIDGE BLVD, HOUSTON, TX 77053",29.602983000000002,-95.451471,1034,6050,128964,114225,122823,-970,65603.0
77053,"4511 ISFALL PARK PL, HOUSTON, TX 77053",29.586965999999997,-95.447644,1400,4913,159069,127255,144608,3862,60000.0
77053,"5414 ARTHINGTON ST, HOUSTON, TX 77053",29.598934000000003,-95.4643,1200,,144210,116427,132303,7187,71660.0
77053,"5019 CASTLECREEK LN, HOUSTON, TX 77053",29.594094000000002,-95.457148,1156,7150,137998,123541,131427,6694,103890.0
77053,"6110 SONOMA WAY, HOUSTON, TX 77053",29.588515,-95.476338,1660,5250,157855,139985,148920,834,131440.0
77053,"14232 PAPADOSA ST, HOUSTON, TX 77053",29.600496999999997,-95.429204,1000,8999,157784,129096,143440,-258,70928.0
77053,"15871 RIDGECROFT RD, HOUSTON, TX 77053",29.591356,-95.44858599999999,1312,,138300,112924,126881,1711,79900.0
77053,"4913 E RIDGE CREEK DR, HOUSTON, TX 77053",29.588976000000002,-95.455069,1082,5005,132084,116988,125794,3294,106560.0
77053,"4826 RIDGE HARBOR DR, HOUSTON, TX 77053",29.584683000000002,-95.458798,1716,,157570,141218,148651,-346,133080.0
77053,"5039 PRAIRIE RIDGE RD, HOUSTON, TX 77053",29.587635,-95.464979,1160,6050,132366,95063,120333,-3619,112980.0
77053,"5606 MARKWOOD LN, HOUSTON, TX 77053",29.603239000000002,-95.466444,1418,7200,151285,135436,144081,2463,110539.0
77053,"4507 S RIDGEWALK DR, HOUSTON, TX 77053",29.581583000000002,-95.451847,1667,,176816,158292,168396,3672,128050.0
77053,"4651 CALLERY CREEK DR, HOUSTON, TX 77053",29.595447999999998,-95.449714,1406,6299,146409,123363,135564,-2836,114270.0
77053,"6219 PRESIDIO DR, HOUSTON, TX 77053",29.590473,-95.477819,1885,5903,168735,151225,159184,2804,149820.0
77053,"5623 ANDERSON RD, HOUSTON, TX 77053",29.605622999999998,-95.46806099999999,1384,11400,145255,127441,137033,-2318,109772.0
77053,"5515 AMBERN DR, HOUSTON, TX 77053",29.591955,-95.4693,968,5778,120285,106795,112416,1014,121880.0
77053,"15823 IRONSIDE HILL DR, HOUSTON, TX 77053",29.597172999999998,-95.474838,1819,11060,152299,137795,145047,2829,134650.0
77053,"15807 LENCLAIRE DR, HOUSTON, TX 77053",29.596244,-95.47023399999999,2147,,158659,140865,148279,3162,152360.0
77053,"5130 RIDGEHAVEN DR, HOUSTON, TX 77053",29.587226,-95.46528599999999,1346,,139647,122357,132997,2344,136570.0
77053,"3903 ASPEN STAR CT, HOUSTON, TX 77053",29.602643,-95.435383,2570,4064,208965,189063,199014,-1132,195999.0
77053,"5170 MARKWOOD LN, HOUSTON, TX 77053",29.601681,-95.45858199999999,1134,2374,109846,75061,91538,-2274,36469.0
77053,"5406 RIDGEMONT PL, HOUSTON, TX 77053",29.587009000000002,-95.47028900000001,1141,,119675,103206,109794,883,72150.0
77053,"15111 TREATY OAKS ST, HOUSTON, TX 77053",29.607196000000002,-95.466415,1393,5001,136290,117360,126194,755,53276.0
77053,"5410 DANFIELD DR, HOUSTON, TX 77053",29.600816,-95.463062,1372,5249,141496,122630,134758,-179,111539.0
77053,"4911 WICKVIEW LN, HOUSTON, TX 77053",29.599041999999997,-95.453059,1170,6268,132751,116316,126430,-4632,94493.0
77053,"4302 HIGH POINT LN, HOUSTON, TX 77053",29.607694,-95.443588,1632,6551,143136,129504,136320,-1829,112256.0
77053,"4034 PEPPERSTONE CT, HOUSTON, TX 77053",29.604824,-95.437648,1512,6909,174456,140845,160051,-37,142916.0
77053,"6310 COSTA MESA DR, HOUSTON, TX 77053",29.589743,-95.481627,1405,5719,132153,119567,125860,2925,96110.0
77053,"4626 ROSEBUD DR, HOUSTON, TX 77053",29.609720000000003,-95.44851899999999,2224,6930,161929,144965,154218,-1341,118406.0
77053,"16211 DIAMOND RIDGE DR, HOUSTON, TX 77053",29.592763,-95.473189,971,4200,119646,107230,112874,871,104710.0
77053,"5219 INGOMAR WAY, HOUSTON, TX 77053",29.600599,-95.459834,1132,5750,131601,104288,124152,-4125,96021.0
77053,"5935 BEACONRIDGE DR, HOUSTON, TX 77053",29.592470000000002,-95.475077,1676,4386,176107,159335,167721,1643,162930.0
77053,"5110 COURT RD, HOUSTON, TX 77053",29.588257000000002,-95.46321400000001,1221,7200,129695,106448,122354,-1572,124900.0
77053,"6031 QUIET VILLAGE CT, HOUSTON, TX 77053",29.583690999999998,-95.479182,1493,11600,153218,137167,145922,5098,119960.0
77053,"4834 CROKER RIDGE RD, HOUSTON, TX 77053",29.594194,-95.451376,1401,6600,121135,91129,111133,-5248,104690.0
77053,"4711 OAKSIDE DR, HOUSTON, TX 77053",29.606363,-95.449619,1196,6599,135724,122798,129261,341,85068.0
77053,"4903 CROKER RIDGE RD, HOUSTON, TX 77053",29.593854999999998,-95.454989,1419,7700,141577,128093,134835,1230,112930.0
77053,"16423 GOLD RIDGE LN, HOUSTON, TX 77053",29.585966,-95.468416,1270,,133558,110277,122530,873,117650.0
77053,"5210 RIDGEWEST ST, HOUSTON, TX 77053",29.592767,-95.460317,1520,6703,150015,132870,142871,2711,122900.0
77053,"16375 PAITER ST, HOUSTON, TX 77053",29.584387,-95.467099,1426,7631,151880,137416,144648,4184,113100.0
77053,"4111 HEATHFORD LN, HOUSTON, TX 77053",29.6018,-95.439619,2378,4500,207255,187517,197386,-810,196735.0
77053,"5534 MAYWOOD DR, HOUSTON, TX 77053",29.599104999999998,-95.46633,1114,,128963,112245,119410,4383,87000.0
77053,"16227 SAMOA WAY, HOUSTON, TX 77053",29.592499,-95.474214,1070,5107,124551,112689,118620,2755,112450.0
77053,"4924 RIDGEVAN DR, HOUSTON, TX 77053",29.59165,-95.45884699999999,790,6649,112028,80020,106693,2666,35150.0
77053,"16150 CANARIDGE DR, HOUSTON, TX 77053",29.592528,-95.47870400000001,1251,4270,129060,116768,122914,1174,122050.0
77053,"4765 BEECHAVEN ST, HOUSTON, TX 77053",29.591112,-95.44971600000001,1221,4950,140245,126889,133567,3105,117400.0
77053,"16143 BANTAM RIDGE CT, HOUSTON, TX 77053",29.590569,-95.467736,1357,5627,135170,117648,125157,882,121940.0
77053,"16238 BANTAM RIDGE CT, HOUSTON, TX 77053",29.592005,-95.46736899999999,1822,,176762,154877,168345,3153,151830.0
77053,"16203 BOWIE RIDGE LN, HOUSTON, TX 77053",29.590308,-95.465324,1010,6600,126330,113095,120314,2964,120930.0
77053,"4631 CROKER RIDGE RD, HOUSTON, TX 77053",29.593953999999997,-95.449336,1311,4966,128261,113877,119870,-4293,111106.0
77053,"4889 E RIDGE CREEK DR, HOUSTON, TX 77053",29.588219,-95.45366700000001,1239,5525,135666,121588,127987,3028,115400.0
77053,"4015 ROSALIND LN, HOUSTON, TX 77053",29.603653,-95.436799,2355,4805,206879,187177,197028,-233,173524.0
77053,"5818 MACKINAW ST, HOUSTON, TX 77053",29.599904,-95.47285699999999,1322,,132874,114071,125353,4732,87550.0
77053,"16206 ALDEN RIDGE DR, HOUSTON, TX 77053",29.591745,-95.47194300000001,1256,4962,125554,113596,119575,714,124690.0
77053,"4106 HEATHFORD LN, HOUSTON, TX 77053",29.602075,-95.439666,1735,4500,195695,177057,186376,-21,161994.0
77053,"5134 CASTLECREEK LN, HOUSTON, TX 77053",29.595125,-95.459399,1099,6900,140130,125450,133457,7191,114760.0
77053,"16530 GOLD RIDGE LN, HOUSTON, TX 77053",29.583910999999997,-95.468661,1298,3794,113253,102467,107860,1886,82220.0
77053,"3911 DENVER ARBOR CT, HOUSTON, TX 77053",29.601931,-95.436181,1446,4770,169645,153489,161567,-854,151298.0
77053,"3920 ANDERSON RD, HOUSTON, TX 77053",29.606337,-95.436162,,,236191,80088,135742,5195,
77053,"5413 REGAL RIDGE LN, HOUSTON, TX 77053",29.581418,-95.469814,1048,5314,126329,106206,111796,4279,67120.0
77053,"15885 RIDGECROFT RD, HOUSTON, TX 77053",29.590756,-95.448571,1312,,134479,111856,125681,1418,79900.0
77053,"16335 PETALUMA DR, HOUSTON, TX 77053",29.589221999999996,-95.4824,1405,5040,132195,118346,125900,2692,96110.0
77053,"4811 E RIDGE CREEK DR, HOUSTON, TX 77053",29.589648999999998,-95.452591,1119,5525,128403,109381,118892,409,111470.0
77053,"15706 DANFORD DR, HOUSTON, TX 77053",29.596212,-95.47165799999999,1918,,155723,140893,148308,2368,139880.0
77053,"4903 E RIDGE CREEK DR, HOUSTON, TX 77053",29.587995000000003,-95.45386500000001,1322,5061,144780,126855,137886,5292,106880.0
77053,"4818 RIDGESTONE ST, HOUSTON, TX 77053",29.590265999999996,-95.455671,1024,7245,117305,104149,109631,4120,85240.0
77053,"5015 E RIDGE CREEK DR, HOUSTON, TX 77053",29.590382,-95.45448499999999,1697,4675,153694,139056,146375,852,131630.0
77053,"16222 COYRIDGE LN, HOUSTON, TX 77053",29.591745,-95.48044200000001,1011,,120943,109425,115184,959,89050.0
77053,"6117 MAYWOOD DR, HOUSTON, TX 77053",29.602617,-95.475206,1026,,123471,108609,114325,1043,81770.0
77053,"6303 MARINWOOD DR, HOUSTON, TX 77053",29.588184000000002,-95.479839,2025,12336,160566,145274,152920,1142,118780.0
77053,"4789 BEECHAVEN ST, HOUSTON, TX 77053",29.590805,-95.450515,1258,7645,139564,119626,132918,3724,136240.0
77053,"16719 SONATA CT, HOUSTON, TX 77053",29.583731,-95.477512,1305,5776,141022,117734,129378,5224,101200.0
77053,"15811 DANFORD DR, HOUSTON, TX 77053",29.596996999999998,-95.47108100000001,2147,,154711,139977,147344,2051,149780.0
77053,"5018 RIDGEVAN DR, HOUSTON, TX 77053",29.591027,-95.45796,790,4592,112923,84961,107546,2775,35050.0
77053,"5111 RIDGEVAN DR, HOUSTON, TX 77053",29.591509999999996,-95.46146800000001,790,7232,115362,103390,108832,1594,5000.0
77053,"16722 GOLD BRIDGE CT, HOUSTON, TX 77053",29.583232000000002,-95.47357199999999,1027,6441,146477,111371,121055,5400,82180.0
77053,"5229 MACKINAW ST, HOUSTON, TX 77053",29.596118,-95.461023,1277,,130809,115859,124580,4860,83500.0
77053,"5610 MARKWOOD LN, HOUSTON, TX 77053",29.603237,-95.466514,1652,7200,159255,142571,151671,-108,114655.0
77053,"5121 INGOMAR WAY, HOUSTON, TX 77053",29.600642999999998,-95.456748,816,2644,72991,54423,64027,-637,31551.0
77053,"5306 MAYWOOD DR, HOUSTON, TX 77053",29.59818,-95.462227,1232,,128268,111166,122160,4440,78420.0
77053,"5454 MARKWOOD LN, HOUSTON, TX 77053",29.602396999999996,-95.463031,1132,5502,132555,103519,126243,-2432,87988.0
77053,"5526 GINERIDGE DR, HOUSTON, TX 77053",29.593564,-95.469306,1306,4200,126195,112975,120186,-455,121400.0
77053,"6106 SANTA CHRISTI DR, HOUSTON, TX 77053",29.584055,-95.479483,1704,,156676,140262,149215,-1185,113030.0
77053,"16518 AMY RIDGE RD, HOUSTON, TX 77053",29.583277000000002,-95.461629,1343,,138148,115992,130328,3026,115650.0
77053,"5119 COURT RD, HOUSTON, TX 77053",29.588237,-95.46437399999999,1306,7200,139338,126068,132703,1020,119790.0
77053,"4022 OAKSIDE DR, HOUSTON, TX 77053",29.607095,-95.437177,1207,6821,123346,111598,117472,-69,70000.0
77053,"16611 GOLD RIDGE LN, HOUSTON, TX 77053",29.582905,-95.468319,1298,6155,124022,103352,114835,2391,82220.0
77053,"5151 CASTLECREEK LN, HOUSTON, TX 77053",29.594835999999997,-95.46041600000001,1158,7150,136291,123311,129801,7686,99130.0
77053,"16510 LAZY RIDGE RD, HOUSTON, TX 77053",29.581806,-95.460408,1343,,139396,115947,130277,3902,115650.0
77053,"15845 RIDGEROE LN, HOUSTON, TX 77053",29.592037,-95.45370600000001,1434,8340,148221,134105,141163,3104,133830.0
77053,"5714 GATEWOOD AVE, HOUSTON, TX 77053",29.604852,-95.468929,1525,5881,143347,129695,136521,-1014,91961.0
77053,"15106 ALROVER ST, HOUSTON, TX 77053",29.607940000000003,-95.427471,1132,8843,105747,85185,97914,1603,45127.0
77053,"4730 E RIDGE CREEK DR, HOUSTON, TX 77053",29.590922999999997,-95.45263100000001,1202,7920,138260,118508,131676,3984,118080.0
77053,"14132 BURNHAM ST, HOUSTON, TX 77053",29.603863,-95.428265,1368,5397,131485,86533,112380,-1965,26967.0
77053,"15806 IRONSIDE CREEK DR, HOUSTON, TX 77053",29.598277000000003,-95.47678,1528,,152448,133574,145189,2655,116790.0
77053,"16219 PURPLERIDGE CT, HOUSTON, TX 77053",29.585234999999997,-95.452069,2256,7840,185213,167573,176393,2654,147140.0
77053,"4827 MACRIDGE BLVD, HOUSTON, TX 77053",29.602983000000002,-95.451797,1322,6050,136466,123470,129968,709,84071.0
77053,"16234 DIAMOND RIDGE DR, HOUSTON, TX 77053",29.593065000000003,-95.473381,1256,4476,128298,116080,122189,1202,124690.0
77053,"5144 GLENRIDGE LN, HOUSTON, TX 77053",29.602471,-95.45838499999999,900,3968,95042,58204,73676,-1089,28607.0
77053,"5026 RIDGE MANOR DR, HOUSTON, TX 77053",29.585633,-95.46327600000001,1221,7881,138616,125414,132015,6916,114440.0
77053,"5406 MACKINAW ST, HOUSTON, TX 77053",29.596813,-95.464815,1320,,132689,116416,125178,3794,87320.0
77053,"4023 PEPPERSTONE CT, HOUSTON, TX 77053",29.604551,-95.437495,2290,3999,203944,184520,194232,-469,172227.0
77053,"4839 PORTER RIDGE DR, HOUSTON, TX 77053",29.587660999999997,-95.460211,1358,6050,148740,134574,141657,3123,107130.0
77053,"4743 E RIDGE CREEK DR, HOUSTON, TX 77053",29.590154,-95.45136,1181,4500,131091,112884,121381,707,139120.0
77053,"5202 MACKINAW ST, HOUSTON, TX 77053",29.596415000000004,-95.45966700000001,1035,,132512,110220,123843,6181,79510.0
77053,"5603 MARKWOOD LN, HOUSTON, TX 77053",29.602966,-95.466369,1561,2340,152041,111410,131070,-695,53798.0
77053,"5113 MARKWOOD LN, HOUSTON, TX 77053",29.601437,-95.45646500000001,1024,4199,107871,68175,86297,-1539,38154.0
77053,"4114 ROSALIND LN, HOUSTON, TX 77053",29.604119,-95.438611,1520,4132,185316,167666,176491,1183,131110.0
77053,"5730 ARTHINGTON ST, HOUSTON, TX 77053",29.601276000000002,-95.469247,1036,,124479,108491,114201,1198,77910.0
77053,"16147 CANARIDGE DR, HOUSTON, TX 77053",29.592365,-95.478414,1147,4329,128830,116560,122695,1436,119990.0
77053,"5059 CASTLECREEK LN, HOUSTON, TX 77053",29.594887,-95.457705,925,6600,123557,108404,116563,3561,58270.0
77053,"4714 BRYANT RIDGE RD, HOUSTON, TX 77053",29.594934000000002,-95.45251400000001,2087,5301,190513,170555,181441,-896,133725.0
77053,"5533 MACKINAW ST, HOUSTON, TX 77053",29.597716,-95.467937,2110,,160839,142631,151735,2493,131290.0
77053,"5131 RIDGETON DR, HOUSTON, TX 77053",29.590097999999998,-95.46217800000001,1041,6600,120619,107982,114875,782,105590.0
77053,"4718 RIDGETON DR, HOUSTON, TX 77053",29.587644,-95.45506800000001,1358,6600,140781,126032,134077,-710,125450.0
77053,"16111 NECORIDGE DR, HOUSTON, TX 77053",29.593514000000003,-95.477274,1380,5504,129442,117114,123278,1202,152210.0
77053,"4910 GLENRIDGE LN, HOUSTON, TX 77053",29.602487,-95.45288599999999,1034,6050,130918,113462,124684,-1346,89903.0
77053,"4838 PORTER RIDGE DR, HOUSTON, TX 77053",29.587915999999996,-95.460094,1357,6600,145004,131194,138099,1926,122200.0
77053,"16615 PARKRIDGE CT, HOUSTON, TX 77053",29.58346,-95.469197,1141,9269,122026,104277,110933,3684,72090.0
77053,"5211 INGOMAR WAY, HOUSTON, TX 77053",29.600601,-95.45972900000001,1248,5750,140193,122836,133517,968,101317.0
77053,"5420 RIDGE WIND LN, HOUSTON, TX 77053",29.582496999999996,-95.46931500000001,1298,4003,116330,103160,109745,3252,82220.0
77053,"4926 BRYANT RIDGE RD, HOUSTON, TX 77053",29.594905999999998,-95.453988,1413,,141625,120643,131134,3778,101000.0
77053,"4819 GLENRIDGE LN, HOUSTON, TX 77053",29.602220000000003,-95.451534,1124,6050,130719,114534,124494,-1600,85656.0
77053,"5019 PORTER RIDGE DR, HOUSTON, TX 77053",29.589343,-95.464564,1306,6600,135513,120026,129060,-4214,120460.0
77053,"5538 ARTHINGTON ST, HOUSTON, TX 77053",29.599802,-95.465884,1036,,126907,109602,115370,2142,77650.0
77053,"14123 INDUSTRY ST, HOUSTON, TX 77053",29.604112,-95.426103,1008,5772,114958,76956,95007,970,12941.0
77053,"4010 BROWNSTONE LN, HOUSTON, TX 77053",29.609419,-95.43695500000001,1411,6821,130994,114776,124756,-792,78253.0
77053,"4606 KINGS RIDGE RD, HOUSTON, TX 77053",29.586044,-95.453106,2058,,182007,164673,173340,4526,140060.0
77053,"4822 BEECHAVEN ST, HOUSTON, TX 77053",29.593396999999996,-95.453884,1512,6600,151689,137243,144466,2719,112400.0
77053,"16323 NAPA VINE DR, HOUSTON, TX 77053",29.588621999999997,-95.47975,1084,5632,136219,118561,126129,4216,84130.0
77053,"16111 CANARIDGE DR, HOUSTON, TX 77053",29.593590000000003,-95.478138,1265,5335,132930,118022,124234,611,152300.0
77053,"5162 DANFIELD DR, HOUSTON, TX 77053",29.600071999999997,-95.45825400000001,1323,6325,132585,112381,126271,387,94004.0
77053,"4851 BEECHAVEN ST, HOUSTON, TX 77053",29.593257,-95.453407,1329,,142269,128719,135494,483,125110.0
77053,"6210 CANERIDGE DR, HOUSTON, TX 77053",29.59593,-95.479439,1501,,140534,124473,133842,2222,118850.0
77053,"16523 MONTE CARLO LN, HOUSTON, TX 77053",29.585246,-95.470455,1041,3794,114101,102148,108668,-345,55350.0
77053,"16002 DIAMOND RIDGE DR, HOUSTON, TX 77053",29.594690999999997,-95.472541,1070,5508,125471,111131,119496,2967,103300.0
77053,"5702 DRAKESTONE BLVD, HOUSTON, TX 77053",29.604026,-95.468873,1554,8403,157356,142370,149863,987,109874.0
77053,"15218 JUPITER DR, HOUSTON, TX 77053",29.605926,-95.44109499999999,1366,12301,120152,99014,111252,-3129,83671.0
77053,"6310 CANERIDGE DR, HOUSTON, TX 77053",29.595599,-95.478635,1664,7150,147177,126152,140169,3396,78040.0
77053,"15710 MAIDEN LN, HOUSTON, TX 77053",29.597408,-95.462546,900,,126156,108953,114687,1588,67780.0
77053,"5529 MELANITE AVE, HOUSTON, TX 77053",29.598072,-95.466527,1271,,133295,115690,125750,3827,111870.0
77053,"4822 DRAKESTONE BLVD, HOUSTON, TX 77053",29.604034999999996,-95.452258,1364,6050,141034,127602,134318,-387,113264.0
77053,"16127 BOOT RIDGE RD, HOUSTON, TX 77053",29.584688,-95.451195,2282,,185461,167799,176630,3345,148010.0
77053,"3802 WIMBERLEY HOLLOW LN, HOUSTON, TX 77053",29.600321,-95.437996,1512,5364,173629,157093,165361,7,141283.0
77053,"4706 BROWNSTONE LN, HOUSTON, TX 77053",29.608946999999997,-95.449155,1616,6821,144960,131154,138057,-827,95271.0
77053,"4307 ROSEBUD DR, HOUSTON, TX 77053",29.609608,-95.443678,1532,5974,138963,125729,132346,-1565,93804.0
77053,"5134 RAVEN RIDGE DR, HOUSTON, TX 77053",29.589896000000003,-95.463002,1222,6600,124651,107011,117595,-800,115560.0
77053,"5139 WICKVIEW LN, HOUSTON, TX 77053",29.599009000000002,-95.457526,1204,6899,123415,95733,115341,-4829,90300.0
77053,"6506 SONOMA DR, HOUSTON, TX 77053",29.589844,-95.483384,1405,6560,132049,119473,125761,2066,96110.0
77053,"5738 ANDERSON OAKS ST, HOUSTON, TX 77053",29.606440000000003,-95.469559,1618,5001,138466,115600,127033,2064,61380.0
77053,"15427 CAMPDEN HILL RD, HOUSTON, TX 77053",29.601204,-95.450672,1139,7501,131147,114910,124902,-1879,86432.0
77053,"16110 BOWIE RIDGE LN, HOUSTON, TX 77053",29.589395,-95.466133,1067,6600,126272,114246,120259,2128,117970.0
77053,"4023 WIMBERLEY HOLLOW LN, HOUSTON, TX 77053",29.599849,-95.435505,1355,4900,163173,147633,155403,-541,131318.0
77053,"3434 W RILEY RD, HOUSTON, TX 77053",29.591894,-95.429283,1568,44797,249441,173980,209614,4377,136639.0
77053,"4619 BRYANT RIDGE RD, HOUSTON, TX 77053",29.594687,-95.450435,1311,4426,126736,112388,119562,-2925,109824.0
77053,"15915 HIRAM CLARKE RD, HOUSTON, TX 77053",29.589015999999997,-95.449074,1735,,163708,146557,155912,4137,129960.0
77053,"5634 ARTHINGTON ST, HOUSTON, TX 77053",29.600544,-95.467623,2004,16797,218386,172724,198533,6175,241790.0
77053,"16311 VALLEJO DR, HOUSTON, TX 77053",29.590309,-95.47694,2420,6021,183574,166090,174832,1964,160270.0
77053,"6219 CANERIDGE DR, HOUSTON, TX 77053",29.595654999999997,-95.479524,1547,,149091,130632,141991,2870,121220.0
77053,"5114 RIDGEHAVEN DR, HOUSTON, TX 77053",29.58717,-95.46514300000001,1419,,143264,129620,136442,3997,118460.0
77053,"4010 WIMBERLEY HOLLOW LN, HOUSTON, TX 77053",29.600122999999996,-95.435649,1595,5515,176418,157936,168017,-83,143452.0
77053,"5903 QUAIL VILLAGE DR, HOUSTON, TX 77053",29.581775,-95.480343,1992,,178163,161195,169679,2467,145580.0
77053,"3935 OAKSIDE DR, HOUSTON, TX 77053",29.606842999999998,-95.43543100000001,1749,6821,151975,132456,139427,-2667,90453.0
77053,"16034 MALADI DR, HOUSTON, TX 77053",29.588922999999998,-95.447959,1232,4901,134871,111785,121505,2009,52860.0
77053,"6009 MAYWOOD DR, HOUSTON, TX 77053",29.602103000000003,-95.474042,1036,,123083,108268,113966,1618,82090.0
77053,"15923 BUNKER RIDGE RD, HOUSTON, TX 77053",29.589026,-95.450675,1221,6600,133689,117293,126122,1689,95880.0
77053,"15031 BATHURST DR, HOUSTON, TX 77053",29.608411,-95.43460400000001,1322,7619,135066,119630,128634,-731,83998.0
77053,"5539 GINERIDGE DR, HOUSTON, TX 77053",29.593377,-95.469605,1070,5565,121530,109956,115743,2090,115450.0
77053,"16702 GOLD BRIDGE CT, HOUSTON, TX 77053",29.583054999999998,-95.473568,1150,7157,132480,110194,123813,3004,96110.0
77053,"4851 E RIDGE CREEK DR, HOUSTON, TX 77053",29.589019,-95.453326,1239,5525,135228,112479,126381,1858,121340.0
77053,"5922 IRISH HILL DR, HOUSTON, TX 77053",29.599154,-95.47416199999999,2147,,156799,134818,146541,4231,149780.0
77053,"4507 SPRING RIDGE RD, HOUSTON, TX 77053",29.586231,-95.44749399999999,1139,4776,135588,116581,126718,3547,76150.0
77053,"16502 MONTE CARLO LN, HOUSTON, TX 77053",29.584969,-95.470764,1048,,114151,101105,108715,1969,58840.0
77053,"14246 PAPADOSA ST, HOUSTON, TX 77053",29.599551,-95.42920699999999,1098,8999,117551,82977,98782,2715,15742.0
77053,"15518 CORSAIR RD, HOUSTON, TX 77053",29.602762,-95.476122,1491,,146321,123500,134239,4037,103570.0
77053,"5117 MAYWOOD DR, HOUSTON, TX 77053",29.596921000000002,-95.460115,1215,,129534,113497,123366,5347,81810.0
77053,"5478 QUAIL COVE LN, HOUSTON, TX 77053",29.585344,-95.469983,1295,,161526,136334,148189,70,101710.0
77053,"4834 MACRIDGE BLVD, HOUSTON, TX 77053",29.603257,-95.451986,1379,6599,138064,124916,131490,-428,71919.0
77053,"15002 BUXLEY ST, HOUSTON, TX 77053",29.608703000000002,-95.450666,1116,6599,135610,121403,129152,-174,76336.0
77053,"5523 IRISH HILL DR, HOUSTON, TX 77053",29.597478999999996,-95.470543,2147,6599,177154,160282,168718,2549,149780.0
77053,"15415 JUPITER DR, HOUSTON, TX 77053",29.603627000000003,-95.44074499999999,1520,12301,126715,97299,113138,-2503,89924.0
77053,"16506 MONTE CARLO LN, HOUSTON, TX 77053",29.585023,-95.470766,1298,,118086,100262,111402,2008,82220.0
77053,"15519 HINSDALE SPRINGS LN, HOUSTON, TX 77053",29.601969,-95.434411,1355,4356,163356,147798,155577,239,134568.0
77053,"15827 IRONFORK DR, HOUSTON, TX 77053",29.596899,-95.475923,1828,,153559,138935,146247,6424,139050.0
77053,"5031 RIDGE MANOR DR, HOUSTON, TX 77053",29.585358000000003,-95.46332199999999,1358,6490,146253,132325,139289,3545,117840.0
77053,"16335 PARK MANOR ST, HOUSTON, TX 77053",29.585756,-95.461895,1348,,145162,125808,138250,5524,121500.0
77053,"16616 PARKRIDGE CT, HOUSTON, TX 77053",29.583448999999998,-95.469512,1141,9426,122037,104286,110943,3582,72090.0
77053,"15418 BOW LN, HOUSTON, TX 77053",29.602028999999998,-95.461922,1299,6029,142693,129103,135898,-273,101428.0
77053,"5610 IRISH HILL DR, HOUSTON, TX 77053",29.597162,-95.46897,1528,,151011,135191,143820,4143,132250.0
77053,"5019 INGOMAR WAY, HOUSTON, TX 77053",29.600671000000002,-95.45474,1166,6556,134176,115008,127787,-772,93466.0
77053,"5413 PARKRIDGE DR, HOUSTON, TX 77053",29.583672999999997,-95.470237,1141,6063,146402,109513,115277,3248,72480.0
77053,"4507 ISFALL PARK PL, HOUSTON, TX 77053",29.586965000000003,-95.447676,1500,4914,159022,131303,145892,2609,87800.0
77053,"14930 BUXLEY ST, HOUSTON, TX 77053",29.609427,-95.450684,1444,6599,141022,127592,134307,-435,76400.0
77053,"5901 MAYWOOD DR, HOUSTON, TX 77053",29.601385999999998,-95.47249599999999,1711,,149554,131037,142432,4099,114570.0
77053,"4551 BUCKLERIDGE RD, HOUSTON, TX 77053",29.584126,-95.452425,2697,,199522,175281,186469,8054,163620.0
77053,"15239 CAMPDEN HILL RD, HOUSTON, TX 77053",29.604618,-95.451403,1139,7749,130857,113410,124626,-2380,89742.0
77053,"4887 E RIDGE CREEK DR, HOUSTON, TX 77053",29.588272999999997,-95.45381,1068,4675,132526,119904,126215,3566,102350.0
77053,"5103 SHADOWRIDGE DR, HOUSTON, TX 77053",29.584553999999997,-95.464943,1687,,151844,137382,144613,4774,131240.0
77053,"4314 HIGH POINT LN, HOUSTON, TX 77053",29.607692,-95.443713,1385,5972,133812,118519,127440,-1959,99717.0
77053,"15811 IRONSIDE HILL DR, HOUSTON, TX 77053",29.597276,-95.474785,1876,,155567,140751,148159,3200,136280.0
77053,"5022 CASTLECREEK LN, HOUSTON, TX 77053",29.594428999999998,-95.45684,1073,6900,125856,113870,119863,4645,95810.0
77053,"16502 HOLLOW RIDGE RD, HOUSTON, TX 77053",29.583371999999997,-95.459911,2153,,181854,164534,173194,1350,145130.0
77053,"4519 SPRING RIDGE RD, HOUSTON, TX 77053",29.586247999999998,-95.447074,1492,4801,159645,128887,146463,727,88800.0
77053,"5319 INGOMAR WAY, HOUSTON, TX 77053",29.600603000000003,-95.461162,1702,5772,171787,136822,152024,306,114233.0
77053,"6207 VALLEJO CT, HOUSTON, TX 77053",29.589751,-95.477074,1885,6857,164260,145487,156438,2386,146510.0
77053,"5606 LYCOMB DR, HOUSTON, TX 77053",29.591793,-95.47161700000001,1240,8880,139227,111137,122129,4744,55570.0
77053,"4703 RIDGEROD LN, HOUSTON, TX 77053",29.587688,-95.452415,1962,13215,182721,165319,174020,4590,143740.0
77053,"5302 RIDGEWEST ST, HOUSTON, TX 77053",29.591611,-95.463021,1099,7840,131076,118592,124834,5055,109730.0
77053,"15134 ALROVER ST, HOUSTON, TX 77053",29.607437,-95.427461,1032,11182,103277,84589,98359,1228,47691.0
77053,"16015 DIAMOND RIDGE DR, HOUSTON, TX 77053",29.5935,-95.472806,1638,4200,173415,156899,165157,3015,156480.0
77053,"4910 WICKVIEW LN, HOUSTON, TX 77053",29.599315999999998,-95.45306,1188,6325,132219,114590,125923,-575,92507.0
77053,"5429 RIDGEMONT PL, HOUSTON, TX 77053",29.586643,-95.469323,2551,4900,213375,186957,203214,18218,87620.0
77053,"4623 OAKSIDE DR, HOUSTON, TX 77053",29.606368,-95.44874200000001,1357,6821,136862,123828,130345,907,87217.0
77053,"4934 GLENRIDGE LN, HOUSTON, TX 77053",29.602484999999998,-95.453238,1314,6050,134281,117656,127887,1522,81402.0
77053,"5106 PRAIRIE RIDGE RD, HOUSTON, TX 77053",29.587358000000002,-95.463492,1221,6600,131121,94502,118127,-5929,114170.0
77053,"5117 MACKINAW ST, HOUSTON, TX 77053",29.596159999999998,-95.458378,888,,128212,110405,118715,4550,73460.0
77053,"16507 LAZY RIDGE RD, HOUSTON, TX 77053",29.581537,-95.460329,1343,,140049,116489,130887,3551,115650.0
77053,"4810 CALLERY CREEK DR, HOUSTON, TX 77053",29.595675,-95.45215400000001,2232,5750,189419,169762,178697,-85,140155.0
77053,"15115 ALMEECE ST, HOUSTON, TX 77053",29.607771999999997,-95.429068,2729,7919,204745,185245,194995,-10,150230.0
77053,"5433 MELANITE AVE, HOUSTON, TX 77053",29.597382,-95.464741,1220,,129666,111317,122326,5042,76750.0
77053,"5031 WICKVIEW LN, HOUSTON, TX 77053",29.599033000000002,-95.45593199999999,1610,6787,154614,126502,140558,-255,101447.0
77053,"15128 ALMEECE ST, HOUSTON, TX 77053",29.607518,-95.429379,2634,8516,206179,186543,196361,755,189500.0
77053,"16119 PURPLERIDGE CT, HOUSTON, TX 77053",29.584418,-95.452063,2278,,184807,167207,176007,2781,148250.0
77053,"15839 RIDGEROE LN, HOUSTON, TX 77053",29.592232,-95.454216,1247,7784,139935,125275,133271,3721,119580.0
77053,"4830 PRAIRIE RIDGE RD, HOUSTON, TX 77053",29.586415000000002,-95.461056,1358,6050,150661,136313,143487,5102,125450.0
77053,"4859 BEECHAVEN ST, HOUSTON, TX 77053",29.592523,-95.452608,1341,4675,135114,117436,126275,1647,124360.0
77053,"5212 RIDGEVAN DR, HOUSTON, TX 77053",29.591996999999996,-95.460233,790,,120777,104157,110805,2947,35020.0
77053,"15819 DARTON ST, HOUSTON, TX 77053",29.596514000000003,-95.468011,1200,,135722,121503,129259,6180,121280.0
77053,"4403 OAKSIDE DR, HOUSTON, TX 77053",29.606685,-95.44462,1215,6077,126198,112978,120189,-1632,76121.0
77053,"5203 DANFIELD DR, HOUSTON, TX 77053",29.599781,-95.459647,1564,6900,148233,117518,133543,-403,119245.0
77053,"16331 BANTAM RIDGE CT, HOUSTON, TX 77053",29.588759999999997,-95.468574,2064,,176072,159304,167688,1740,164010.0
77053,"14130 BURNHAM ST, HOUSTON, TX 77053",29.6039,-95.428265,900,4678,109454,72079,88987,3309,16396.0
77053,"6102 BERKRIDGE DR, HOUSTON, TX 77053",29.594571999999996,-95.477519,1378,5285,142130,118442,131602,2890,129350.0
77053,"5710 MACKINAW ST, HOUSTON, TX 77053",29.598882,-95.47019499999999,1036,,125978,110814,116646,2897,78250.0
77053,"5114 PORTER RIDGE DR, HOUSTON, TX 77053",29.588857,-95.46251600000001,1419,6050,146663,132695,139679,2244,125910.0
77053,"15819 RIDGEBAR CIR, HOUSTON, TX 77053",29.592623,-95.451208,1708,7150,164451,144090,156620,3043,106120.0
77053,"4851 PRAIRIE RIDGE RD, HOUSTON, TX 77053",29.586011,-95.460785,1357,6050,149902,134198,142764,4893,125560.0
77053,"5447 DANFIELD DR, HOUSTON, TX 77053",29.600990000000003,-95.463574,1340,5750,143095,129467,136281,-377,93783.0
77053,"4843 PRAIRIE RIDGE RD, HOUSTON, TX 77053",29.58607,-95.460939,1358,6050,150223,134486,143070,4814,125540.0
77053,"5122 RIDGESTONE ST, HOUSTON, TX 77053",29.593276,-95.458689,966,5668,133035,119098,126700,6783,98300.0
77053,"16447 GOLD RIDGE LN, HOUSTON, TX 77053",29.585621000000003,-95.468408,1493,,151681,128568,144458,1242,115200.0
77053,"6014 SANTA CHRISTI DR, HOUSTON, TX 77053",29.584031,-95.480681,1704,,173820,153955,165543,4189,122210.0
77053,"15810 RIDGEBAR CIR, HOUSTON, TX 77053",29.592696999999998,-95.451515,1206,6200,131537,116504,125273,2198,93430.0
77053,"16210 ROSENRIDGE DR, HOUSTON, TX 77053",29.592823,-95.476945,1380,6515,139951,118708,124956,1660,158520.0
77053,"4918 MARKWOOD LN, HOUSTON, TX 77053",29.601716999999997,-95.453202,1364,6599,140001,124300,130842,579,91785.0
77053,"3914 ASPEN STAR CT, HOUSTON, TX 77053",29.602916999999998,-95.435477,1530,4700,178519,161517,170018,1236,140829.0
77053,"5310 MELANITE AVE, HOUSTON, TX 77053",29.597274,-95.462594,1320,,132638,117479,126322,3979,84540.0
77053,"5127 GLENRIDGE LN, HOUSTON, TX 77053",29.602201,-95.45796899999999,896,3162,66030,39290,54570,-387,31494.0
77053,"5709 MELANITE AVE, HOUSTON, TX 77053",29.599464,-95.47016500000001,1322,,133814,116141,126240,4790,102180.0
77053,"14231 BURNHAM ST, HOUSTON, TX 77053",29.601172,-95.427913,1216,9601,129685,90030,107178,-1731,43205.0
77053,"16419 PAITER ST, HOUSTON, TX 77053",29.585131,-95.467117,1328,,145200,128606,138286,4510,113500.0
77053,"5531 SANTA CHRISTI DR, HOUSTON, TX 77053",29.582903,-95.47340600000001,1027,8046,133016,112459,120924,3549,84670.0
77053,"4815 BRYANT RIDGE RD, HOUSTON, TX 77053",29.594682000000002,-95.45079100000001,1582,5249,159182,133891,148768,696,128006.0
77053,"15103 BATHURST DR, HOUSTON, TX 77053",29.607657,-95.434611,1462,7619,135065,119629,128633,-1783,86041.0
77053,"15077 S POST OAK RD, HOUSTON, TX 77053",29.608047999999997,-95.46464399999999,1240,12946,142463,104560,130700,-3374,67310.0
77053,"6230 PRESIDIO DR, HOUSTON, TX 77053",29.590761999999998,-95.477859,2009,6646,170341,154119,162230,3840,154360.0
77053,"5007 SHADOWRIDGE DR, HOUSTON, TX 77053",29.5846,-95.462528,1358,,143383,125631,136555,6897,117840.0
77053,"16118 BOWIE RIDGE LN, HOUSTON, TX 77053",29.589484999999996,-95.466087,1011,6600,126005,114005,120005,3447,120070.0
77053,"16607 LAZY RIDGE RD, HOUSTON, TX 77053",29.582085,-95.45966800000001,1537,13102,170271,145947,162163,4459,119310.0
77053,"5015 SHADOWRIDGE DR, HOUSTON, TX 77053",29.584596,-95.46272900000001,1348,,142246,124634,135472,6743,116970.0
77053,"15418 JUPITER DR, HOUSTON, TX 77053",29.603576,-95.44106,1084,12301,113289,95456,104897,-9209,78000.0
77053,"5534 MELANITE AVE, HOUSTON, TX 77053",29.598371999999998,-95.46652900000001,6490,,526007,291385,378422,20855,107520.0
77053,"16706 SENTINEL DR, HOUSTON, TX 77053",29.585185,-95.471976,1458,5835,144067,127603,137207,4782,107810.0
77053,"15123 BATHURST DR, HOUSTON, TX 77053",29.606951000000002,-95.434602,1724,7553,152477,132893,139887,-2458,91219.0
77053,"5530 ARTHINGTON ST, HOUSTON, TX 77053",29.599745000000002,-95.46572900000001,1036,,127169,109828,115608,2243,82240.0
77053,"5731 LYCOMB DR, HOUSTON, TX 77053",29.592044,-95.473734,793,4953,114652,103732,109192,1174,85610.0
77053,"16722 RUIDOSA CT, HOUSTON, TX 77053",29.583188,-95.476054,1150,6150,142829,115312,131036,5950,96710.0
77053,"16030 MALADI DR, HOUSTON, TX 77053",29.589067,-95.447965,1232,4962,133893,110766,121721,2168,52860.0
77053,"5710 GATEWOOD AVE, HOUSTON, TX 77053",29.604854,-95.468885,1278,5880,142419,128855,135637,-673,91961.0
