zip,address,lat,lng,house area,lot area,high,low,estimate,month value change,property tax
77059,"15914 BROOKVILLA DR, HOUSTON, TX 77059",29.591681,-95.114851,2807,10402,334185,302357,318271,-1547,266819.0
77059,"11530 MIGHTY REDWOOD DR, HOUSTON, TX 77059",29.603399,-95.096252,2777,8999,342464,309848,326156,2464,275000.0
77059,"13802 ROUND OAK CT, HOUSTON, TX 77059",29.597575,-95.14146600000001,2104,7588,261197,236321,248759,-1877,232646.0
77059,"4518 REGAL PINE TRL, HOUSTON, TX 77059",29.608379,-95.11196,1975,9104,283521,251119,270020,-145,279500.0
77059,"16422 DUNMOOR DR, HOUSTON, TX 77059",29.601378999999998,-95.110034,1532,7370,207120,187394,197257,-2131,175125.0
77059,"13814 INLAND SPRING CT, HOUSTON, TX 77059",29.597926,-95.140557,2992,8808,316472,286332,301402,540,272259.0
77059,"3806 SAND MYRTLE DR, HOUSTON, TX 77059",29.602838000000002,-95.119484,3062,10036,410945,371807,391376,2745,361692.0
77059,"16414 PARKSLEY DR, HOUSTON, TX 77059",29.600469,-95.11039699999999,1972,7000,222975,197733,210354,-531,163163.0
77059,"3407 SCENIC ELM ST, HOUSTON, TX 77059",29.603183,-95.126467,4190,10420,522086,472364,497225,-2205,459000.0
77059,"2234 VILLAGE DALE AVE, HOUSTON, TX 77059",29.597616,-95.146628,1940,6673,236280,200948,220822,-3408,207000.0
77059,"16615 SHADOW PATH DR, HOUSTON, TX 77059",29.593140000000002,-95.102823,2362,7722,326123,288851,310593,3037,289011.0
77059,"15902 CLEARCREST DR, HOUSTON, TX 77059",29.588186,-95.114938,3374,11426,351905,315039,335148,-4844,277010.0
77059,"15903 BROOK FOREST DR, HOUSTON, TX 77059",29.586121999999996,-95.114017,2642,11831,299822,263051,282851,-591,241555.0
77059,"15511 PINENUT BAY CT, HOUSTON, TX 77059",29.596397999999997,-95.121014,3506,11186,516365,467187,491776,3730,501462.0
77059,"16322 BROOKFORD DR, HOUSTON, TX 77059",29.5982,-95.112045,1919,6957,245316,221952,233634,-1290,201113.0
77059,"13802 ROSEBRANCH CT, HOUSTON, TX 77059",29.598546999999996,-95.13991800000001,2040,7588,262434,230248,247579,-2832,252906.0
77059,"15906 BROOKFORD DR, HOUSTON, TX 77059",29.596365999999996,-95.11688000000001,2230,7070,254984,230700,242842,-245,203561.0
77059,"11803 LONE HICKORY CT, HOUSTON, TX 77059",29.597724,-95.097849,3215,14985,366390,331496,348943,-2838,315000.0
77059,"16019 EDGEWOOD DR, HOUSTON, TX 77059",29.591416,-95.103451,2289,7178,349362,316090,332726,11236,285122.0
77059,"16214 HARVEST SUMMER CT, HOUSTON, TX 77059",29.595558,-95.10566899999999,2939,10603,348122,311996,328417,1447,317897.0
77059,"4134 PINE CREST TRL, HOUSTON, TX 77059",29.607807,-95.12137299999999,3640,14688,482989,423191,459990,1814,425296.0
77059,"16514 SHADOW PATH DR, HOUSTON, TX 77059",29.592395,-95.10329200000001,2433,7549,329721,298319,314020,2354,296470.0
77059,"16310 HICKORY KNOLL DR, HOUSTON, TX 77059",29.595763,-95.11144,2234,7440,250896,215723,234482,2606,173000.0
77059,"13602 COUNTRY GREEN CT, HOUSTON, TX 77059",29.600553,-95.142651,2810,8433,305625,276517,291071,-1341,275865.0
77059,"13614 MIDFIELD GLEN CT, HOUSTON, TX 77059",29.598671999999997,-95.14430899999999,2669,7937,311281,278978,293661,1332,282169.0
77059,"13706 SHADOW FALLS CT, HOUSTON, TX 77059",29.597515,-95.144813,3104,7958,334309,299287,318390,-1647,270387.0
77059,"16310 LAURELFIELD DR, HOUSTON, TX 77059",29.587384999999998,-95.10991999999999,2463,10006,329182,277366,304798,5104,228256.0
77059,"3431 LIMESTONE SKY CT, HOUSTON, TX 77059",29.610259999999997,-95.11681,4548,16230,778666,654953,727725,-11053,614926.0
77059,"4230 CEDAR RIDGE TRL, HOUSTON, TX 77059",29.603648,-95.114839,2614,13103,356682,316681,333348,1224,271941.0
77059,"4030 TEAL FERN CT, HOUSTON, TX 77059",29.601677000000002,-95.104516,3569,13351,373308,337754,355531,-3830,350000.0
77059,"4322 ROARING RAPIDS DR, HOUSTON, TX 77059",29.598171,-95.093917,2950,9169,358238,324120,341179,-6354,344726.0
77059,"16003 MESA VERDE DR, HOUSTON, TX 77059",29.589616999999997,-95.113011,2448,16156,302892,274046,288469,-406,247991.0
77059,"16418 MILL POINT DR, HOUSTON, TX 77059",29.597423,-95.109173,1930,7200,218485,197677,208081,2325,168500.0
77059,"13910 BROOKLET VIEW CT, HOUSTON, TX 77059",29.596156,-95.140792,2308,8119,286710,259404,273057,-769,264153.0
77059,"3730 EMERALD FALLS DR, HOUSTON, TX 77059",29.600640000000002,-95.122505,5160,11521,663496,556863,592407,-12784,576747.0
77059,"3606 LEDGESTONE DR, HOUSTON, TX 77059",29.589261999999998,-95.10349699999999,2207,9453,271243,245411,258327,-1323,219609.0
77059,"16018 PARK CENTER WAY, HOUSTON, TX 77059",29.603394,-95.116786,3596,9803,432513,391321,411917,-3981,331527.0
77059,"16015 BROOKVILLA DR, HOUSTON, TX 77059",29.592267,-95.11367299999999,2784,10084,326635,295527,311081,1069,270760.0
77059,"15702 MILL POINT DR, HOUSTON, TX 77059",29.594495000000002,-95.118374,1647,8856,228714,202822,215768,4497,177927.0
77059,"16418 HAVENHURST DR, HOUSTON, TX 77059",29.598179,-95.10952900000001,1803,7493,207283,187541,197412,-4330,163588.0
77059,"16011 SPRING FOREST DR, HOUSTON, TX 77059",29.601496,-95.116781,2596,7910,284336,257256,270796,-1081,243500.0
77059,"15406 DRIFTWOOD OAK CT, HOUSTON, TX 77059",29.594724,-95.121066,3829,7884,3673834,1708333,1836917,-3960,485569.0
77059,"13831 INLAND SPRING CT, HOUSTON, TX 77059",29.597964,-95.140152,2634,7418,317158,286952,302055,-1167,272390.0
77059,"13902 MARBLEDALE CT, HOUSTON, TX 77059",29.595662,-95.14161800000001,2757,7915,320205,289709,304957,-1705,259889.0
77059,"16211 PARKSLEY DR, HOUSTON, TX 77059",29.600429,-95.11384699999999,1913,6159,220467,190127,202263,-1995,120150.0
77059,"2811 ACORN WOOD WAY, HOUSTON, TX 77059",29.588893,-95.123347,3870,24393,910477,747892,812926,-8321,752500.0
77059,"16210 SHADY ELMS DR, HOUSTON, TX 77059",29.594628999999998,-95.111841,2580,9240,277407,250987,264197,1768,200000.0
77059,"16527 SCENIC PEAKS CT, HOUSTON, TX 77059",29.599009000000002,-95.106015,2754,9063,339346,307028,323187,5682,294333.0
77059,"4823 PINE HEATHER CT, HOUSTON, TX 77059",29.608932,-95.108807,4420,11456,466433,417569,444222,-1108,434915.0
77059,"3423 E PINE BROOK WAY, HOUSTON, TX 77059",29.605790999999996,-95.10965300000001,3677,23339,477108,427126,454389,1302,404800.0
77059,"4415 CEDAR RIDGE TRL, HOUSTON, TX 77059",29.603749,-95.110679,3443,10127,436213,394669,415441,1269,364706.0
77059,"15802 STONEHAVEN DR, HOUSTON, TX 77059",29.597715,-95.118843,2240,8001,223202,191912,208600,-8390,198603.0
77059,"16458 DUNMOOR DR, HOUSTON, TX 77059",29.601537,-95.108138,1543,6599,202375,183101,192738,-750,177994.0
77059,"13514 FIELD SPRINGS LN, HOUSTON, TX 77059",29.602888,-95.14095400000001,2436,9522,300811,272163,286487,4919,260200.0
77059,"13911 VIEWFIELD CT, HOUSTON, TX 77059",29.595340999999998,-95.142028,2416,23534,309817,277360,295064,2797,261005.0
77059,"16802 VILLAGE CORNER CT, HOUSTON, TX 77059",29.603696000000003,-95.098233,3092,8555,9198966,4369509,4599483,-10095,324000.0
77059,"4218 VILLAGE CORNER DR, HOUSTON, TX 77059",29.601537,-95.10078,2791,9559,339060,306768,322914,456,311700.0
77059,"15903 DUNMOOR DR, HOUSTON, TX 77059",29.60052,-95.118227,2027,8220,231458,209414,220436,3013,193771.0
77059,"3723 MONTVALE DR, HOUSTON, TX 77059",29.58993,-95.106197,2236,8634,268031,242505,255268,-1008,218100.0
77059,"3246 MOSSY ELM CT, HOUSTON, TX 77059",29.605101,-95.132638,3072,14588,379987,327211,351840,5890,312344.0
77059,"16403 CAVENDISH DR, HOUSTON, TX 77059",29.59975,-95.110906,1692,6957,213333,193015,203174,-1023,173762.0
77059,"13610 PEAR WOODS CT, HOUSTON, TX 77059",29.601327,-95.141072,3290,7705,331306,299754,315530,-532,284485.0
77059,"15823 BROOK FOREST DR, HOUSTON, TX 77059",29.585426000000002,-95.115375,2992,9840,308313,276013,293631,-1756,270942.0
77059,"4003 VALLEY GREEN CT, HOUSTON, TX 77059",29.600952000000003,-95.10476899999999,3550,11707,387268,350386,368827,-9691,342846.0
77059,"16315 BROOK FOREST DR, HOUSTON, TX 77059",29.585966,-95.109994,3618,19560,474742,420486,452135,-4610,437516.0
77059,"5707 BALCONES RIDGE LN, HOUSTON, TX 77059",29.610259999999997,-95.11681,3665,11369,522387,472635,497511,-3145,449702.0
77059,"4307 N PINE BROOK WAY, HOUSTON, TX 77059",29.610405,-95.115421,4425,15306,468611,423981,446296,-19788,438438.0
77059,"16434 LARKFIELD DR, HOUSTON, TX 77059",29.592821999999998,-95.10727,2160,8995,259406,234700,247053,5499,210000.0
77059,"4407 CEDAR RIDGE TRL, HOUSTON, TX 77059",29.603558000000003,-95.11110699999999,3180,8420,367976,332930,350453,-1211,310000.0
77059,"16415 LOCKE HAVEN DR, HOUSTON, TX 77059",29.589345,-95.106667,2038,9008,259002,213437,239817,-291,211959.0
77059,"3027 PRAIRIE KNOLL CT, HOUSTON, TX 77059",29.603415999999996,-95.134588,2504,8294,297832,269468,283650,1213,252774.0
77059,"3706 KERR COMMONS LN, HOUSTON, TX 77059",29.610259999999997,-95.11681,2314,10751,393038,341128,370791,-504,345081.0
77059,"13210 TERANIA CLIFF TRCE, HOUSTON, TX 77059",29.610259999999997,-95.11681,1980,6652,409500,356904,375688,-1523,124160.0
77059,"16703 MIGHTY REDWOOD CT, HOUSTON, TX 77059",29.602613,-95.096192,3610,11652,385770,345737,363934,-5332,379869.0
77059,"13814 BROOKLET VIEW CT, HOUSTON, TX 77059",29.596936,-95.142124,2813,8276,322732,291996,307364,12841,253952.0
77059,"15819 HEATHERDALE DR, HOUSTON, TX 77059",29.590891,-95.116231,2331,12249,298572,270136,284354,2663,247352.0
77059,"13807 ROUND OAK CT, HOUSTON, TX 77059",29.597711999999998,-95.141189,2594,7275,306396,277216,291806,908,277752.0
77059,"4018 TEAL FERN CT, HOUSTON, TX 77059",29.601584000000003,-95.104687,2900,7679,352631,319047,335839,-148,334045.0
77059,"14135 LAKE SCENE TRL, HOUSTON, TX 77059",29.596383000000003,-95.132347,5166,14292,752414,680756,716585,-803,687000.0
77059,"13919 GARDEN CREEK WAY, HOUSTON, TX 77059",29.599315999999998,-95.136798,2232,9344,277949,251477,264713,-1269,223403.0
77059,"15406 BAY COVE CT, HOUSTON, TX 77059",29.5929,-95.120846,4613,11388,609168,515024,553789,-5791,495053.0
77059,"13818 BROOKLET VIEW CT, HOUSTON, TX 77059",29.596849,-95.142053,2370,7995,288784,261280,275032,-1614,276042.0
77059,"3214 OAK LINKS AVE, HOUSTON, TX 77059",29.597648,-95.126932,4268,18535,717142,582678,640305,4025,629579.0
77059,"11703 ORCHARD MOUNTAIN DR, HOUSTON, TX 77059",29.597651000000003,-95.09840200000001,2786,11927,357527,320426,337290,-3060,291233.0
77059,"15902 PARK CENTER WAY, HOUSTON, TX 77059",29.602675,-95.118324,3576,9618,449604,406784,428194,-3976,356000.0
77059,"4311 TOWERING OAK CT, HOUSTON, TX 77059",29.612105,-95.1151,3586,10789,419165,379245,399205,-1387,386283.0
77059,"15419 CONIFER BAY CT, HOUSTON, TX 77059",29.596978999999997,-95.121936,4081,13403,663635,600431,632033,12308,508957.0
77059,"16423 HEATHERDALE DR, HOUSTON, TX 77059",29.593875,-95.107517,2424,7980,276011,249725,262868,854,216149.0
77059,"4210 ISLAND HILLS DR, HOUSTON, TX 77059",29.596189000000003,-95.096462,2946,9840,344658,311834,328246,2252,296204.0
77059,"3019 CHERRY MILL CT, HOUSTON, TX 77059",29.601789,-95.132048,3376,7828,368346,323171,347496,12110,328751.0
77059,"3802 LOCH GLEN CT, HOUSTON, TX 77059",29.602302,-95.124476,4498,15892,649872,566402,596213,-15993,540000.0
77059,"4407 PLEASANT TRACE DR, HOUSTON, TX 77059",29.604845,-95.099379,3660,10449,386375,346280,364505,-12867,373733.0
77059,"15715 DUNMOOR DR, HOUSTON, TX 77059",29.599899,-95.12091,1731,8040,220046,199090,209568,3682,178349.0
77059,"16631 PALISADES POINT DR, HOUSTON, TX 77059",29.602748,-95.102951,3031,9601,345998,313046,329522,4596,298004.0
77059,"4014 PEACH COUNTRY CT, HOUSTON, TX 77059",29.603493,-95.10503100000001,3301,11173,362627,328091,345359,-3651,327027.0
77059,"2810 ACORN WOOD WAY, HOUSTON, TX 77059",29.588721999999997,-95.123101,4578,13451,764259,684194,727866,885,717780.0
77059,"15922 MESA VERDE DR, HOUSTON, TX 77059",29.589113,-95.114597,2524,10454,320427,289911,305169,-156,269385.0
77059,"4526 AMBLE OAK CT, HOUSTON, TX 77059",29.587609000000004,-95.121403,4575,12463,696555,612710,644958,-2087,607911.0
77059,"4142 PINE CREST TRL, HOUSTON, TX 77059",29.60817,-95.12118199999999,3198,10659,397556,359694,378625,1148,343646.0
77059,"4206 S PINE BROOK CV, HOUSTON, TX 77059",29.606361,-95.112698,2547,14732,380471,340988,358935,-205,350138.0
77059,"16462 CAVENDISH DR, HOUSTON, TX 77059",29.600058,-95.107952,1680,6804,202437,183157,192797,-1746,166880.0
77059,"4538 STERLING WOOD WAY, HOUSTON, TX 77059",29.61273,-95.112338,3797,12280,446250,403750,425000,514,409500.0
77059,"4002 PARK CIRCLE WAY, HOUSTON, TX 77059",29.606854,-95.117671,3595,8777,413790,374382,394086,892,396943.0
77059,"15026 BLOSSOM BAY DR, HOUSTON, TX 77059",29.587402,-95.12014,3972,11813,734192,596960,686161,5394,668957.0
77059,"16814 SOARING FOREST DR, HOUSTON, TX 77059",29.602645000000003,-95.105278,3015,10271,351984,318462,335223,4364,299743.0
77059,"15927 DUNMOOR DR, HOUSTON, TX 77059",29.600569,-95.117835,1734,7248,228079,206357,217218,1299,181651.0
77059,"15703 LARKFIELD DR, HOUSTON, TX 77059",29.589948,-95.11767900000001,2826,10800,328743,297435,313089,6913,276000.0
77059,"16310 HEATHER BEND CT, HOUSTON, TX 77059",29.596594,-95.10403199999999,2793,11569,345880,312940,329410,2392,290000.0
77059,"15910 CLEARCREST DR, HOUSTON, TX 77059",29.588219,-95.114805,3276,9500,315314,285284,300299,2448,280000.0
77059,"4011 FOREST BIRCH CT, HOUSTON, TX 77059",29.599445000000003,-95.10318199999999,3616,14850,374269,338625,356447,-1600,350828.0
77059,"15702 CAVENDISH DR, HOUSTON, TX 77059",29.598344,-95.120689,2082,8999,242915,219781,231348,4689,200000.0
77059,"3115 ACORN WOOD WAY, HOUSTON, TX 77059",29.59399,-95.123365,8402,28183,3033148,1939226,2486187,-13164,1726000.0
77059,"16010 BROOKFORD DR, HOUSTON, TX 77059",29.596609,-95.115544,1926,7254,237120,214538,225829,-5156,199239.0
77059,"4711 N PINE BROOK WAY, HOUSTON, TX 77059",29.609728000000004,-95.110396,4401,14070,497569,440704,473875,-798,495175.0
77059,"3215 ARBOR MILL CT, HOUSTON, TX 77059",29.609058,-95.135284,2660,14140,327822,296600,312211,222,266085.0
77059,"13611 HIDDEN DELL CT, HOUSTON, TX 77059",29.599099,-95.1432,2308,10010,279610,252980,266295,500,243000.0
77059,"15818 BROOKVILLA DR, HOUSTON, TX 77059",29.591521999999998,-95.116017,2552,11700,328783,297471,313127,6015,249967.0
77059,"15802 LONGVALE DR, HOUSTON, TX 77059",29.592302,-95.116715,3076,9243,315346,285314,300330,2728,278852.0
77059,"3415 LIMESTONE SKY CT, HOUSTON, TX 77059",29.610259999999997,-95.11681,4312,11352,628857,551733,593261,20872,606614.0
77059,"16422 BROOKVILLA DR, HOUSTON, TX 77059",29.594295000000002,-95.107946,2298,8368,277299,250889,264094,-1092,221054.0
77059,"4107 OAK BLOSSOM CT, HOUSTON, TX 77059",29.608427000000002,-95.116153,3214,8786,393880,356368,375124,5620,359634.0
77059,"16223 HICKORY KNOLL DR, HOUSTON, TX 77059",29.595594000000002,-95.11246700000001,1828,7545,222459,199374,209867,-1618,173231.0
77059,"15910 LARKFIELD DR, HOUSTON, TX 77059",29.590145,-95.113913,2536,10659,326649,295539,311094,8334,250628.0
77059,"16003 EL DORADO OAKS DR, HOUSTON, TX 77059",29.602971000000004,-95.116388,2881,9000,396557,358789,377673,860,349076.0
77059,"13418 SUMMIT RESERVE CT, HOUSTON, TX 77059",29.610259999999997,-95.11681,4188,9718,575802,520964,548383,23470,524552.0
77059,"4106 VILLAGE CORNER DR, HOUSTON, TX 77059",29.601172,-95.102062,3325,10319,363446,328832,346139,-255,327576.0
77059,"16415 SHADY ELMS DR, HOUSTON, TX 77059",29.595971999999996,-95.109289,2407,10420,276601,250259,263430,-753,217821.0
77059,"11811 ORCHARD MOUNTAIN DR, HOUSTON, TX 77059",29.59968,-95.098327,2821,9239,359052,321792,338728,5278,303423.0
77059,"4115 ISLAND HILLS DR, HOUSTON, TX 77059",29.59615,-95.09754000000001,3147,9317,346151,313185,329668,1994,300000.0
77059,"15710 SPRING FOREST DR, HOUSTON, TX 77059",29.600502000000002,-95.121806,1742,7801,225253,203801,214527,2301,181000.0
77059,"3322 DOVER ST, HOUSTON, TX 77017",29.69296,-95.280659,2776,9021,473885,420739,442883,-10056,188078.0
77059,"4518 WATER ELM CT, HOUSTON, TX 77059",29.605426,-95.109666,3659,16448,438079,396357,417218,-2379,367300.0
77059,"16015 BROOKFORD DR, HOUSTON, TX 77059",29.596905,-95.115466,1550,6830,208614,186759,198680,-3093,176628.0
77059,"3011 ACORN WOOD WAY, HOUSTON, TX 77059",29.595029999999998,-95.124288,5336,19950,825460,746844,786152,4741,665150.0
77059,"15807 HAVENHURST DR, HOUSTON, TX 77059",29.595765999999998,-95.11775899999999,1925,6974,248785,222722,236938,4501,185689.0
77059,"11710 MIGHTY REDWOOD DR, HOUSTON, TX 77059",29.600933,-95.09854,3506,10681,375737,339953,357845,-8180,354613.0
77059,"16910 COTTONWOOD WAY, HOUSTON, TX 77059",29.603902,-95.10840400000001,3505,8960,417123,377397,397260,4282,393889.0
77059,"16423 LAURELFIELD DR, HOUSTON, TX 77059",29.587732,-95.106739,3065,9282,321292,290692,305992,3359,305230.0
77059,"16402 MILL POINT DR, HOUSTON, TX 77059",29.597222,-95.10999,1863,7880,223060,201816,212438,-292,182767.0
77059,"11718 MIGHTY REDWOOD DR, HOUSTON, TX 77059",29.601249,-95.09808199999999,3470,9217,375073,339351,357212,-4363,361250.0
77059,"3807 PARTRIDGEBERRY CT, HOUSTON, TX 77059",29.603749,-95.117235,3608,9531,425619,385083,405351,-41,381158.0
77059,"4427 CYPRESS POND CT, HOUSTON, TX 77059",29.609585,-95.111793,2347,7841,312391,274437,291954,-2108,303079.0
77059,"3707 GLENMEADE DR, HOUSTON, TX 77059",29.590079,-95.109099,3066,10890,326849,295721,311285,2598,318893.0
77059,"4507 AMBLE OAK CT, HOUSTON, TX 77059",29.588084999999996,-95.12133299999999,4491,11490,734845,636865,699852,1079,716188.0
77059,"16027 ECHO HILL DR, HOUSTON, TX 77059",29.59775,-95.115243,2304,9047,259973,235213,247593,1240,216888.0
77059,"3526 EMERALD FALLS CT, HOUSTON, TX 77059",29.598601000000002,-95.12191700000001,2476,7140,478705,282401,344392,-7888,312515.0
77059,"16415 BROOKVILLA DR, HOUSTON, TX 77059",29.594252,-95.109121,2220,8282,265594,240300,252947,-753,210000.0
77059,"15507 OAKMONT CLUB CT, HOUSTON, TX 77059",29.590371,-95.120662,4181,9578,557482,504388,530935,-11505,513000.0
77059,"3811 EMERALD FALLS DR, HOUSTON, TX 77059",29.601886,-95.123502,4560,11090,531651,481017,506334,1497,499131.0
77059,"17014 CHAPEL PARK WAY, HOUSTON, TX 77059",29.604453999999997,-95.11297900000001,3500,19760,454948,407287,433284,-2148,416447.0
77059,"3715 W PINE BROOK WAY, HOUSTON, TX 77059",29.604967,-95.11539300000001,3312,10677,410545,371445,390995,2967,374530.0
77059,"16510 LOCKE HAVEN DR, HOUSTON, TX 77059",29.588966999999997,-95.104555,2648,8956,290814,263118,276966,-5591,228782.0
77059,"4219 CEDAR RIDGE TRL, HOUSTON, TX 77059",29.603663,-95.11419599999999,3400,8832,424740,384288,404514,3571,344459.0
77059,"4518 AMBLE OAK CT, HOUSTON, TX 77059",29.58765,-95.12142800000001,4386,11539,636279,564920,594653,-12347,563791.0
77059,"16422 GLENSHANNON DR, HOUSTON, TX 77059",29.591258000000003,-95.10673299999999,2421,9322,279865,253211,266538,-397,233392.0
77059,"4018 ELM CREST TRL, HOUSTON, TX 77059",29.609282,-95.116355,3349,9601,421507,381363,401435,2234,369933.0
77059,"4214 INDIAN SUNRISE CT, HOUSTON, TX 77059",29.596919,-95.09680300000001,3360,9239,363833,329183,346508,-5803,309000.0
77059,"15723 ECHO HILL DR, HOUSTON, TX 77059",29.597052,-95.119189,2304,8163,238215,208721,226871,4460,203836.0
77059,"15818 CRAIGHURST DR, HOUSTON, TX 77059",29.586168,-95.115208,3096,10559,311683,281999,296841,-206,290217.0
77059,"4007 CINNAMON FERN CT, HOUSTON, TX 77059",29.604257,-95.12315,2956,9749,406333,367635,386984,2945,345013.0
77059,"4002 RUSTLING WOODS CT, HOUSTON, TX 77059",29.59515,-95.10175100000001,3196,11935,346357,310414,326752,-215,311873.0
77059,"4318 ISLAND HILLS DR, HOUSTON, TX 77059",29.596353000000004,-95.095102,3032,9840,339909,307537,323723,508,307549.0
77059,"4110 OAK BLOSSOM CT, HOUSTON, TX 77059",29.608425,-95.115837,3337,11099,405217,366625,385921,481,347600.0
77059,"3739 KERR COMMONS LN, HOUSTON, TX 77059",29.610259999999997,-95.11681,2533,6922,358523,301024,338229,-68460,285965.0
77059,"13530 PEAR WOODS CT, HOUSTON, TX 77059",29.602464,-95.142335,2659,7518,303341,274451,288896,952,274073.0
77059,"3414 CACTUS ST, HOUSTON, TX 77026",29.793043,-95.33499599999999,3648,11813,537014,485870,511442,4650,64590.0
77059,"3103 MOSSY ELM CT, HOUSTON, TX 77059",29.607408000000003,-95.135998,3344,6817,324900,293958,309429,-2481,296208.0
77059,"2823 TIMBER BRIAR CIR, HOUSTON, TX 77059",29.597228,-95.13688,2609,6982,329275,297915,313595,464,277864.0
77059,"13810 INLAND SPRING CT, HOUSTON, TX 77059",29.59797,-95.140603,2813,8498,335587,303627,319607,-378,282400.0
77059,"16414 CRAIGHURST DR, HOUSTON, TX 77059",29.586668,-95.10698000000001,2607,15176,325533,294529,310031,3765,243657.0
77059,"15415 PARKWOOD WAY, HOUSTON, TX 77059",29.589246999999997,-95.121158,4069,11630,534079,464199,499139,4830,440000.0
77059,"3126 LONG BOUGH CT, HOUSTON, TX 77059",29.607263,-95.135272,2482,8485,288731,261233,274982,3017,247600.0
77059,"4519 WATER ELM CT, HOUSTON, TX 77059",29.605684999999998,-95.109563,3565,15233,427011,386343,406677,-6670,403628.0
77059,"13511 SCENIC GLADE DR, HOUSTON, TX 77059",29.606896999999996,-95.137913,3012,7858,333578,301808,317693,-1271,315045.0
77059,"2510 BLOSSOM BAY CT, HOUSTON, TX 77059",29.589211,-95.118328,4565,12528,1054555,770977,886181,-2234,1002660.0
77059,"15719 ECHO HILL DR, HOUSTON, TX 77059",29.597037,-95.119232,1741,8529,221422,196117,210878,1204,186623.0
77059,"4003 N DAWN CYPRESS CT, HOUSTON, TX 77059",29.604965000000004,-95.120478,3575,10768,418250,378416,398333,-1251,394373.0
77059,"17022 EVERGREEN ELM WAY, HOUSTON, TX 77059",29.604891,-95.110998,4074,11864,459230,415494,437362,-1336,393531.0
77059,"3911 S WATER IRIS CT, HOUSTON, TX 77059",29.604567,-95.119225,3132,10850,384047,347471,365759,-10154,357500.0
77059,"15518 CONIFER BAY CT, HOUSTON, TX 77059",29.596946999999997,-95.121256,4251,11574,590193,523379,556786,3639,500000.0
77059,"3147 PLEASANT COVE CT, HOUSTON, TX 77059",29.605846999999997,-95.135643,2504,7475,304316,275334,289825,-2250,262800.0
77059,"16027 HICKORY KNOLL DR, HOUSTON, TX 77059",29.59473,-95.11437099999999,2108,7074,250051,223855,238144,-830,191247.0
77059,"4006 QUIET KNOLL CT, HOUSTON, TX 77059",29.593911,-95.10049000000001,2818,11303,340727,308277,324502,-837,305119.0
77059,"11807 MIGHTY REDWOOD DR, HOUSTON, TX 77059",29.598723,-95.099527,3089,9518,346748,313724,330236,4714,299000.0
77059,"13502 BRIAR FALLS CT, HOUSTON, TX 77059",29.605994,-95.136224,2550,8454,314722,284748,299735,2590,282199.0
77059,"15806 CRESTBROOK DR, HOUSTON, TX 77059",29.593154,-95.116791,2695,9723,304934,275892,290413,16234,243819.0
77059,"3231 ALMOND CREEK DR, HOUSTON, TX 77059",29.604933000000003,-95.13544300000001,2880,8662,316750,286584,301667,3464,255000.0
77059,"11810 MIGHTY REDWOOD DR, HOUSTON, TX 77059",29.598788,-95.099847,2734,8999,343278,310584,326931,839,317291.0
77059,"4314 ROARING RAPIDS DR, HOUSTON, TX 77059",29.598034000000002,-95.09441600000001,2791,9584,343952,311194,327573,3457,306066.0
77059,"4014 VILLAGE CORNER DR, HOUSTON, TX 77059",29.600209000000003,-95.103693,3216,12330,363110,328528,345819,-764,322988.0
77059,"15911 BROOKFORD DR, HOUSTON, TX 77059",29.596646000000003,-95.116867,1964,7131,233978,205009,222836,-1923,164446.0
77059,"4215 MISTY HEATHER CT, HOUSTON, TX 77059",29.600238,-95.096486,3007,9315,354951,321147,338049,1536,289049.0
77059,"3214 MOSSY ELM CT, HOUSTON, TX 77059",29.605714000000003,-95.133471,3290,7845,380673,344419,362546,3802,337729.0
77059,"16419 SHADY ELMS DR, HOUSTON, TX 77059",29.596040999999996,-95.109016,2421,10071,280957,254199,267578,56,228020.0
77059,"16339 CLEARCREST DR, HOUSTON, TX 77059",29.588627000000002,-95.10861,2575,9292,278549,252021,265285,-618,214829.0
77059,"3514 LEDGESTONE DR, HOUSTON, TX 77059",29.587290000000003,-95.103306,2544,11678,322345,291645,306995,1543,250436.0
77059,"14218 LAKE SCENE TRL, HOUSTON, TX 77059",29.598855,-95.132163,4666,25600,808428,716908,762668,-12408,751170.0
77059,"15703 FALMOUTH DR, HOUSTON, TX 77059",29.586705,-95.117722,2716,12001,314027,267070,293483,5370,221713.0
77059,"15803 HEATHERDALE DR, HOUSTON, TX 77059",29.590870000000002,-95.11648000000001,2599,9601,326635,295527,311081,7063,299479.0
77059,"14026 BAY OAKS BLVD, HOUSTON, TX 77059",29.595921999999998,-95.137056,2211,5847,286103,251343,267386,-711,270355.0
77059,"4434 STERLING WOOD WAY, HOUSTON, TX 77059",29.612671999999996,-95.114662,4405,9300,455570,412182,433876,-1320,415900.0
77059,"3206 ARBOR MILL CT, HOUSTON, TX 77059",29.608807000000002,-95.135142,2935,12079,331339,299783,315561,653,272830.0
77059,"4115 NOBLE CYPRESS CT, HOUSTON, TX 77059",29.608512,-95.11295,2924,9452,355575,314938,338643,1258,359483.0
77059,"16003 CRAIGHURST DR, HOUSTON, TX 77059",29.587119,-95.112955,3278,11346,359703,294892,324057,1750,224115.0
77059,"13902 INLAND SPRING CT, HOUSTON, TX 77059",29.59715,-95.139381,2253,9387,284569,257467,271018,-777,262197.0
77059,"3907 QUIET KNOLL CT, HOUSTON, TX 77059",29.593484999999998,-95.101461,3523,14187,377067,341155,359111,156,313342.0
77059,"15806 BROOKFORD DR, HOUSTON, TX 77059",29.596182000000002,-95.118229,2031,6943,248600,224924,236762,-3855,209246.0
77059,"12003 TWILIGHT SKY CT, HOUSTON, TX 77059",29.59579,-95.098764,3394,12841,378323,342293,360308,-1593,349310.0
77059,"13919 ROUND OAK CT, HOUSTON, TX 77059",29.596815000000003,-95.139826,2594,30209,342421,309809,326115,-1458,303008.0
77059,"16003 STONEHAVEN DR, HOUSTON, TX 77059",29.598451,-95.115911,2277,7453,255647,231299,243473,-805,212035.0
77059,"3631 W PINE BROOK WAY, HOUSTON, TX 77059",29.603907,-95.112117,3516,9993,438813,397021,417917,592,403482.0
77059,"5715 SUTTON PINE LN, HOUSTON, TX 77059",29.610259999999997,-95.11681,4600,11238,676198,522775,568234,-10403,97358.0
77059,"16407 HEATHER BEND CT, HOUSTON, TX 77059",29.59729,-95.104619,2936,11596,367653,332639,350146,645,299600.0
77059,"15306 COASTAL OAK CT, HOUSTON, TX 77059",29.588074,-95.122447,5278,10001,910558,815166,867198,-1881,723312.0
77059,"16507 CRAIGHURST DR, HOUSTON, TX 77059",29.586769,-95.105103,2001,10263,251712,222945,239726,3805,201899.0
77059,"4307 MOUNTAIN FLOWER CT, HOUSTON, TX 77059",29.599798999999997,-95.095469,2705,10524,342425,309813,326119,1977,295711.0
77059,"13626 WILLOW HEIGHTS CT, HOUSTON, TX 77059",29.602254,-95.138597,2420,13491,286939,259611,273275,860,225000.0
77059,"3811 CANARY GRASS LN, HOUSTON, TX 77059",29.603189,-95.118977,3034,9187,358787,321554,338478,19,313000.0
77059,"16614 TOWN LAKE CT, HOUSTON, TX 77059",29.600623,-95.106783,2773,9360,338367,306141,322254,4929,286000.0
77059,"4506 VILLAGE CORNER DR, HOUSTON, TX 77059",29.604283000000002,-95.097077,2474,9121,321401,278547,306096,5231,299154.0
77059,"16010 BROOK FOREST DR, HOUSTON, TX 77059",29.585846999999998,-95.111812,4952,16078,566007,464024,509916,-2380,445462.0
77059,"2522 COASTAL OAK DR, HOUSTON, TX 77059",29.587159000000003,-95.119433,4307,11761,544217,482607,513412,671,465690.0
77059,"4302 INDIAN SUNRISE CT, HOUSTON, TX 77059",29.597143,-95.095366,2782,12175,345921,312977,329449,716,299132.0
77059,"16307 HEATHERDALE DR, HOUSTON, TX 77059",29.593004999999998,-95.109943,2401,14301,290872,263170,277021,-1995,225000.0
77059,"15726 PARKSLEY DR, HOUSTON, TX 77059",29.5988,-95.120652,2087,7840,252797,228721,240759,2768,198402.0
77059,"16022 ECHO HILL DR, HOUSTON, TX 77059",29.597471999999996,-95.11523100000001,2020,8281,235125,212733,223929,-5564,194816.0
77059,"2307 FERN GROVE LN, HOUSTON, TX 77059",29.593666,-95.143795,2277,7297,276480,250148,263314,-1204,252700.0
77059,"16375 HAVENPARK DR, HOUSTON, TX 77059",29.591368,-95.10942800000001,2853,10481,317007,286815,301911,862,265125.0
77059,"15706 MILL POINT DR, HOUSTON, TX 77059",29.594506,-95.118342,1504,7995,219632,192439,209173,3909,190171.0
77059,"16350 CLEARCREST DR, HOUSTON, TX 77059",29.588353,-95.108362,2673,9774,308070,278730,293400,2895,251488.0
77059,"4003 W PINE BROOK WAY, HOUSTON, TX 77059",29.606578000000003,-95.11922,3534,11766,422525,382285,402405,-2625,382649.0
77059,"15702 DUNMOOR DR, HOUSTON, TX 77059",29.599481,-95.121247,1760,9600,249994,214617,235843,-392,222572.0
77059,"13531 WILLOW HEIGHTS CT, HOUSTON, TX 77059",29.605055,-95.140601,2373,7998,286651,259351,273001,-916,278000.0
77059,"16450 PARKSLEY DR, HOUSTON, TX 77059",29.600733,-95.108648,1628,7362,197687,178859,188273,-143,150221.0
77059,"15723 BROOKVILLA DR, HOUSTON, TX 77059",29.591647,-95.11722900000001,2718,9675,310083,269511,289797,10617,228904.0
77059,"4102 OAK BLOSSOM CT, HOUSTON, TX 77059",29.608479,-95.115842,4000,11242,466050,417687,439670,-1198,434932.0
77059,"3243 MOSSY ELM CT, HOUSTON, TX 77059",29.605344,-95.13248,2919,10080,331736,300142,315939,1788,298423.0
77059,"13602 MIDFIELD GLEN CT, HOUSTON, TX 77059",29.598779999999998,-95.14434399999999,2592,8263,305538,276440,290989,1740,281168.0
77059,"16226 HAVENHURST DR, HOUSTON, TX 77059",29.596971999999997,-95.112786,1512,7704,198864,179924,189394,-98,161328.0
77059,"16431 BROOKVILLA DR, HOUSTON, TX 77059",29.594363,-95.108778,1985,8115,261518,236612,249065,-1346,234089.0
77059,"13526 PEAR WOODS CT, HOUSTON, TX 77059",29.602505999999998,-95.142383,2932,7013,324304,290329,308861,387,291990.0
77059,"15714 BROOK FOREST DR, HOUSTON, TX 77059",29.584753000000003,-95.117439,3301,12196,390237,353071,371654,-829,305606.0
77059,"16235 CAVENDISH DR, HOUSTON, TX 77059",29.599466999999997,-95.112854,1696,7079,209110,189194,199152,-2209,167315.0
77059,"3307 SCENIC ELM ST, HOUSTON, TX 77059",29.602290000000004,-95.127802,3489,10441,491572,444756,468164,2258,416862.0
77059,"15910 PARKSLEY DR, HOUSTON, TX 77059",29.5995,-95.117692,1696,7131,231039,207063,217961,719,169107.0
77059,"13519 ISLAND PALM CT, HOUSTON, TX 77059",29.603922999999998,-95.14058299999999,3200,7405,330788,299284,315036,-457,296000.0
77059,"3402 LEDGESTONE DR, HOUSTON, TX 77059",29.585944,-95.103192,2690,11648,329230,297874,313552,3596,242782.0
77059,"15914 PARK CENTER WAY, HOUSTON, TX 77059",29.602949,-95.117577,3414,9720,424195,383795,403995,-1184,346000.0
77059,"3207 ACORN WOOD WAY, HOUSTON, TX 77059",29.592812,-95.12331,9627,25152,2938872,1767433,2055155,-3830,1647515.0
77059,"13714 HARVEST BROOK CT, HOUSTON, TX 77059",29.596111999999998,-95.146527,2487,7061,281486,254678,268082,2908,242897.0
77059,"3127 MOSSY ELM CT, HOUSTON, TX 77059",29.606924,-95.135739,2913,9364,343856,305293,321361,4095,314084.0
77059,"3114 PLEASANT COVE CT, HOUSTON, TX 77059",29.60613,-95.136586,3200,8072,331291,299739,315515,-1768,265107.0
77059,"15731 BROOK FOREST DR, HOUSTON, TX 77059",29.585007,-95.11703100000001,3344,10681,369467,327242,351873,2522,303444.0
77059,"11606 ORCHARD MOUNTAIN DR, HOUSTON, TX 77059",29.601962,-95.096147,3549,8751,397693,359817,378755,-485,375443.0
77059,"13918 WINTER HARVEST CT, HOUSTON, TX 77059",29.60148,-95.133043,3072,11090,310067,269115,292516,-3284,286431.0
77059,"15826 DUNMOOR DR, HOUSTON, TX 77059",29.600096999999998,-95.119258,2111,8903,262909,237871,250390,-1839,216585.0
77059,"16327 LAURELFIELD DR, HOUSTON, TX 77059",29.58776,-95.109415,2777,10010,315183,285165,300174,-748,236198.0
77059,"2238 VILLAGE DALE AVE, HOUSTON, TX 77059",29.597576,-95.146636,2265,8577,276915,250543,263729,-332,243712.0
77059,"2519 COASTAL OAK DR, HOUSTON, TX 77059",29.586887,-95.119352,3779,10193,537537,476683,507110,1149,494527.0
77059,"3830 BANDERA RESERVE LN, HOUSTON, TX 77059",29.610259999999997,-95.11681,,7148,391919,344744,362888,698,73288.0
77059,"5719 CROCKETT CREEK CT, HOUSTON, TX 77059",29.610259999999997,-95.11681,4981,17154,809709,718043,763876,-1898,633822.0
77059,"15803 DUNMOOR DR, HOUSTON, TX 77059",29.600288,-95.119674,1668,7840,234902,210293,223716,3165,200526.0
77059,"15403 ROCKY OAK CT, HOUSTON, TX 77059",29.593965,-95.121103,3965,14288,518287,460161,484380,-2435,425000.0
77059,"15727 SPRING FOREST DR, HOUSTON, TX 77059",29.600503999999997,-95.121496,1972,7802,225443,203973,214708,6384,174493.0
77059,"3207 ARBOR MILL CT, HOUSTON, TX 77059",29.609032,-95.135322,3376,7118,341898,306418,322545,813,321908.0
77059,"2703 SILVER BOUGH CIR, HOUSTON, TX 77059",29.597496000000003,-95.136285,2460,7579,308298,273723,288129,526,268000.0
77059,"15902 MESA VERDE DR, HOUSTON, TX 77059",29.589025,-95.11499599999999,3237,11282,358185,302321,328610,890,237468.0
77059,"16458 HICKORY KNOLL DR, HOUSTON, TX 77059",29.596896,-95.107766,1733,7000,202985,183653,193319,-1636,161000.0
77059,"4611 JADE GREEN CT, HOUSTON, TX 77059",29.611863,-95.11077399999999,3527,10176,421022,376915,400973,3646,375635.0
77059,"4306 TOWERING OAK CT, HOUSTON, TX 77059",29.611832,-95.115037,4223,10411,456989,413467,435228,-2505,412500.0
77059,"16446 HAVENHURST DR, HOUSTON, TX 77059",29.59843,-95.108194,2152,6752,242517,219421,230969,-1824,195391.0
77059,"4815 N PINE BROOK WAY, HOUSTON, TX 77059",29.607959,-95.109613,3695,10346,443599,401351,422475,4225,434631.0
77059,"4602 N PINE BROOK WAY, HOUSTON, TX 77059",29.610244,-95.11194499999999,4511,10497,457892,414284,436088,-4034,436606.0
77059,"13306 GOLDEN FIELD DR, HOUSTON, TX 77059",29.609239000000002,-95.13609699999999,2586,8128,300903,269677,283871,-1781,243000.0
77059,"3126 MOSSY ELM CT, HOUSTON, TX 77059",29.606773999999998,-95.136003,3170,7980,329334,297968,313651,-1728,282546.0
77059,"3202 SCENIC ELM ST, HOUSTON, TX 77059",29.601221999999996,-95.129496,3752,11818,525804,475728,500766,273,455594.0
77059,"15815 PARKSLEY DR, HOUSTON, TX 77059",29.599509,-95.119377,1788,7618,228712,206930,217821,-1556,198711.0
77059,"4714 N PINE BROOK WAY, HOUSTON, TX 77059",29.609656,-95.110747,3365,10628,444937,402563,423750,-1209,411607.0
77059,"13442 TRAVIS HEIGHTS LN, HOUSTON, TX 77059",29.610259999999997,-95.11681,4503,11086,511658,462928,487293,-3231,235618.0
77059,"16342 HAVENPARK CT, HOUSTON, TX 77059",29.589837,-95.110249,2405,10775,290320,262670,276495,-1467,228187.0
77059,"4102 DELTA WOOD CT, HOUSTON, TX 77059",29.608497999999997,-95.116782,3228,9809,440196,398272,419234,4871,372974.0
77059,"16302 HEATHERDALE DR, HOUSTON, TX 77059",29.592734999999998,-95.10985699999999,2165,9600,263949,238811,251380,8124,201533.0
77059,"4610 STERLING WOOD WAY, HOUSTON, TX 77059",29.612609000000003,-95.111301,4113,10397,449865,407021,428443,-2948,440000.0
77059,"4302 EVERGREEN ELM CT, HOUSTON, TX 77059",29.602315,-95.111673,3991,13503,460118,416298,438208,-2319,387500.0
77059,"4214 MOONLIGHT SHADOW CT, HOUSTON, TX 77059",29.598674,-95.09654,3000,9147,357495,323447,340471,1925,318149.0
77059,"4510 VILLAGE CORNER DR, HOUSTON, TX 77059",29.604325,-95.09705,3188,7318,364452,329742,347097,-5033,330997.0
77059,"4510 PRINCE PINE TRL, HOUSTON, TX 77059",29.602283,-95.10935400000001,2674,8999,336195,304177,320186,2544,305000.0
77059,"3023 CHERRY MILL CT, HOUSTON, TX 77059",29.601763000000002,-95.13208900000001,2567,8159,302220,273438,287829,-1712,275513.0
77059,"3511 EMERALD FALLS CT, HOUSTON, TX 77059",29.597945000000003,-95.12197900000001,2620,8024,373893,327602,356089,-1861,332000.0
77059,"4011 VALLEY GREEN CT, HOUSTON, TX 77059",29.601164,-95.10422,2926,9762,345411,312515,328963,5885,300887.0
77059,"3223 SCENIC ELM ST, HOUSTON, TX 77059",29.602052,-95.12828,3685,10380,500645,452965,476805,-706,438147.0
77059,"5722 BALCONES RIDGE LN, HOUSTON, TX 77059",29.610259999999997,-95.11681,3269,9718,491380,422495,459234,3580,465594.0
77059,"13525 ISLAND PALM CT, HOUSTON, TX 77059",29.604119,-95.14078,2504,9578,312391,282639,297515,4209,282246.0
77059,"3719 W PINE BROOK WAY, HOUSTON, TX 77059",29.604916999999997,-95.11529499999999,3624,10650,409950,370908,390429,-2560,345000.0
77059,"5719 SUTTON PINE LN, HOUSTON, TX 77059",29.610259999999997,-95.11681,4095,11469,541875,490267,516071,1561,111659.0
77059,"4322 ORANGE JASMINE CT, HOUSTON, TX 77059",29.609657000000002,-95.11381300000001,3575,10276,454216,410958,432587,44,396600.0
77059,"16335 BROOKFORD DR, HOUSTON, TX 77059",29.598533000000003,-95.111986,1996,7436,257918,206334,234471,102,172000.0
77059,"13807 ASPEN KNOLL CT, HOUSTON, TX 77059",29.594590000000004,-95.143401,2296,7013,277040,250656,263848,870,226093.0
77059,"4015 ELM CREST TRL, HOUSTON, TX 77059",29.60956,-95.11609,3252,19563,449283,406495,427889,-1547,389735.0
77059,"4502 NOBLE SAGE CT, HOUSTON, TX 77059",29.612593,-95.11064499999999,4383,11203,491924,435704,468499,327,504141.0
77059,"4107 ISLAND HILLS DR, HOUSTON, TX 77059",29.596042999999998,-95.097982,3179,10620,348738,312548,328998,-1342,310490.0
77059,"15719 LAURELFIELD DR, HOUSTON, TX 77059",29.587507000000002,-95.117414,3185,10288,326290,295214,310752,2119,278000.0
77059,"12011 RIDGEWOOD CANYON DR, HOUSTON, TX 77059",29.594896999999996,-95.10198000000001,3616,10285,377237,341309,359273,996,324533.0
77059,"4811 PINE HEATHER CT, HOUSTON, TX 77059",29.609074,-95.108868,3945,11848,447809,405161,426485,1005,388621.0
77059,"16431 BROOKFORD DR, HOUSTON, TX 77059",29.599359999999997,-95.109135,1610,6538,193575,169608,184357,-139,170853.0
77059,"15723 DUNMOOR DR, HOUSTON, TX 77059",29.599940000000004,-95.120801,1984,8137,227030,205408,216219,8784,195265.0
77059,"4035 PEACH COUNTRY CT, HOUSTON, TX 77059",29.602964,-95.104229,3525,10128,378570,342516,360543,-7747,350351.0
77059,"15526 WOODEN OAK CT, HOUSTON, TX 77059",29.59382,-95.119393,3398,9845,399961,361869,380915,3836,383100.0
77059,"13711 LLANO LAKE CT, HOUSTON, TX 77059",29.610259999999997,-95.11681,2764,9749,441403,391433,416418,1879,435742.0
77059,"4107 DELTA WOOD CT, HOUSTON, TX 77059",29.608459999999997,-95.11709599999999,3857,43560,456816,413310,435063,-3174,357736.0
77059,"16918 COTTONWOOD WAY, HOUSTON, TX 77059",29.603469,-95.108369,3037,9600,368671,333559,351115,-3368,354947.0
77059,"15802 CLEARCREST DR, HOUSTON, TX 77059",29.588021,-95.116445,2549,10084,326143,295081,310612,16479,248696.0
77059,"3502 CRAIGHURST CT, HOUSTON, TX 77059",29.586363000000002,-95.115174,3868,23100,465186,416912,438855,-4870,347000.0
77059,"3206 ACORN WOOD WAY, HOUSTON, TX 77059",29.592952,-95.12304,5430,13650,763716,684463,720487,4971,723322.0
77059,"13914 BURNETT HILLS LN, HOUSTON, TX 77059",29.610259999999997,-95.11681,3638,11522,531475,480859,506167,4124,508124.0
77059,"4003 CINNAMON FERN CT, HOUSTON, TX 77059",29.603984000000004,-95.12301,2654,10595,361519,327089,344304,-1923,324043.0
77059,"15406 PINENUT BAY CT, HOUSTON, TX 77059",29.595774,-95.122737,4730,10224,618792,554578,583766,-11545,597652.0
77059,"16454 PARKSLEY DR, HOUSTON, TX 77059",29.600747,-95.108448,1816,6961,211803,191631,201717,-1943,174858.0
77059,"4107 PINE BLOSSOM TRL, HOUSTON, TX 77059",29.607631,-95.120471,3928,11334,485985,430444,462843,-630,455662.0
77059,"16439 GLENSHANNON DR, HOUSTON, TX 77059",29.591669,-95.10642,2474,8190,289469,259430,273084,-2314,248014.0
77059,"16506 BROOK FOREST DR, HOUSTON, TX 77059",29.585633,-95.104908,3772,13450,437716,392293,412940,-3648,390830.0
77059,"16114 PARK CENTER DR, HOUSTON, TX 77059",29.603872999999997,-95.115994,3439,11892,443315,401095,422205,1307,355294.0
77059,"4014 ROARING RAPIDS DR, HOUSTON, TX 77059",29.59625,-95.101559,3343,9147,367227,332253,349740,-3923,324986.0
77059,"13519 WILLOW HEIGHTS CT, HOUSTON, TX 77059",29.604709999999997,-95.140217,2486,8118,305311,271070,285337,535,299435.0
77059,"16343 CLEARCREST DR, HOUSTON, TX 77059",29.588627000000002,-95.108508,3286,8111,309480,280006,294743,-3123,268500.0
77059,"16202 SHADY ELMS DR, HOUSTON, TX 77059",29.594595,-95.111914,2216,10572,264215,239051,251633,9042,202184.0
77059,"3519 ALMOND CREEK DR, HOUSTON, TX 77059",29.604056,-95.133624,3228,7410,362140,307172,323339,2948,310912.0
77059,"15818 CRESTBROOK DR, HOUSTON, TX 77059",29.593164,-95.11662700000001,2672,10707,323751,292917,308334,3199,261316.0
77059,"2922 CHERRY MILL CT, HOUSTON, TX 77059",29.60115,-95.133199,2986,9331,315602,285544,300573,-1262,280305.0
77059,"4114 NOBLE CYPRESS CT, HOUSTON, TX 77059",29.608595,-95.11264,3073,11586,367625,332613,350119,-1181,320244.0
77059,"5707 BELL ST, HOUSTON, TX 77023",29.731571999999996,-95.31599,,9313,412268,344806,374789,195,79097.0
77059,"16430 GLENSHANNON DR, HOUSTON, TX 77059",29.591334999999997,-95.106521,1964,8703,243084,204821,225078,1260,175314.0
77059,"5431 MASON MOUNTAIN LN, HOUSTON, TX 77059",29.610259999999997,-95.11681,3402,7871,489198,437949,465903,5428,422742.0
77059,"3910 VALLEY GREEN CT, HOUSTON, TX 77059",29.600483,-95.10593399999999,2667,10219,341527,309001,325264,4454,285622.0
77059,"4206 ISLAND HILLS DR, HOUSTON, TX 77059",29.596182000000002,-95.09650500000001,2876,9840,350286,311002,327370,1026,297930.0
77059,"3906 VALLEY GREEN CT, HOUSTON, TX 77059",29.600475,-95.105983,3483,11016,388087,347814,366120,-9927,351869.0
77059,"17010 CHAPEL PARK CT, HOUSTON, TX 77059",29.604143,-95.11182600000001,4060,12628,453105,409953,431529,-3497,410399.0
77059,"16014 PARKSLEY DR, HOUSTON, TX 77059",29.599871000000004,-95.11552900000001,2336,7118,253651,229493,241572,7135,198810.0
77059,"5714 SUTTON PINE LN, HOUSTON, TX 77059",29.610259999999997,-95.11681,4589,11369,543363,491615,517489,-5946,97563.0
77059,"16326 BROOK FOREST DR, HOUSTON, TX 77059",29.585797999999997,-95.10954699999999,2876,10197,339337,307019,323178,749,300138.0
77059,"16514 LAURELFIELD DR, HOUSTON, TX 77059",29.587303000000002,-95.10510500000001,3548,12240,377124,341208,359166,238,300019.0
77059,"16423 MILL POINT DR, HOUSTON, TX 77059",29.597772999999997,-95.108892,1570,6839,189602,145191,170813,-1611,135000.0
77059,"15715 PARKSLEY DR, HOUSTON, TX 77059",29.598675,-95.120861,1203,7802,178997,156835,170473,-1596,149192.0
77059,"4335 SWEET CICELY CT, HOUSTON, TX 77059",29.601709000000003,-95.113206,3796,9953,439278,397442,418360,-2048,357754.0
77059,"16422 GARDEN PATH CT, HOUSTON, TX 77059",29.598546999999996,-95.103932,3481,11369,363600,328972,346286,-1083,320600.0
77059,"3819 EMERALD FALLS DR, HOUSTON, TX 77059",29.602024,-95.123574,3905,10563,500576,452902,476739,1238,415000.0
77059,"4106 N PINE BROOK WAY, HOUSTON, TX 77059",29.607568,-95.11921099999999,3596,13013,449323,406531,427927,1573,366412.0
77059,"4530 STERLING WOOD WAY, HOUSTON, TX 77059",29.612721999999998,-95.112188,3524,9026,418558,374709,398627,4414,360000.0
77059,"15922 MILL POINT DR, HOUSTON, TX 77059",29.594831,-95.11640899999999,2256,7479,251704,222938,239718,5551,190751.0
77059,"3150 PLEASANT COVE CT, HOUSTON, TX 77059",29.605562,-95.135702,3044,8455,320911,290349,305630,2233,284000.0
77059,"12006 TWILIGHT SKY CT, HOUSTON, TX 77059",29.596027000000003,-95.098678,3121,12314,366446,331546,348996,-4016,310557.0
77059,"4107 PINE CREST TRL, HOUSTON, TX 77059",29.606933,-95.12214399999999,3751,14854,470370,416613,447971,-2403,440996.0
77059,"15802 BROOK FOREST DR, HOUSTON, TX 77059",29.584986999999998,-95.11561800000001,2838,11705,334794,287861,312892,-1825,222783.0
77059,"4607 OLIVE GREEN CT, HOUSTON, TX 77059",29.612188,-95.11206,4410,9888,451288,408308,429798,-5287,439828.0
77059,"5502 SUMMER ELM CT, HOUSTON, TX 77059",29.610259999999997,-95.11681,3402,9309,505717,457553,481635,17676,430096.0
77059,"16054 MESA VERDE DR, HOUSTON, TX 77059",29.587193,-95.11125200000001,2967,12750,326064,295010,310537,286,261380.0
77059,"16827 MIDDLE FOREST DR, HOUSTON, TX 77059",29.603196999999998,-95.100094,3638,9600,404676,366136,385406,1975,362592.0
77059,"4418 CEDAR RIDGE TRL, HOUSTON, TX 77059",29.603613,-95.11031899999999,3996,14340,448540,405822,427181,-4154,390132.0
77059,"4027 VILLAGE CORNER DR, HOUSTON, TX 77059",29.600721999999998,-95.103364,3025,10337,345466,312564,329015,1720,314123.0
77059,"15418 GREENS COVE WAY, HOUSTON, TX 77059",29.592033,-95.12077,4089,11051,525463,475419,500441,697,480384.0
77059,"16218 HICKORY KNOLL DR, HOUSTON, TX 77059",29.595266,-95.112505,1504,7440,198427,177639,188978,651,159794.0
77059,"16819 SOARING FOREST DR, HOUSTON, TX 77059",29.602577,-95.105581,3325,,487405,317200,386829,1692,
77059,"13723 HARVEST BROOK CT, HOUSTON, TX 77059",29.596176,-95.146214,2650,7296,288255,260803,274529,-1354,251273.0
77059,"16399 HAVENPARK DR, HOUSTON, TX 77059",29.592067999999998,-95.107906,2009,11421,279482,252864,266173,378,251923.0
77059,"15914 CLEARCREST DR, HOUSTON, TX 77059",29.588236,-95.114738,2780,9500,317456,287222,302339,2538,262291.0
77059,"4522 WATER ELM CT, HOUSTON, TX 77059",29.605403000000003,-95.109567,3750,20037,512526,453952,488120,7949,422167.0
77059,"13438 SCENIC GLADE DR, HOUSTON, TX 77059",29.606112,-95.137649,2883,9900,322448,291738,307093,1289,290000.0
77059,"15703 CAVENDISH DR, HOUSTON, TX 77059",29.5984,-95.12038100000001,1774,9601,227457,191982,208676,354,168000.0
77059,"15815 HAVENHURST DR, HOUSTON, TX 77059",29.595777000000002,-95.117685,1817,7128,242862,219732,231297,200,200662.0
77059,"15702 HAVENHURST DR, HOUSTON, TX 77059",29.595395,-95.11918,2112,8377,252045,228041,240043,5138,197974.0
77059,"16406 CAVENDISH DR, HOUSTON, TX 77059",29.599541,-95.11063100000001,1754,7148,216858,196204,206531,-1456,169497.0
77059,"13503 BRIAR FALLS CT, HOUSTON, TX 77059",29.605813,-95.135987,2585,8255,300817,272167,286492,3455,249048.0
77059,"13635 APPLE KNOLL CT, HOUSTON, TX 77059",29.597721000000003,-95.146275,1603,6525,225680,200132,212906,-154,208188.0
77059,"16019 STONEHAVEN DR, HOUSTON, TX 77059",29.598490999999996,-95.11568299999999,2116,7405,253956,229770,241863,-1182,205558.0
77059,"3623 W PINE BROOK WAY, HOUSTON, TX 77059",29.603912,-95.111987,4056,10237,443450,401216,422333,-4946,397420.0
77059,"3903 MEADOW GROVE TRL, HOUSTON, TX 77059",29.609119,-95.118771,3054,11573,385187,348503,366845,1510,348000.0
77059,"3142 PLEASANT COVE CT, HOUSTON, TX 77059",29.605636999999998,-95.135857,2918,7696,310531,275042,295744,-129,292024.0
77059,"4522 STERLING WOOD WAY, HOUSTON, TX 77059",29.612713,-95.112039,2717,10167,367456,332460,349958,2075,328000.0
77059,"2318 CENTRAL PARK CIR, HOUSTON, TX 77059",29.597799,-95.132181,4610,14436,715589,621077,675084,-4974,616500.0
77059,"16215 HICKORY KNOLL DR, HOUSTON, TX 77059",29.595434,-95.11281,1927,8320,252415,228375,240395,3163,190317.0
77059,"16302 MILL POINT DR, HOUSTON, TX 77059",29.596545000000003,-95.111638,1944,7244,248504,222716,234438,-1952,199790.0
77059,"4431 STERLING WOOD WAY, HOUSTON, TX 77059",29.612947,-95.114603,3067,9749,377828,341844,359836,5424,314839.0
77059,"4406 CEDAR RIDGE TRL, HOUSTON, TX 77059",29.603298,-95.111007,2920,14867,402855,360651,383671,902,346768.0
77059,"2818 LEAFY GLEN DR, HOUSTON, TX 77059",29.599265000000003,-95.13756500000001,2334,8242,285619,258417,272018,-340,255155.0
77059,"3119 SCENIC ELM ST, HOUSTON, TX 77059",29.601392999999998,-95.129817,3030,10560,422634,378775,398711,-1940,404240.0
77059,"2330 CENTRAL PARK CIR, HOUSTON, TX 77059",29.597088,-95.131475,3560,16052,535470,474273,509971,2661,493000.0
77059,"15806 MILL POINT DR, HOUSTON, TX 77059",29.594720000000002,-95.117542,2116,7245,250418,224183,238493,3909,188544.0
77059,"3315 ALMOND CREEK DR, HOUSTON, TX 77059",29.604584999999997,-95.134248,2582,7863,297439,269111,283275,1999,260000.0
77059,"13726 PEAR WOODS CT, HOUSTON, TX 77059",29.600188,-95.14016600000001,3072,7888,336010,304010,320010,-270,310000.0
77059,"16422 MILL POINT DR, HOUSTON, TX 77059",29.597472999999997,-95.10896899999999,2074,7200,228401,206649,217525,-2542,183030.0
77059,"13534 SHADOW FALLS CT, HOUSTON, TX 77059",29.598815999999996,-95.14520999999999,2674,8006,289291,261739,275515,-398,242267.0
77059,"3403 SCENIC ELM ST, HOUSTON, TX 77059",29.603383,-95.126175,4236,10420,579500,524310,551905,-3128,572912.0
77059,"3803 PLUM HOLLOW DR, HOUSTON, TX 77059",29.591067,-95.107487,2350,8224,278348,251838,265093,830,223375.0
77059,"3807 DEER GRASS CT, HOUSTON, TX 77059",29.603340000000003,-95.11802800000001,2703,9029,337899,305719,321809,924,282942.0
77059,"16018 SPRING FOREST DR, HOUSTON, TX 77059",29.60124,-95.116612,2472,7802,271523,245663,258593,1130,193628.0
77059,"13622 MIDFIELD GLEN CT, HOUSTON, TX 77059",29.598601000000002,-95.144286,2379,8050,289143,261605,275374,-650,267386.0
77059,"13402 SCENIC GLADE DR, HOUSTON, TX 77059",29.605567999999998,-95.137377,3017,7823,336075,304067,320071,528,325176.0
77059,"4430 STERLING WOOD WAY, HOUSTON, TX 77059",29.612672999999997,-95.1146,3556,9300,419737,379763,399750,1061,350000.0
77059,"13402 TRAVIS HEIGHTS LN, HOUSTON, TX 77059",29.610259999999997,-95.11681,3704,13865,529916,479448,504682,5839,503971.0
77059,"3902 CROWN RIDGE CT, HOUSTON, TX 77059",29.601724,-95.127791,4429,12049,663775,557097,592656,-7288,585822.0
77059,"13523 PEAR WOODS CT, HOUSTON, TX 77059",29.602753999999997,-95.142223,2554,7244,298373,269957,284165,1291,261771.0
77059,"4002 RAVEN RIVER DR, HOUSTON, TX 77059",29.597040999999997,-95.10337,3104,12075,364478,329766,347122,-1047,320095.0
77059,"4403 CEDAR RIDGE TRL, HOUSTON, TX 77059",29.603478999999997,-95.11134200000001,3789,9496,400069,354347,381018,4757,374000.0
77059,"16235 HAVENHURST DR, HOUSTON, TX 77059",29.597310999999998,-95.112688,1735,8446,220927,199887,210407,-2905,190068.0
77059,"15903 BROOKVILLA DR, HOUSTON, TX 77059",29.591920000000002,-95.115065,2300,11220,320453,272535,299489,-2892,281485.0
77059,"15722 STONEHAVEN DR, HOUSTON, TX 77059",29.597413,-95.119853,1707,8059,236797,212223,223393,-453,170000.0
77059,"4318 PINE BLOSSOM TRL, HOUSTON, TX 77059",29.610913,-95.11718499999999,4004,15246,457240,413694,435467,-7641,432197.0
77059,"16106 PARK CENTER DR, HOUSTON, TX 77059",29.603781,-95.116089,3101,13856,407416,364734,388015,1141,350000.0
77059,"15402 BAY COVE CT, HOUSTON, TX 77059",29.592902000000002,-95.12079200000001,5083,19118,943063,536926,688367,17948,528862.0
77059,"16006 SPRING FOREST DR, HOUSTON, TX 77059",29.601215999999997,-95.116807,2312,6780,279383,252775,266079,-500,229001.0
77059,"4122 WALNUT POND DR, HOUSTON, TX 77059",29.60435,-95.103247,3036,10149,364439,329731,347085,-170,330778.0
77059,"3426 LIMESTONE SKY CT, HOUSTON, TX 77059",29.610259999999997,-95.11681,4304,14044,725668,594917,653755,11743,584870.0
77059,"16446 HAVENPARK DR, HOUSTON, TX 77059",29.592789,-95.10529,2027,9352,252466,228422,240444,7734,205934.0
77059,"16434 BRAMBLING DR, HOUSTON, TX 77059",29.590677000000003,-95.105839,2228,8154,262688,237670,250179,240,215000.0
77059,"3210 PLEASANT COVE CT, HOUSTON, TX 77059",29.605118,-95.134127,3200,8233,347167,302577,318502,1524,291206.0
77059,"16443 MILL POINT DR, HOUSTON, TX 77059",29.597974,-95.107721,1800,6804,204737,185239,194988,-2845,170505.0
77059,"3906 S BEECHWOOD CT, HOUSTON, TX 77059",29.603367,-95.12134499999999,4334,24481,521942,472234,497088,-919,430000.0
77059,"15135 BLOSSOM BAY DR, HOUSTON, TX 77059",29.585989,-95.11887,4068,15377,573946,519284,546615,-5030,584574.0
77059,"16006 HAVENHURST DR, HOUSTON, TX 77059",29.595905,-95.115065,2365,8190,265824,240508,253166,1192,216032.0
77059,"16411 GLENSHANNON DR, HOUSTON, TX 77059",29.591407,-95.107151,2718,8673,308871,266752,280792,-5338,239438.0
77059,"4310 SWEET CICELY CT, HOUSTON, TX 77059",29.601574,-95.111914,3059,9762,357330,323298,340314,2864,305000.0
77059,"15810 CRESTBROOK DR, HOUSTON, TX 77059",29.593157,-95.11674599999999,2520,9361,289843,262239,276041,16616,248141.0
77059,"3406 ERIN KNOLL CT, HOUSTON, TX 77059",29.602574,-95.12533499999999,4677,11243,562670,509082,535876,-12221,521000.0
77059,"16307 BROOK FOREST DR, HOUSTON, TX 77059",29.585929999999998,-95.11024300000001,2688,9980,318549,288211,303380,-5501,286100.0
77059,"11723 MIGHTY REDWOOD DR, HOUSTON, TX 77059",29.601208000000003,-95.097665,2799,9705,338650,306398,322524,285,312806.0
77059,"16339 BROOKFORD DR, HOUSTON, TX 77059",29.598564,-95.111914,1872,8006,228349,206601,217475,1979,177718.0
77059,"13815 INLAND SPRING CT, HOUSTON, TX 77059",29.598124,-95.140339,2554,7253,292303,264465,278384,686,254000.0
77059,"16014 BROOKFORD DR, HOUSTON, TX 77059",29.596619,-95.115493,1852,7131,239552,216738,228145,-6105,204246.0
77059,"5427 MASON MOUNTAIN LN, HOUSTON, TX 77059",29.610259999999997,-95.11681,2533,7148,386099,331973,360840,-20924,347563.0
77059,"15714 LARKFIELD DR, HOUSTON, TX 77059",29.589681,-95.117503,3100,9601,325244,294268,309756,5881,297036.0
77059,"4502 HONEYWOOD CT, HOUSTON, TX 77059",29.606924,-95.10968199999999,3539,14466,438452,396694,417573,-1551,384989.0
77059,"16411 CLEARCREST DR, HOUSTON, TX 77059",29.588554,-95.10690600000001,1999,9483,252076,223267,240072,5160,204000.0
77059,"13811 ROUND OAK CT, HOUSTON, TX 77059",29.597665000000003,-95.141147,2,8763,318235,287927,303081,4341,290000.0
77059,"15122 BLOSSOM BAY DR, HOUSTON, TX 77059",29.585995,-95.11923,5008,12632,684568,595827,633859,-4467,606225.0
77059,"4502 AMBLE OAK CT, HOUSTON, TX 77059",29.587768,-95.121498,4472,13765,717183,622461,676588,-1650,675000.0
77059,"3223 ALMOND CREEK DR, HOUSTON, TX 77059",29.604902000000003,-95.135287,3290,8379,331571,299993,315782,-23,285624.0
77059,"3607 EL DORADO OAKS CT, HOUSTON, TX 77059",29.602275,-95.116893,3863,9827,448091,405415,426753,-2105,430446.0
77059,"16306 HEATHERDALE DR, HOUSTON, TX 77059",29.592755,-95.109813,2104,9601,285759,256105,269584,-1474,270000.0
77059,"3002 SCENIC ELM ST, HOUSTON, TX 77059",29.600527000000003,-95.130997,5306,15424,726312,629471,691726,-3114,604749.0
77059,"4302 VILLAGE CORNER DR, HOUSTON, TX 77059",29.601654999999997,-95.09964599999999,3570,11160,398970,357173,379971,6052,386185.0
77059,"4222 PINE BLOSSOM TRL, HOUSTON, TX 77059",29.610369,-95.118517,3246,9949,413621,374229,393925,3532,375762.0
77059,"16015 CLEARCREST DR, HOUSTON, TX 77059",29.588766999999997,-95.113076,2850,9280,294489,263929,277820,-863,215608.0
77059,"15711 BROOK FOREST DR, HOUSTON, TX 77059",29.585027,-95.11744,2912,9962,319897,283338,304664,13992,240760.0
77059,"2802 TALL ELM CT, HOUSTON, TX 77059",29.598693,-95.13708100000001,2548,14157,307757,272585,293102,260,240576.0
77059,"2107 VILLAGE DALE AVE, HOUSTON, TX 77059",29.595994,-95.1475,2296,6948,276830,250466,263648,2168,228504.0
77059,"3810 LOCH GLEN CT, HOUSTON, TX 77059",29.602071000000002,-95.124935,4134,11269,573357,518751,546054,-6716,543490.0
77059,"13802 MARBLEDALE CT, HOUSTON, TX 77059",29.596553000000004,-95.142973,2012,7589,256024,215348,239275,-4525,246720.0
77059,"16315 BROOKFORD DR, HOUSTON, TX 77059",29.598375,-95.112347,2066,7606,257784,233234,245509,234,204047.0
77059,"13618 HERON FIELD CT, HOUSTON, TX 77059",29.600995,-95.141925,2867,7705,333395,301643,317519,834,304778.0
77059,"3602 MILLBRIDGE DR, HOUSTON, TX 77059",29.589301000000003,-95.107772,2582,8703,303748,267186,281248,-2815,234000.0
77059,"4006 BLUE JASMINE CT, HOUSTON, TX 77059",29.606063,-95.116602,3442,9074,406402,367698,387050,-25,351600.0
77059,"3906 TEAL FERN CT, HOUSTON, TX 77059",29.601354999999998,-95.10601700000001,3468,8590,374131,338499,356315,-299,346749.0
77059,"5510 SUMMER ELM CT, HOUSTON, TX 77059",29.610259999999997,-95.11681,3460,18221,536315,485237,510776,8280,496594.0
77059,"16462 PARKSLEY DR, HOUSTON, TX 77059",29.600773999999998,-95.108048,2056,6882,223352,202080,212716,-285,189628.0
77059,"16407 MILL POINT DR, HOUSTON, TX 77059",29.597548,-95.10982299999999,2358,7418,249421,225667,237544,-1082,200000.0
77059,"4406 N PINE BROOK WAY, HOUSTON, TX 77059",29.610148,-95.11462399999999,3261,9492,416131,376499,396315,3560,390351.0
77059,"15415 PINENUT BAY CT, HOUSTON, TX 77059",29.596186,-95.12165,4048,10201,575303,520513,547908,-4228,535000.0
77059,"4155 PINE CREST TRL, HOUSTON, TX 77059",29.608809,-95.12119200000001,3883,11003,451760,404433,430248,-2231,414000.0
77059,"3739 W PINE BROOK WAY, HOUSTON, TX 77059",29.604665,-95.114806,4495,16761,526620,344866,466035,4237,426698.0
77059,"15806 DUNMOOR DR, HOUSTON, TX 77059",29.600038,-95.119536,1749,7475,230220,202509,213167,-269,163000.0
77059,"4011 N BEECHWOOD CT, HOUSTON, TX 77059",29.604656,-95.12235,3362,8298,412204,372946,392575,2119,366533.0
77059,"4018 SAND MYRTLE DR, HOUSTON, TX 77059",29.60515,-95.121237,4475,9147,439669,385233,418732,4729,431435.0
77059,"3723 W PINE BROOK WAY, HOUSTON, TX 77059",29.604865999999998,-95.115197,3716,10792,441220,399200,420210,-5041,422552.0
77059,"13518 SHADOW FALLS CT, HOUSTON, TX 77059",29.599636,-95.145073,2483,8503,284885,257753,271319,711,245000.0
77059,"15502 BAY GREEN CT, HOUSTON, TX 77059",29.591229,-95.120163,4145,11840,515907,453227,482156,4708,424100.0
77059,"3627 PLUM GLEN CT, HOUSTON, TX 77059",29.598981,-95.125577,3192,8329,463462,402822,433142,-2144,419000.0
77059,"16314 LAURELFIELD DR, HOUSTON, TX 77059",29.587409,-95.10979499999999,2160,9919,268466,242898,255682,-3194,211444.0
77059,"15722 CRESTBROOK DR, HOUSTON, TX 77059",29.592909999999996,-95.117986,2252,9614,277282,250874,264078,4348,236902.0
77059,"16314 HAZY PINES CT, HOUSTON, TX 77059",29.59641,-95.104996,2667,9157,339284,306972,323128,4424,279000.0
77059,"3906 CANYON BLUFF CT, HOUSTON, TX 77059",29.600718,-95.128185,3875,10202,551403,498889,525146,-12035,514936.0
77059,"3507 E PINE BROOK WAY, HOUSTON, TX 77059",29.605296000000003,-95.10990699999999,3600,12299,445688,398997,424465,-638,428181.0
77059,"4102 LAKE FALLS CT, HOUSTON, TX 77059",29.60193,-95.102384,3348,11474,364173,326021,346831,-65,315000.0
77059,"16314 LOCKE HAVEN DR, HOUSTON, TX 77059",29.589063,-95.109587,2731,8512,295479,267339,281409,-1054,240992.0
77059,"16306 CLEARCREST DR, HOUSTON, TX 77059",29.588268,-95.10949699999999,2878,9653,312608,280167,294913,2735,249321.0
77059,"15822 ECHO HILL DR, HOUSTON, TX 77059",29.597051,-95.11798,2304,9378,193724,153893,181050,-303,205293.0
77059,"2807 PRAIRIE HILL CT, HOUSTON, TX 77059",29.600471999999996,-95.139065,3414,14802,363909,326145,343310,-112,301000.0
77059,"3210 OAK LINKS AVE, HOUSTON, TX 77059",29.597640999999996,-95.12696700000001,4434,18622,734277,643366,699311,-2288,659190.0
77059,"4327 SWEET CICELY CT, HOUSTON, TX 77059",29.601715999999996,-95.11278100000001,3714,8764,418554,378692,398623,2539,346547.0
77059,"3406 GARDEN GATE WAY, HOUSTON, TX 77059",29.599128000000004,-95.122755,4400,16847,1003649,899497,946839,-380,704698.0
77059,"4322 CEDAR RIDGE TRL, HOUSTON, TX 77059",29.603165,-95.11143,4061,9095,443432,401200,422316,1887,399348.0
77059,"13815 BROOKLET VIEW CT, HOUSTON, TX 77059",29.597078999999997,-95.14185400000001,3327,8568,336029,304027,320028,-1046,278533.0
77059,"16631 TOWN LAKE CT, HOUSTON, TX 77059",29.601162,-95.107128,3615,15969,400960,362774,381867,-79,355000.0
77059,"3242 PLEASANT COVE CT, HOUSTON, TX 77059",29.604456,-95.133208,4162,12654,468392,373892,410870,14126,352000.0
77059,"16306 GLACIER BROOK CT, HOUSTON, TX 77059",29.597338,-95.103278,2807,17637,346817,313787,330302,1496,301016.0
77059,"16422 CAVENDISH DR, HOUSTON, TX 77059",29.599752000000002,-95.10988,1722,7257,206542,186872,196707,-3543,163160.0
77059,"4414 PINE BLOSSOM TRL, HOUSTON, TX 77059",29.610992,-95.114721,3277,10019,393329,355869,374599,10849,337639.0
77059,"17114 PARSLEY HAWTHORNE CT, HOUSTON, TX 77059",29.606684,-95.110534,3112,9393,366443,331543,348993,-444,348686.0
77059,"16519 HEATHER MEADOW CT, HOUSTON, TX 77059",29.592243,-95.102239,2422,9326,324832,293896,309364,3391,284644.0
77059,"3323 ALMOND CREEK DR, HOUSTON, TX 77059",29.604631,-95.134343,2918,7915,305749,273719,291190,-1746,284499.0
77059,"5403 MARBLE ACRES CT, HOUSTON, TX 77059",29.610259999999997,-95.11681,2592,8629,395577,350368,376740,-8571,369955.0
77059,"13722 COUNTRY GREEN CT, HOUSTON, TX 77059",29.599399,-95.141678,2532,8163,315516,276821,297657,508,295798.0
77059,"5723 BALCONES RIDGE LN, HOUSTON, TX 77059",29.610259999999997,-95.11681,4200,9553,569866,473096,537609,1836,201159.0
77059,"15702 HEATHERDALE DR, HOUSTON, TX 77059",29.590983,-95.117852,3014,10890,370061,314724,345851,332,238714.0
77059,"4302 N PINE BROOK WAY, HOUSTON, TX 77059",29.610132,-95.115359,3905,13817,457314,413760,435537,-3384,424900.0
77059,"13411 GOLDEN FIELD DR, HOUSTON, TX 77059",29.607831,-95.13391899999999,3086,8529,329099,294622,313428,-113,293958.0
77059,"3710 LEDGESTONE DR, HOUSTON, TX 77059",29.590501,-95.103966,1955,9248,249322,223449,235209,2587,197046.0
77059,"3503 LEDGESTONE DR, HOUSTON, TX 77059",29.587102,-95.103592,3502,11966,346205,313233,329719,1614,319462.0
77059,"16410 SHADY ELMS DR, HOUSTON, TX 77059",29.595623,-95.10950600000001,2518,10241,287322,255099,268525,2392,203931.0
77059,"15806 LARKFIELD DR, HOUSTON, TX 77059",29.589740999999997,-95.116244,2413,9601,279266,252670,265968,2145,231763.0
77059,"15811 LAURELFIELD DR, HOUSTON, TX 77059",29.587509000000004,-95.116093,2630,10290,326011,294963,310487,3430,263715.0
