zip,address,lat,lng,house area,lot area,high,low,estimate,month value change,property tax
77067,"815 FOREST IVY LN, HOUSTON, TX 77067",29.960706,-95.429506,1827,2326,157416,142424,149920,724,120635.0
77067,"11743 BIRCH RUN LN, HOUSTON, TX 77067",29.953919,-95.446657,1421,9699,146546,131194,139568,5779,110263.0
77067,"2515 GREEN KNOLL DR, HOUSTON, TX 77067",29.953809000000003,-95.458737,1526,6273,148079,133977,141028,126,105805.0
77067,"11930 MEDICINE BOW CIR, HOUSTON, TX 77067",29.959971000000003,-95.46775699999999,1620,6777,157690,142672,150181,-737,118878.0
77067,"11626 OLD TELEGRAPH RD, HOUSTON, TX 77067",29.952204,-95.453317,1343,7013,141746,121496,134996,3266,115433.0
77067,"1222 COPPERMEADE DR, HOUSTON, TX 77067",29.952165,-95.43728,1865,5249,169506,144394,156950,4685,156207.0
77067,"2426 FALLS CHURCH DR, HOUSTON, TX 77067",29.960523,-95.45626,1831,5502,150053,127403,141559,-3371,122594.0
77067,"2223 UNION MILL RD, HOUSTON, TX 77067",29.953017,-95.456613,1526,6050,148101,133997,141049,165,105768.0
77067,"2606 S CAMDEN PKWY, HOUSTON, TX 77067",29.957356,-95.46999,1402,6299,144194,130462,137328,-1284,111300.0
77067,"11327 DOVEDALE CT, HOUSTON, TX 77067",29.947178000000005,-95.460127,1390,6403,130681,102926,115647,5006,118807.0
77067,"11819 HALLOWING POINT RD, HOUSTON, TX 77067",29.955025,-95.45293199999999,1581,6299,147886,133802,140844,-50,117000.0
77067,"2519 GRAND CANYON DR, HOUSTON, TX 77067",29.962334000000002,-95.474822,1452,6900,133996,111025,127615,-1095,109564.0
77067,"2706 QUIVER LN, HOUSTON, TX 77067",29.958357,-95.462711,1711,6930,153767,137810,145063,-1159,126346.0
77067,"11602 BIRCH RUN LN, HOUSTON, TX 77067",29.951253,-95.44523199999999,1050,5885,126708,111020,120674,6326,86958.0
77067,"2475 PRIDES CROSSING RD, HOUSTON, TX 77067",29.962691999999997,-95.456843,1632,6303,140448,125734,133760,-1554,114886.0
77067,"11947 SILVER ISLAND CIR, HOUSTON, TX 77067",29.960594,-95.465648,1610,6403,155884,141038,148461,-922,118558.0
77067,"11322 NEW VISTA LN, HOUSTON, TX 77067",29.946928999999997,-95.461431,1452,6615,129499,109765,123332,5681,119886.0
77067,"10814 ORCHARD SPRINGS DR, HOUSTON, TX 77067",29.940178999999997,-95.451622,2441,4813,187866,169974,178920,1769,155188.0
77067,"2807 LACEWING LN, HOUSTON, TX 77067",29.948622999999998,-95.462766,2922,6617,219422,185201,201305,354,224606.0
77067,"2206 RAVENWIND RD, HOUSTON, TX 77067",29.950958,-95.458263,1584,7153,148235,134117,141176,-112,113346.0
77067,"11926 SWORDS CREEK RD, HOUSTON, TX 77067",29.959266999999997,-95.453508,1715,4948,155556,139260,148149,1635,132448.0
77067,"2471 BLACKRIDGE RD, HOUSTON, TX 77067",29.96228,-95.456121,1454,5502,142473,128905,135689,-147,99300.0
77067,"730 N ELLA CREEK DR, HOUSTON, TX 77067",29.96247,-95.428218,1847,4042,197304,174755,187909,718,83600.0
77067,"2603 BROAD HAVEN DR, HOUSTON, TX 77067",29.943772999999997,-95.462675,1476,7013,138160,123686,131581,-4937,115666.0
77067,"13415 ELLA RIDGE LN, HOUSTON, TX 77067",29.961639,-95.427778,1458,4500,188641,163726,177963,1953,69479.0
77067,"718 N ELLA CREEK DR, HOUSTON, TX 77067",29.962467999999998,-95.428317,1777,4138,186795,163886,176222,-388,83779.0
77067,"12051 HADLEY FALLS CT, HOUSTON, TX 77067",29.960069,-95.453331,2090,5502,170466,149361,162349,346,150978.0
77067,"2514 GRAND TETON DR, HOUSTON, TX 77067",29.960925,-95.473688,1865,13860,178781,161755,170268,77,138332.0
77067,"11947 MEDICINE BOW CIR, HOUSTON, TX 77067",29.960402000000002,-95.468089,1510,6300,151283,136875,144079,3147,106501.0
77067,"2107 RAVENWIND RD, HOUSTON, TX 77067",29.950714,-95.455885,1321,6050,133821,113430,127449,8673,120826.0
77067,"11314 FEATHERSTAR LN, HOUSTON, TX 77067",29.947091999999998,-95.458147,1600,6826,153394,138786,146090,2164,119702.0
77067,"11615 KINSDALE CT, HOUSTON, TX 77067",29.951395,-95.454369,1485,13003,147218,133198,140208,514,113764.0
77067,"2115 RAGLAND DR, HOUSTON, TX 77067",29.939515999999998,-95.457559,1864,4726,153021,134254,144359,-2981,130892.0
77067,"1623 RIDGE HOLLOW DR, HOUSTON, TX 77067",29.950965000000004,-95.450704,1294,7910,112590,85646,96231,1143,78000.0
77067,"2514 S CAMDEN PKWY, HOUSTON, TX 77067",29.956501,-95.471468,1878,6299,150912,133665,143726,3507,134444.0
77067,"2802 ASHINGTON DR, HOUSTON, TX 77067",29.944803000000004,-95.461978,1834,6508,156931,141985,149458,3097,128119.0
77067,"11718 STEAMBOAT SPRINGS DR, HOUSTON, TX 77067",29.954965,-95.46700799999999,1566,6299,154616,139890,147253,405,122373.0
77067,"11938 PARAMOUNT LN, HOUSTON, TX 77067",29.957599,-95.463527,1633,6825,152171,136380,143558,1990,123213.0
77067,"11531 PARAMOUNT LN, HOUSTON, TX 77067",29.951572,-95.463677,1494,6599,148324,134198,141261,825,110395.0
77067,"12026 JILLIAN CROSSING DR, HOUSTON, TX 77067",29.961296,-95.437699,2024,3999,177540,158941,169086,1815,134279.0
77067,"2523 FORGE CREEK RD, HOUSTON, TX 77067",29.961204,-95.461744,2979,5571,197798,178960,188379,-969,178296.0
77067,"2706 W GREENS RD, HOUSTON, TX 77067",29.949801,-95.462349,1684,8059,152343,137835,145089,1461,125725.0
77067,"1531 RIDGE HOLLOW DR, HOUSTON, TX 77067",29.951045,-95.44697099999999,888,6899,108134,95892,102013,1918,86383.0
77067,"2107 HAZYKNOLL LN, HOUSTON, TX 77067",29.946309000000003,-95.456137,1486,8507,147037,133033,140035,-1582,116652.0
77067,"13431 ELLA VIEW LN, HOUSTON, TX 77067",29.961708,-95.428668,1473,4190,189005,164275,176640,872,110021.0
77067,"2027 BRIDGE CROSS LN, HOUSTON, TX 77067",29.955144,-95.455589,1581,6421,158471,136461,146732,-441,153466.0
77067,"2510 FOXVILLE DR, HOUSTON, TX 77067",29.961298,-95.460277,2410,6080,192819,174455,183637,1714,133919.0
77067,"11718 IRONSTONE CT, HOUSTON, TX 77067",29.956035999999997,-95.469279,1214,6299,145924,132026,138975,4214,107578.0
77067,"11923 MORNING DEW LN, HOUSTON, TX 77067",29.958106,-95.454984,1555,6900,157681,142663,150172,1003,119495.0
77067,"2735 SPRING CANYON CT, HOUSTON, TX 77067",29.963454,-95.468776,1570,6299,153979,139315,146647,-2928,119360.0
77067,"2303 UNION MILL RD, HOUSTON, TX 77067",29.954803000000002,-95.46088,1835,7701,153350,137285,146048,385,130533.0
77067,"11526 OLD TELEGRAPH RD, HOUSTON, TX 77067",29.951344,-95.454012,1480,6900,143901,128826,137049,7341,121982.0
77067,"2607 KODIAK CT, HOUSTON, TX 77067",29.96245,-95.47308100000001,1570,6299,151949,137477,144713,1705,113977.0
77067,"11734 STEAMBOAT SPRINGS DR, HOUSTON, TX 77067",29.955284999999996,-95.466995,1543,6298,153696,139058,146377,376,118918.0
77067,"11918 BALD MOUNTAIN CIR, HOUSTON, TX 77067",29.960603999999996,-95.466976,1421,6403,144519,130755,137637,1263,105201.0
77067,"2542 CHESTNUT MILLS RD, HOUSTON, TX 77067",29.964371000000003,-95.460206,2094,5502,167363,146642,159393,1278,133991.0
77067,"11854 MORNING DEW LN, HOUSTON, TX 77067",29.95685,-95.453243,1655,6242,150235,135927,143081,1878,124713.0
77067,"1543 BUTTER MILL LN, HOUSTON, TX 77067",29.947801000000002,-95.4454,1517,6299,139787,117578,130642,3488,81044.0
77067,"2302 TREADSLOW LN, HOUSTON, TX 77067",29.952583,-95.458139,1485,6599,148091,133987,141039,73,101156.0
77067,"12210 VIRLINE LN, HOUSTON, TX 77067",29.963397999999998,-95.451828,3150,5502,198632,179714,189173,-198,173438.0
77067,"2531 GRAND CANYON DR, HOUSTON, TX 77067",29.962559000000002,-95.474424,1664,7292,154951,134486,146180,-552,129101.0
77067,"11003 LILLEUX RD, HOUSTON, TX 77067",29.941158,-95.450244,1488,43560,193239,144929,172535,-5965,131231.0
77067,"12130 COBBS CREEK RD, HOUSTON, TX 77067",29.961318,-95.459373,1929,6647,167579,139649,155166,2607,125412.0
77067,"2210 QUIVER LN, HOUSTON, TX 77067",29.958406,-95.457265,1343,6708,143099,129471,136285,641,112807.0
77067,"1254 FLATROCK CRK, HOUSTON, TX 77067",29.956468,-95.43929,2280,6303,184935,167323,176129,-1347,162360.0
77067,"2202 LACEWING LN, HOUSTON, TX 77067",29.948967,-95.456869,1614,6826,149714,135456,142585,820,118110.0
77067,"2206 GREEN KNOLL DR, HOUSTON, TX 77067",29.952448999999998,-95.45681,1494,7039,147467,133423,140445,-24,109784.0
77067,"12018 DIANE LN, HOUSTON, TX 77067",29.959246999999998,-95.462497,2274,5309,189618,171560,180589,3008,150270.0
77067,"1515 DAISEY BELL LN, HOUSTON, TX 77067",29.947046000000004,-95.44680699999999,1048,6299,93492,77045,86567,1870,68582.0
77067,"1714 LACEWING LN, HOUSTON, TX 77067",29.948831,-95.452416,1798,7013,155681,140855,148268,1888,128500.0
77067,"822 FOREST BARK LN, HOUSTON, TX 77067",29.962084,-95.42926700000001,1716,2326,155154,140378,147766,108,122568.0
77067,"2511 HAZYKNOLL LN, HOUSTON, TX 77067",29.946293,-95.45996,3142,7614,220863,177479,197199,-747,93300.0
77067,"2522 GRAND TETON DR, HOUSTON, TX 77067",29.960977000000003,-95.473596,1601,8581,149131,121256,139375,-1194,117000.0
77067,"11403 LOVEBIRD LN, HOUSTON, TX 77067",29.949406,-95.45190799999999,2176,9169,180330,161438,171743,2387,132628.0
77067,"12007 THORNBURG LN, HOUSTON, TX 77067",29.95913,-95.454576,2313,5502,186119,168393,177256,-448,159946.0
77067,"1323 CROSS DRAW DR, HOUSTON, TX 77067",29.953297999999997,-95.439669,2175,5776,181336,164066,172701,3668,136708.0
77067,"2443 BRUSH HOLLOW RD, HOUSTON, TX 77067",29.963129,-95.458729,1467,5458,139970,125307,133305,-2411,101100.0
77067,"2827 WHITINHAM DR, HOUSTON, TX 77067",29.958832,-95.463553,2680,5750,191018,172826,181922,697,164059.0
77067,"10911 CHELSEA KNOLL LN, HOUSTON, TX 77067",29.940584,-95.45371800000001,1850,4709,170666,140917,156574,-1715,133381.0
77067,"2315 HAZYKNOLL LN, HOUSTON, TX 77067",29.946310999999998,-95.458182,2220,7745,175342,153633,166992,4330,134039.0
77067,"2507 CHAPEL CREEK CT, HOUSTON, TX 77067",29.962490999999996,-95.460837,2262,6660,187059,169243,178151,1902,131453.0
77067,"12031 BALLARDVALE LN, HOUSTON, TX 77067",29.959819,-95.464497,1581,5502,153008,132607,145722,-1126,129350.0
77067,"11947 ESTES PARK LN, HOUSTON, TX 77067",29.959338,-95.472128,2329,7348,183999,166475,175237,421,139044.0
77067,"1702 LACEWING LN, HOUSTON, TX 77067",29.948828000000002,-95.45251800000001,2174,8163,175310,155464,165387,1692,138346.0
77067,"11711 SPRUCE MOUNTAIN DR, HOUSTON, TX 77067",29.954672,-95.470624,1654,6300,148622,134468,141545,1207,112379.0
77067,"2526 CHESTNUT MILLS RD, HOUSTON, TX 77067",29.964367,-95.46045500000001,2049,5500,167119,145456,154740,-244,133512.0
77067,"2603 GLACIER DR, HOUSTON, TX 77067",29.960955,-95.471177,1443,7139,147520,133470,140495,-28,111738.0
77067,"2454 KENBRIDGE DR, HOUSTON, TX 77067",29.959596,-95.456192,2106,5501,173653,157115,165384,3454,136067.0
77067,"2806 LACEWING LN, HOUSTON, TX 77067",29.948897,-95.462772,1253,6508,126455,101637,118182,1822,112943.0
77067,"1338 HAWKS NEST DR, HOUSTON, TX 77067",29.955752,-95.440038,2997,7531,211664,191506,201585,-1357,191437.0
77067,"2751 FLINTROCK CIR, HOUSTON, TX 77067",29.958529,-95.466313,1566,8778,146333,132397,139365,63,119225.0
77067,"11727 STEAMBOAT SPRINGS DR, HOUSTON, TX 77067",29.955136,-95.467318,1490,7989,147947,133857,140902,396,122392.0
77067,"11922 BALD MOUNTAIN CIR, HOUSTON, TX 77067",29.960771,-95.466982,1520,6299,153666,139032,146349,-455,112300.0
77067,"11703 SAWMILL STREAM CIR, HOUSTON, TX 77067",29.954618,-95.468168,1528,6612,150989,136609,143799,1994,118497.0
77067,"2406 W GREENS RD, HOUSTON, TX 77067",29.949839,-95.45947,1312,9300,133215,120527,126871,4810,113416.0
77067,"1542 CHESTNUT TREE LN, HOUSTON, TX 77067",29.946637,-95.44526,1158,6299,102919,76958,92720,795,71648.0
77067,"2423 RAVENWIND RD, HOUSTON, TX 77067",29.950652,-95.459274,1552,7919,147187,133169,140178,-832,110000.0
77067,"1527 CHESTNUT TREE LN, HOUSTON, TX 77067",29.946363,-95.446083,1225,6900,112633,86416,97097,-192,83138.0
77067,"11326 GRAYLING LN, HOUSTON, TX 77067",29.947584000000003,-95.45729399999999,1350,6826,125701,108941,119715,161,102000.0
77067,"2442 BLACKRIDGE RD, HOUSTON, TX 77067",29.961957,-95.456973,1973,5249,157596,141086,150091,-922,129086.0
77067,"11514 EAGLE VIEW LN, HOUSTON, TX 77067",29.951028000000004,-95.462446,1725,6599,154220,138216,145491,88,118226.0
77067,"11955 STEAMBOAT SPRINGS DR, HOUSTON, TX 77067",29.960038,-95.47073,1852,6299,159314,139590,151728,169,129459.0
77067,"1218 WATSON CROSSING WAY, HOUSTON, TX 77067",29.961557,-95.438621,1878,4356,170343,152666,160701,501,131365.0
77067,"11723 QUICKSILVER CT, HOUSTON, TX 77067",29.954788,-95.469818,1284,6299,146636,132670,139653,1448,115014.0
77067,"2503 JOHNSBURY DR, HOUSTON, TX 77067",29.960835999999997,-95.45916,2656,5641,195860,177206,186533,1502,146225.0
77067,"11926 SILVER CANYON LN, HOUSTON, TX 77067",29.958439000000002,-95.47205500000001,1484,6299,130933,98795,119030,-2753,115965.0
77067,"2615 CHESTNUT MILLS RD, HOUSTON, TX 77067",29.964084000000003,-95.461614,1834,6395,157346,136758,147052,-3411,125848.0
77067,"2719 S CAMDEN PKWY, HOUSTON, TX 77067",29.958994,-95.467738,1421,6299,143349,129697,136523,323,104516.0
77067,"1210 FLATROCK CRK, HOUSTON, TX 77067",29.956484999999997,-95.43843299999999,2648,5737,191107,172907,182007,-1354,176319.0
77067,"11714 ALTO LAKE DR, HOUSTON, TX 77067",29.956273,-95.4368,1635,6764,153505,135961,146195,9781,132000.0
77067,"2110 LACEWING LN, HOUSTON, TX 77067",29.948967,-95.45753,1638,12201,153201,138611,145906,-210,120217.0
77067,"10930 MAPLE BOUGH LN, HOUSTON, TX 77067",29.941269000000002,-95.45430400000001,2069,4914,177087,148952,165502,-675,132293.0
77067,"2210 RAVENWIND RD, HOUSTON, TX 77067",29.950958,-95.45823,1640,7153,148043,133943,140993,110,106000.0
77067,"12046 BALLARDVALE LN, HOUSTON, TX 77067",29.960101,-95.464178,2977,5300,198844,179906,189375,-357,177713.0
77067,"11942 SILVER ISLAND CIR, HOUSTON, TX 77067",29.960496999999997,-95.46533199999999,1573,7139,152161,137669,144915,-961,116586.0
77067,"2911 ASHINGTON DR, HOUSTON, TX 77067",29.944532000000002,-95.460955,2032,5985,159530,144336,151933,4723,122522.0
77067,"1310 CHALK ROCK DR, HOUSTON, TX 77067",29.952844,-95.43943900000001,2175,5776,182762,165356,174059,6411,153975.0
77067,"11703 OLD TELEGRAPH RD, HOUSTON, TX 77067",29.953290999999997,-95.452859,1821,6887,159230,142549,151648,1363,130026.0
77067,"1502 CHESTNUT TREE LN, HOUSTON, TX 77067",29.946637,-95.447317,1228,6926,97282,73388,85335,-648,76346.0
77067,"2642 N CAMDEN PKWY, HOUSTON, TX 77067",29.961686,-95.470069,1443,6508,147048,133044,140046,2341,100000.0
77067,"11727 LOVELAND PASS DR, HOUSTON, TX 77067",29.956153999999998,-95.466196,1610,7479,150442,136114,143278,548,122249.0
77067,"12218 VIRLINE LN, HOUSTON, TX 77067",29.963731,-95.451842,2474,5500,192790,174430,183610,-433,149480.0
77067,"1902 LIVE OAK HILL ST, HOUSTON, TX 77067",29.941291999999997,-95.453299,1542,4500,144781,118216,132827,671,126805.0
77067,"2407 GOLDEN PASS, HOUSTON, TX 77067",29.959564,-95.47495500000001,1702,8960,157134,135106,146854,-194,126508.0
77067,"2430 KENBRIDGE DR, HOUSTON, TX 77067",29.960833,-95.454699,2578,5502,189852,171770,180811,1366,162095.0
77067,"13435 ELLA VIEW LN, HOUSTON, TX 77067",29.961743,-95.428668,1956,6238,203954,176760,194242,-155,130175.0
77067,"12035 BLUE MOUNTAIN DR, HOUSTON, TX 77067",29.962379,-95.47346800000001,1505,6299,148018,133922,140970,2760,100000.0
77067,"11530 EAGLE VIEW LN, HOUSTON, TX 77067",29.951319,-95.462461,1526,6599,149067,134871,141969,761,105861.0
77067,"2119 RIDGE HOLLOW DR, HOUSTON, TX 77067",29.952503000000004,-95.454396,1612,11103,149458,135224,142341,211,111805.0
77067,"2714 ASHINGTON DR, HOUSTON, TX 77067",29.944801000000002,-95.462811,1402,6508,128726,110336,122596,2294,117891.0
77067,"1542 BUTTER MILL LN, HOUSTON, TX 77067",29.948075,-95.445406,1225,6299,104082,76930,90506,-315,73544.0
77067,"1238 FLATROCK CRK, HOUSTON, TX 77067",29.956508000000003,-95.437422,1670,5750,155450,128354,142615,8207,141212.0
77067,"11902 SWORDS CREEK RD, HOUSTON, TX 77067",29.959287,-95.451748,2640,6599,192036,173746,182891,222,174929.0
77067,"2426 KENBRIDGE DR, HOUSTON, TX 77067",29.96074,-95.45481099999999,1389,5500,134941,103704,124945,-4429,112000.0
77067,"11346 PARAMOUNT LN, HOUSTON, TX 77067",29.948484999999998,-95.46311800000001,1206,6510,124319,99920,116186,2533,108322.0
77067,"12118 CHAPEL OAKS DR, HOUSTON, TX 77067",29.963822999999998,-95.45914499999999,1914,6600,157883,138520,148946,-5035,131347.0
77067,"11934 GUADALUPE RIVER DR, HOUSTON, TX 77067",29.95753,-95.473365,1852,7148,159727,137542,147895,-2474,123000.0
77067,"11306 NEW VISTA LN, HOUSTON, TX 77067",29.946546,-95.461424,1452,6617,129998,106697,122640,4925,121563.0
77067,"12107 SWORDS CREEK RD, HOUSTON, TX 77067",29.961152000000002,-95.458175,1600,5950,144307,130563,137435,347,122881.0
77067,"12022 GREGORY CROSSING WAY, HOUSTON, TX 77067",29.960599,-95.438474,1192,3999,143749,130059,136904,557,114095.0
77067,"2906 LACEWING LN, HOUSTON, TX 77067",29.948887,-95.463329,1418,6403,134786,121950,128368,7215,104603.0
77067,"2555 FORGE CREEK RD, HOUSTON, TX 77067",29.961807,-95.461772,1902,5249,163959,143851,154678,3638,141793.0
77067,"2710 W GREENS RD, HOUSTON, TX 77067",29.949802000000002,-95.462311,1384,8059,133561,113209,127201,4336,107838.0
77067,"2214 GREEN KNOLL DR, HOUSTON, TX 77067",29.952389,-95.456761,1781,7039,154266,138257,145534,885,125000.0
77067,"11931 YEATMAH LN, HOUSTON, TX 77067",29.957288000000002,-95.456776,1821,5828,155121,140347,147734,377,128788.0
77067,"11951 MEDICINE BOW CIR, HOUSTON, TX 77067",29.960511999999998,-95.468092,1223,6299,142715,129123,135919,517,90300.0
77067,"2703 SPRING CANYON CT, HOUSTON, TX 77067",29.963448,-95.469553,1557,6489,150084,132931,142937,-3562,119743.0
77067,"11526 PARAMOUNT LN, HOUSTON, TX 77067",29.951517,-95.46336,1835,6599,157495,139665,148580,-1061,120000.0
77067,"2418 CHESTNUT MILLS RD, HOUSTON, TX 77067",29.964421999999995,-95.457738,2622,6900,193154,174758,183956,633,171547.0
77067,"12114 CHAPEL OAKS DR, HOUSTON, TX 77067",29.963801,-95.45914499999999,1392,5149,137751,122008,131191,-2979,108490.0
77067,"11706 SAWMILL STREAM CIR, HOUSTON, TX 77067",29.954675,-95.46785200000001,1214,6299,145744,131864,138804,9599,100539.0
77067,"12010 SWORDS CREEK RD, HOUSTON, TX 77067",29.959303000000002,-95.455702,2508,9020,195412,176802,186107,751,188112.0
77067,"11506 NEW VISTA LN, HOUSTON, TX 77067",29.950889,-95.461575,1691,6599,157791,141416,148859,415,116202.0
77067,"12030 THORNBURG LN, HOUSTON, TX 77067",29.959424,-95.45425,2309,8468,186429,168673,177551,-565,153977.0
77067,"1814 DAY LILY WAY, HOUSTON, TX 77067",29.940002000000003,-95.45197900000001,1812,4500,164240,140998,154943,-641,137389.0
77067,"1314 CHALK ROCK DR, HOUSTON, TX 77067",29.952842999999998,-95.439514,3939,5776,211974,191786,201880,555,190000.0
77067,"2418 N RIM DR, HOUSTON, TX 77067",29.960679,-95.475639,1935,6299,167211,145126,157746,-928,124730.0
77067,"2502 W GREENS RD, HOUSTON, TX 77067",29.949817,-95.46131,2654,9100,189608,171550,180579,2139,152321.0
77067,"2427 BRANDY MILL RD, HOUSTON, TX 77067",29.962438,-95.45838,2109,5500,172889,151484,164656,1128,148944.0
77067,"12262 COBBS CREEK RD, HOUSTON, TX 77067",29.963715000000004,-95.461845,2808,6647,194823,176269,185546,794,144772.0
77067,"1226 BARTLETT COVE DR, HOUSTON, TX 77067",29.955068,-95.43854499999999,1674,5532,150382,125548,137965,7792,138217.0
77067,"11943 ESTES PARK LN, HOUSTON, TX 77067",29.959177,-95.472003,1943,7021,182738,163594,174036,371,177929.0
77067,"10807 MEADOW WALK LN, HOUSTON, TX 77067",29.939707000000002,-95.458946,1756,7540,182130,163050,173457,428,126117.0
77067,"11522 EAGLE VIEW LN, HOUSTON, TX 77067",29.951173999999998,-95.46245400000001,1701,6930,151943,137473,144708,-142,112500.0
77067,"827 FOREST HILLSIDE LN, HOUSTON, TX 77067",29.96009,-95.430063,2165,2522,173908,157346,165627,2565,133310.0
77067,"1251 COPPERMEADE DR, HOUSTON, TX 77067",29.951866,-95.438112,2520,5750,187251,167634,178334,-1488,171207.0
77067,"2406 RHYME COURT RD, HOUSTON, TX 77067",29.951959000000002,-95.45874,1587,6599,148225,134109,141167,82,118883.0
77067,"2702 COPPER VALLEY CT, HOUSTON, TX 77067",29.954453000000004,-95.468704,1490,6360,150167,135865,143016,1789,118500.0
77067,"12222 VIRLINE LN, HOUSTON, TX 77067",29.964474,-95.45193499999999,1884,5502,171693,150436,163517,3051,138102.0
77067,"11603 KINSDALE CT, HOUSTON, TX 77067",29.951314,-95.45428299999999,2104,7919,158632,135970,151078,1092,123694.0
77067,"11910 SILVER ISLAND CIR, HOUSTON, TX 77067",29.959571999999998,-95.465292,1223,8098,141344,127882,134613,239,97514.0
77067,"2319 HADDEN HOLLOW DR, HOUSTON, TX 77067",29.938851,-95.45628,1994,6347,162000,142132,152830,-735,131751.0
77067,"2614 QUIET MEADOWS DR, HOUSTON, TX 77067",29.956878999999997,-95.462944,1514,5776,149409,135179,142294,38,109911.0
77067,"2514 W GREENS RD, HOUSTON, TX 77067",29.949820000000003,-95.461117,1764,8059,156173,141299,148736,1712,123651.0
77067,"2503 N CAMDEN PKWY, HOUSTON, TX 77067",29.960046000000002,-95.473674,,8773,199342,166424,182883,-86,17550.0
77067,"11314 WHITE GATE LN, HOUSTON, TX 77067",29.948183,-95.458996,1400,6508,136879,122539,130361,5648,115331.0
77067,"12019 SWORDS CREEK RD, HOUSTON, TX 77067",29.959241,-95.456103,1715,5998,150285,123347,141778,1814,132969.0
77067,"11967 SWORDS CREEK RD, HOUSTON, TX 77067",29.958903000000003,-95.455198,2640,5998,192495,174163,183329,962,164141.0
77067,"2135 UNION MILL RD, HOUSTON, TX 77067",29.951990999999996,-95.45599200000001,1526,7119,148056,133956,141006,-119,105741.0
77067,"12231 AURONIA DR, HOUSTON, TX 77067",29.963615,-95.453118,2719,5611,192834,174468,183651,-948,172019.0
77067,"13223 FOREST PINES VILLAGE LN, HOUSTON, TX 77067",29.960715000000004,-95.430615,1718,3477,168883,151358,159324,343,126809.0
77067,"11943 SULPHUR SPRINGS DR, HOUSTON, TX 77067",29.960904,-95.469818,1404,5889,146880,132892,139886,1110,108410.0
77067,"2519 N CAMDEN PKWY, HOUSTON, TX 77067",29.960359999999998,-95.473479,1474,7200,139690,106015,124723,-186,119502.0
77067,"11327 SUNFISH LN, HOUSTON, TX 77067",29.948532,-95.46425699999999,1423,7074,137475,121764,130929,-1442,110602.0
77067,"2731 FLINTROCK CIR, HOUSTON, TX 77067",29.958522,-95.466709,1620,6299,143871,123512,135727,-1673,131919.0
77067,"1538 DAISEY BELL LN, HOUSTON, TX 77067",29.947326,-95.44558599999999,1225,6299,103763,76457,91020,-106,73544.0
77067,"2723 WHITINHAM DR, HOUSTON, TX 77067",29.958863,-95.461826,1677,5749,154197,139511,146854,-749,125313.0
77067,"11943 DURAN CANYON CT, HOUSTON, TX 77067",29.958096,-95.473173,1852,6547,157493,132703,145827,-2287,130149.0
77067,"12111 VETERANS MEMORIAL DR, HOUSTON, TX 77067",29.961839,-95.478785,1311,59024,327163,255417,286985,2033,156501.0
77067,"11606 KINSDALE CT, HOUSTON, TX 77067",29.95154,-95.454094,1651,6826,150525,136189,143357,519,118743.0
77067,"2702 KINGS CANYON CT, HOUSTON, TX 77067",29.957552000000003,-95.465419,1201,7004,140929,127507,134218,-14,109523.0
77067,"11002 LILLEUX RD, HOUSTON, TX 77067",29.941162,-95.449928,1818,130427,348903,298154,317185,-19785,209113.0
77067,"2507 QUIET MEADOWS DR, HOUSTON, TX 77067",29.956622999999997,-95.459601,1346,6403,145808,131922,138865,1167,112231.0
77067,"2203 RIDGE HOLLOW DR, HOUSTON, TX 77067",29.953491999999997,-95.45544100000001,1219,6660,135816,115121,129349,3165,95204.0
77067,"2050 DERBY DR, HOUSTON, TX 77067",29.955399,-95.454421,1821,5776,157397,142407,149902,744,127853.0
77067,"2422 QUIVER LN, HOUSTON, TX 77067",29.958371000000003,-95.459949,1458,6050,136439,117489,126332,167,117665.0
77067,"1242 COPPERMEADE DR, HOUSTON, TX 77067",29.952144,-95.437933,2280,5249,181969,164639,173304,180,158292.0
77067,"11403 ECHO LEDGE ST, HOUSTON, TX 77067",29.948656,-95.44687900000001,1224,6926,107146,83649,93988,102,81624.0
77067,"2511 UNION MILL RD, HOUSTON, TX 77067",29.954487,-95.458294,1691,6599,150279,135967,143123,1293,100000.0
77067,"11626 GARDEN VIEW DR, HOUSTON, TX 77067",29.953813,-95.436745,2280,5501,182806,165396,174101,293,156785.0
77067,"2515 LOWER VALLEY DR, HOUSTON, TX 77067",29.95735,-95.460624,1711,6825,152042,137562,144802,-1160,119667.0
77067,"1323 BEAUFORT SEA DR, HOUSTON, TX 77067",29.954006,-95.440687,4004,5776,242180,205277,230648,2656,224999.0
77067,"11946 MEDICINE BOW CIR, HOUSTON, TX 77067",29.960411999999998,-95.467772,1620,6403,156296,141410,148853,-1189,115702.0
77067,"13567 FOREST PINES VILLAGE LN, HOUSTON, TX 77067",29.963553000000005,-95.43082199999999,1999,4426,165073,146207,157212,2555,138564.0
77067,"2411 UNION MILL RD, HOUSTON, TX 77067",29.954824,-95.45947199999999,1526,7013,148294,134170,141232,224,100242.0
77067,"2506 OWENS CROSS DR, HOUSTON, TX 77067",29.943337,-95.45962,1775,6299,154812,138594,147440,2991,129639.0
77067,"1315 CHALK ROCK DR, HOUSTON, TX 77067",29.952569,-95.439509,2912,5776,194985,176415,185700,-49,201719.0
77067,"1506 BIRCH RUN CT, HOUSTON, TX 77067",29.953444,-95.44651800000001,1360,8961,147492,133446,140469,4936,109686.0
77067,"2631 GRAND TETON DR, HOUSTON, TX 77067",29.962264,-95.471891,1711,6695,143988,101280,122024,-4547,119972.0
77067,"12015 BECCA CROSSING WAY, HOUSTON, TX 77067",29.960541999999997,-95.43956899999999,2024,4204,179047,161995,170521,-398,134420.0
77067,"2527 N CAMDEN PKWY, HOUSTON, TX 77067",29.960497999999998,-95.473342,1620,6599,145021,111452,134279,551,113000.0
77067,"2202 RHYME COURT RD, HOUSTON, TX 77067",29.951375,-95.45822700000001,1480,7810,146079,132167,139123,-367,112676.0
77067,"2510 UNION MILL RD, HOUSTON, TX 77067",29.954722999999998,-95.45813199999999,1744,7057,152694,138152,145423,484,116193.0
77067,"2207 TOMLINSON TRAIL DR, HOUSTON, TX 77067",29.94166,-95.457736,2020,5502,158701,134746,149718,-1057,133926.0
77067,"12142 VIRLINE LN, HOUSTON, TX 77067",29.962442,-95.451812,1692,5502,162325,136535,151706,751,127749.0
77067,"13403 FOREST PINES VILLAGE LN, HOUSTON, TX 77067",29.961978000000002,-95.430637,2413,2562,181037,163795,172416,-236,138665.0
77067,"2711 QUIVER LN, HOUSTON, TX 77067",29.958083000000002,-95.462673,1386,5776,137637,119286,131083,3374,114828.0
77067,"11810 GOOD SPRING DR, HOUSTON, TX 77067",29.954359999999998,-95.45304200000001,1494,6299,145806,131920,138863,4002,122749.0
77067,"12027 SWEET HALL LN, HOUSTON, TX 77067",29.959346999999998,-95.46364399999999,2005,5312,172146,149194,163949,6858,140404.0
77067,"2507 TOMSBROOK DR, HOUSTON, TX 77067",29.961862,-95.46033100000001,2656,5994,194252,175752,185002,1308,142780.0
77067,"11815 QUICKSILVER CT, HOUSTON, TX 77067",29.955498,-95.47024499999999,1470,6299,149043,134849,141946,1226,107787.0
77067,"11810 SAWMILL STREAM CIR, HOUSTON, TX 77067",29.956101,-95.46835899999999,1528,6299,146321,132385,139353,98,117287.0
77067,"11343 DOVEDALE CT, HOUSTON, TX 77067",29.947378000000004,-95.46013,3352,7998,208062,188246,198154,18,182915.0
77067,"11351 PARAMOUNT LN, HOUSTON, TX 77067",29.948659000000003,-95.463437,1668,7100,158534,135887,150985,-117,149811.0
77067,"11539 PARAMOUNT LN, HOUSTON, TX 77067",29.951687,-95.463679,1691,6421,154593,138550,145842,-17,112925.0
77067,"2910 ASHINGTON DR, HOUSTON, TX 77067",29.944806,-95.46095600000001,1422,6826,127236,111483,121177,-6874,108658.0
77067,"11350 SUNFISH LN, HOUSTON, TX 77067",29.948003999999997,-95.46393,1953,7034,259224,67398,129612,-80,120396.0
77067,"2315 GREEN KNOLL DR, HOUSTON, TX 77067",29.954034999999998,-95.460756,2109,6804,166292,125074,142130,67,115737.0
77067,"12010 RAVEN VIEW DR, HOUSTON, TX 77067",29.959128000000003,-95.460822,1677,5968,157005,140557,149529,-803,125800.0
77067,"10915 MAPLE BOUGH LN, HOUSTON, TX 77067",29.941128000000003,-95.45461800000001,1864,4500,159862,135502,152250,-1887,128746.0
77067,"2462 BRANDY MILL RD, HOUSTON, TX 77067",29.963238,-95.45786,2021,5248,167350,151412,159381,859,136000.0
77067,"2651 FORGE CREEK RD, HOUSTON, TX 77067",29.960106,-95.461708,2311,5384,187164,169338,178251,2144,152092.0
77067,"2527 N RIM DR, HOUSTON, TX 77067",29.961521,-95.47466999999999,1936,7697,169422,146832,161354,-693,131962.0
77067,"2006 DERBY DR, HOUSTON, TX 77067",29.95593,-95.45374,1655,6299,152379,137867,145123,1690,111000.0
77067,"11319 PARAMOUNT LN, HOUSTON, TX 77067",29.947233,-95.463415,1625,7035,148230,134112,141171,1132,118854.0
77067,"11930 ELK SPRINGS DR, HOUSTON, TX 77067",29.959953999999996,-95.466126,1620,6403,156396,141502,148949,-1723,116958.0
77067,"13406 ELLA VIEW LN, HOUSTON, TX 77067",29.961496999999998,-95.428352,1777,4500,189656,168186,178921,143,83330.0
77067,"2031 KENTLAND DR, HOUSTON, TX 77067",29.953121000000003,-95.453473,1494,6342,144494,127980,137613,3605,122759.0
77067,"2515 MCKAMY CT, HOUSTON, TX 77067",29.944526,-95.459745,1504,10206,138770,122911,132162,-5747,110000.0
77067,"11522 COPPERMEADE CT, HOUSTON, TX 77067",29.951859999999996,-95.436769,2043,6769,174537,154590,166226,2554,156440.0
77067,"2603 WHITINHAM DR, HOUSTON, TX 77067",29.958872999999997,-95.459327,2808,7009,196623,177897,187260,798,178385.0
77067,"1806 LACEWING LN, HOUSTON, TX 77067",29.948821999999996,-95.45328,1922,7015,159384,144204,151794,-1925,123200.0
77067,"2603 OWENS CROSS DR, HOUSTON, TX 77067",29.943056,-95.460404,1729,6600,152625,138089,145357,2089,126358.0
77067,"11966 SILVER ISLAND CIR, HOUSTON, TX 77067",29.961081,-95.46533199999999,1993,6782,164135,145553,154844,427,125152.0
77067,"1519 BUTTER MILL LN, HOUSTON, TX 77067",29.947778999999997,-95.44663299999999,1425,6299,133419,108939,122403,11826,79044.0
77067,"11323 NEW VISTA LN, HOUSTON, TX 77067",29.946924,-95.461748,1581,6508,152334,137826,145080,1811,117673.0
77067,"826 FOREST IVY LN, HOUSTON, TX 77067",29.960955,-95.429385,1584,2326,143435,123138,135316,-1009,117740.0
77067,"2638 S CAMDEN PKWY, HOUSTON, TX 77067",29.957653999999998,-95.469475,1720,6826,143374,128354,136547,230,132077.0
77067,"11831 STEAMBOAT SPRINGS DR, HOUSTON, TX 77067",29.956857,-95.46828599999999,1214,6403,144019,129074,135867,5130,102836.0
77067,"2618 BROAD HAVEN DR, HOUSTON, TX 77067",29.944051,-95.462518,1440,6508,136389,123399,129894,-4385,100000.0
77067,"2802 RIDGE HOLLOW DR, HOUSTON, TX 77067",29.956153999999998,-95.462912,1707,6299,154284,139590,146937,332,124324.0
77067,"11766 BIRCH RUN LN, HOUSTON, TX 77067",29.954433,-95.446781,840,6769,118945,99687,113281,11081,86964.0
77067,"12039 SILVER ISLAND CIR, HOUSTON, TX 77067",29.962424,-95.46565600000001,1421,9858,145540,131680,138610,1009,106933.0
77067,"2511 FOXVILLE DR, HOUSTON, TX 77067",29.961097,-95.460062,2668,5053,194805,176253,185529,1393,138963.0
77067,"11610 GARDEN VIEW DR, HOUSTON, TX 77067",29.954046,-95.43675,1627,5497,142516,121004,134449,6342,127822.0
77067,"11822 IRONSTONE CT, HOUSTON, TX 77067",29.954625,-95.468663,1490,6300,146304,130977,139337,-19,117236.0
77067,"1258 BARTLETT COVE DR, HOUSTON, TX 77067",29.955081,-95.437588,2512,5532,185641,167961,176801,-2491,163945.0
77067,"11311 LOVEBIRD LN, HOUSTON, TX 77067",29.946808,-95.451702,1634,6721,155853,141009,148431,1954,113057.0
77067,"11314 EAGLE VIEW LN, HOUSTON, TX 77067",29.947009,-95.462265,1588,6403,151480,137054,144267,1450,117212.0
77067,"2622 GRAND TETON DR, HOUSTON, TX 77067",29.961896999999997,-95.471997,1440,6403,147554,133502,140528,62,107737.0
77067,"2006 ARROYO VISTA CT, HOUSTON, TX 77067",29.957583000000003,-95.45549799999999,1340,6303,140670,127272,133971,168,112814.0
77067,"2535 GRAND CANYON DR, HOUSTON, TX 77067",29.962583000000002,-95.474385,2153,7360,188789,170809,179799,2527,159674.0
77067,"2710 BROAD HAVEN DR, HOUSTON, TX 77067",29.944072,-95.461574,1440,6508,140293,126931,133612,-3945,113259.0
77067,"2014 COOL RIVER LN, HOUSTON, TX 77067",29.953629,-95.455347,1581,6826,149393,135165,142279,1443,130229.0
77067,"11967 MEDICINE BOW CIR, HOUSTON, TX 77067",29.960953000000003,-95.468108,1223,6298,142926,129314,136120,302,97010.0
77067,"2606 QUIET MEADOWS DR, HOUSTON, TX 77067",29.956878000000003,-95.463034,1458,5776,135011,117670,123863,-1245,117202.0
77067,"716 S ELLA CREEK DR, HOUSTON, TX 77067",29.960775,-95.427785,1770,4012,194153,170115,184908,859,120017.0
77067,"1235 BEAUFORT SEA DR, HOUSTON, TX 77067",29.95406,-95.43849399999999,1845,5432,155720,123742,139036,5718,145763.0
77067,"2711 QUIET MEADOWS DR, HOUSTON, TX 77067",29.956614000000002,-95.461862,1966,5775,161915,146495,154205,548,123500.0
77067,"2818 THOMPSON CREEK DR, HOUSTON, TX 77067",29.961287,-95.461967,1600,5662,152365,129367,143741,-193,126963.0
77067,"12003 GUADALUPE RIVER DR, HOUSTON, TX 77067",29.958585,-95.474522,1330,8024,145148,120730,135652,-2415,118256.0
77067,"12027 JILLIAN CROSSING DR, HOUSTON, TX 77067",29.961269,-95.43801500000001,1192,3999,143579,129905,136742,595,114095.0
77067,"1919 HALL RIDGE TRACE LN, HOUSTON, TX 77067",29.940390999999998,-95.452839,1850,4500,167775,138530,153922,-2137,132853.0
77067,"11610 OLD TELEGRAPH RD, HOUSTON, TX 77067",29.952013,-95.453471,1425,6900,136401,116915,129906,2707,116985.0
77067,"1902 WINDY PEAKS CT, HOUSTON, TX 77067",29.957696000000002,-95.452173,1581,7558,150649,134866,143475,1267,127615.0
77067,"11403 GREENS CT, HOUSTON, TX 77067",29.949713,-95.455304,1528,8581,142166,121856,135396,992,122000.0
77067,"2606 RUSHWOOD CIR, HOUSTON, TX 77067",29.955274,-95.461265,1526,7549,146201,132277,139239,2602,81641.0
77067,"1518 BIRCH BEND CIR, HOUSTON, TX 77067",29.952721999999998,-95.446922,1028,6299,125942,110349,119945,8773,92769.0
77067,"2786 GRAND CANYON DR, HOUSTON, TX 77067",29.963960999999998,-95.465858,1820,6298,167186,142645,153382,-2634,124104.0
77067,"1230 FLATROCK CRK, HOUSTON, TX 77067",29.956502,-95.437711,2416,5750,186022,168306,177164,-1715,150000.0
77067,"11954 SILVER CANYON CT, HOUSTON, TX 77067",29.958842999999998,-95.47235500000001,2505,25199,208999,187311,197169,-1611,146000.0
77067,"2106 IRISH SPRING DR, HOUSTON, TX 77067",29.941143,-95.45836700000001,1521,4905,129070,103717,115241,-10102,109058.0
77067,"2427 PRIDES CROSSING RD, HOUSTON, TX 77067",29.961908,-95.457808,1932,5248,166506,149227,157081,-476,123341.0
77067,"2063 DELPHI LN, HOUSTON, TX 77067",29.955058,-95.456862,1581,6299,152985,138415,145700,2214,124596.0
77067,"11306 CLOVER GREEN LN, HOUSTON, TX 77067",29.946369,-95.445112,864,6599,85189,69558,78155,-854,60261.0
77067,"11330 OLD TELEGRAPH RD, HOUSTON, TX 77067",29.947678999999997,-95.455448,1671,7131,151466,137040,144253,1031,140256.0
77067,"11523 COPPERMEADE CT, HOUSTON, TX 77067",29.951856,-95.437086,2872,6773,198854,179916,189385,2201,186406.0
77067,"2502 WOLF CREEK PASS, HOUSTON, TX 77067",29.957021,-95.472163,1865,8237,162026,142340,151426,4077,143310.0
77067,"2719 ASHINGTON DR, HOUSTON, TX 77067",29.944526,-95.462772,1680,6508,152258,137758,145008,223,116542.0
77067,"2750 GRAND CANYON DR, HOUSTON, TX 77067",29.963931,-95.467168,1621,6534,147697,133631,140664,-11814,121577.0
77067,"830 GREEN PINES FRST, HOUSTON, TX 77067",29.962760999999997,-95.430436,1678,3380,156822,141886,149354,-79,125624.0
77067,"2115 IRISH SPRING DR, HOUSTON, TX 77067",29.940904999999997,-95.45820400000001,1574,6159,135841,117729,129372,-4187,113099.0
77067,"2602 N CAMDEN PKWY, HOUSTON, TX 77067",29.961001,-95.472018,1530,6299,149428,135196,142312,1383,116090.0
77067,"2418 FALLS CHURCH DR, HOUSTON, TX 77067",29.960392,-95.45642,1454,5501,143451,129789,136620,463,105020.0
77067,"2618 ASHINGTON DR, HOUSTON, TX 77067",29.944798,-95.46372,1218,6508,122288,98995,116465,3893,90000.0
77067,"2555 N CAMDEN PKWY, HOUSTON, TX 77067",29.960809,-95.47291700000001,1440,6825,147459,132011,140437,999,128458.0
77067,"1211 CHALK ROCK DR, HOUSTON, TX 77067",29.952590999999998,-95.43712099999999,2280,5248,182814,165404,174109,283,156800.0
77067,"2506 GREEN KNOLL DR, HOUSTON, TX 77067",29.954085,-95.458637,1701,6713,151441,137019,144230,25,116913.0
77067,"12034 THORNBURG LN, HOUSTON, TX 77067",29.959475,-95.454249,1471,6838,148443,134305,141374,2043,124452.0
77067,"12102 COBBS CREEK RD, HOUSTON, TX 77067",29.961015999999997,-95.459048,2720,7579,195222,176630,185926,828,130500.0
77067,"2606 OWENS CROSS DR, HOUSTON, TX 77067",29.94333,-95.46043900000001,1838,6299,157941,142899,150420,3897,125784.0
77067,"12015 ELK SPRINGS DR, HOUSTON, TX 77067",29.963148999999998,-95.466511,1510,6826,149446,135214,142330,-1140,113480.0
77067,"2614 COPPER VALLEY CT, HOUSTON, TX 77067",29.954433,-95.469656,1570,6360,153273,137367,144597,2649,130869.0
77067,"12130 VIRLINE LN, HOUSTON, TX 77067",29.962598999999997,-95.451812,2272,5502,187071,169255,178163,-442,144088.0
77067,"2530 LOWER VALLEY DR, HOUSTON, TX 77067",29.957628000000003,-95.460365,1701,6299,148993,133384,141898,224,131157.0
77067,"11950 STEAMBOAT SPRINGS DR, HOUSTON, TX 77067",29.960047999999997,-95.47036,2427,7549,184228,166682,175455,1128,137986.0
77067,"11911 PARAMOUNT LN, HOUSTON, TX 77067",29.957033000000003,-95.463821,1408,5776,140703,124623,134003,2070,120959.0
77067,"11826 HALLOWING POINT RD, HOUSTON, TX 77067",29.955488,-95.453009,1821,6900,159568,144372,151970,1242,130028.0
77067,"2414 BIVENS BROOK DR, HOUSTON, TX 77067",29.940534000000003,-95.456345,1310,5502,126784,101656,114220,121,104276.0
77067,"11318 LOVEBIRD LN, HOUSTON, TX 77067",29.947139,-95.451411,1664,6708,153179,138591,145885,469,119753.0
77067,"11923 LOVELAND PASS DR, HOUSTON, TX 77067",29.959429999999998,-95.468786,1520,6360,148735,134569,141652,1447,108322.0
77067,"2422 BIVENS BROOK DR, HOUSTON, TX 77067",29.940535999999998,-95.456276,1966,5502,158699,143585,151142,1540,130751.0
77067,"11326 BIRDWING LN, HOUSTON, TX 77067",29.947575,-95.454239,1556,8450,144841,124150,137944,-1981,113816.0
77067,"1918 HAZYKNOLL LN, HOUSTON, TX 77067",29.946559999999998,-95.452336,1842,8276,161042,145704,153373,826,125654.0
77067,"2611 N CAMDEN PKWY, HOUSTON, TX 77067",29.961543,-95.471651,1512,6342,148549,134401,141475,827,109182.0
77067,"11522 OLD TELEGRAPH RD, HOUSTON, TX 77067",29.951314,-95.454037,1656,6900,150541,136203,143372,178,121242.0
77067,"2218 TOMLINSON TRAIL DR, HOUSTON, TX 77067",29.941937,-95.457612,1066,6098,111705,99059,105382,-5447,90830.0
77067,"1803 DAY LILY WAY, HOUSTON, TX 77067",29.939732,-95.45180400000001,2441,8494,194804,176252,185528,34,161949.0
77067,"11347 BIRDWING LN, HOUSTON, TX 77067",29.94793,-95.454514,1387,7131,133577,106617,122548,4735,116255.0
77067,"1235 CHALK ROCK DR, HOUSTON, TX 77067",29.952586,-95.437701,1502,5251,137632,115968,127437,3842,123617.0
77067,"2407 UNION MILL RD, HOUSTON, TX 77067",29.954829999999998,-95.459525,1494,6782,147096,133086,140091,-134,106135.0
77067,"11930 MORNING DEW LN, HOUSTON, TX 77067",29.958562,-95.455017,1821,8364,160216,144958,152587,-316,121083.0
77067,"2474 BLACKRIDGE RD, HOUSTON, TX 77067",29.962568,-95.45622900000001,1671,6303,153694,139056,146375,231,111246.0
77067,"2407 FALLS CHURCH DR, HOUSTON, TX 77067",29.959983,-95.45645999999999,1454,7728,145155,131331,138243,-131,107089.0
77067,"10826 MEADOW WALK LN, HOUSTON, TX 77067",29.939701,-95.458551,2460,4950,178291,151123,169801,-504,150653.0
77067,"11919 SILVER ISLAND CIR, HOUSTON, TX 77067",29.959908000000002,-95.46564000000001,1264,6403,141561,128079,134820,-509,99035.0
77067,"12034 SWEET HALL LN, HOUSTON, TX 77067",29.959467999999998,-95.463329,2808,5284,192727,174373,183550,1583,166751.0
77067,"1238 HAWKS NEST DR, HOUSTON, TX 77067",29.955779999999997,-95.437889,2232,5497,182245,164889,173567,119,145000.0
77067,"2715 QUIVER LN, HOUSTON, TX 77067",29.958083000000002,-95.46263499999999,2111,7139,164019,143904,154735,-1040,144577.0
77067,"2522 N CAMDEN PKWY, HOUSTON, TX 77067",29.960265999999997,-95.473164,1885,7684,163453,136211,151345,914,137624.0
77067,"11507 NEW VISTA LN, HOUSTON, TX 77067",29.950883,-95.46189100000001,2424,6930,163995,124104,147743,-515,100000.0
77067,"11902 SULPHUR SPRINGS DR, HOUSTON, TX 77067",29.959311,-95.469848,1921,6695,166926,148206,156006,-498,124159.0
77067,"1803 MANDRILL LN, HOUSTON, TX 77067",29.947042,-95.452591,1556,8878,146074,132162,139118,-737,122083.0
77067,"13419 ELLA RIDGE LN, HOUSTON, TX 77067",29.96167,-95.427778,1917,4500,196583,172244,187222,660,89041.0
77067,"11526 NEW VISTA LN, HOUSTON, TX 77067",29.951253,-95.46158299999999,1701,6600,152251,137751,145001,-919,114100.0
77067,"2503 W GREENS RD, HOUSTON, TX 77067",29.949403000000004,-95.46130500000001,1421,6508,131518,117740,125255,4212,114161.0
77067,"12019 ELK SPRINGS DR, HOUSTON, TX 77067",29.963303999999997,-95.466515,1223,6826,142133,128597,135365,375,100896.0
77067,"2447 COLTON HOLLOW DR, HOUSTON, TX 77067",29.961165,-95.456242,1973,5502,155980,138153,148552,-432,123355.0
77067,"807 FOREST BARK LN, HOUSTON, TX 77067",29.961823,-95.429524,1330,3872,154321,139623,146972,113,118530.0
77067,"11302 SPRINGTAIL LN, HOUSTON, TX 77067",29.947187,-95.453252,1623,7935,152168,137676,144922,1826,133808.0
77067,"1502 ACORN MEADOW ST, HOUSTON, TX 77067",29.949527000000003,-95.444851,1145,8050,99150,73058,86974,-648,71493.0
77067,"2619 OWENS CROSS DR, HOUSTON, TX 77067",29.943054999999998,-95.460535,1945,6600,159823,144601,152212,4495,130527.0
77067,"2605 N CAMDEN PKWY, HOUSTON, TX 77067",29.961339000000002,-95.472004,1236,6299,144415,130661,137538,1025,98694.0
77067,"12010 BECCA CROSSING WAY, HOUSTON, TX 77067",29.960513,-95.439252,2038,3999,177890,160948,169419,-360,141553.0
77067,"2471 COLTON HOLLOW DR, HOUSTON, TX 77067",29.961567,-95.45576899999999,1932,5502,153271,132835,145972,-1654,122693.0
77067,"2458 PRIDES CROSSING RD, HOUSTON, TX 77067",29.962643,-95.457364,1755,5502,155959,136832,147131,-872,137494.0
77067,"2510 LOWER VALLEY DR, HOUSTON, TX 77067",29.957621999999997,-95.460699,1458,5279,131620,113339,121870,-438,117078.0
77067,"11814 GOOD SPRING DR, HOUSTON, TX 77067",29.955452,-95.454144,1581,6299,146991,132991,139991,688,105000.0
77067,"2511 JOHNSBURY DR, HOUSTON, TX 77067",29.960749,-95.459284,2262,5262,188958,170962,179960,2282,129508.0
77067,"1207 GIBSON CROSSING WAY, HOUSTON, TX 77067",29.960237,-95.438073,1436,4399,145298,130076,138379,-978,109321.0
77067,"2434 FALLS CHURCH DR, HOUSTON, TX 77067",29.960655,-95.4561,1973,5502,156331,138465,148887,-57,123355.0
77067,"2447 BRANDY MILL RD, HOUSTON, TX 77067",29.962765,-95.45798,1755,5502,155410,136169,148010,-1109,142998.0
77067,"11962 LOVELAND PASS DR, HOUSTON, TX 77067",29.960738,-95.468627,1421,6299,147278,133252,140265,2109,106060.0
77067,"2002 BRIDGE CROSS LN, HOUSTON, TX 77067",29.954815000000004,-95.456497,1655,9766,151740,137288,144514,1159,114000.0
77067,"11950 MEDICINE BOW CIR, HOUSTON, TX 77067",29.960521999999997,-95.467776,1421,6403,143434,127042,136604,509,101500.0
77067,"810 FOREST IVY LN, HOUSTON, TX 77067",29.96067,-95.429188,1595,3154,150221,135915,143068,-824,118000.0
77067,"2742 FLINTROCK CIR, HOUSTON, TX 77067",29.958252,-95.466493,1491,6508,138474,112098,131880,-1927,122773.0
77067,"12019 RAVEN VIEW DR, HOUSTON, TX 77067",29.959127000000002,-95.461138,2078,5924,175183,156831,166841,2937,138713.0
77067,"2114 BIVENS BROOK DR, HOUSTON, TX 77067",29.940027,-95.458849,1861,5502,158247,140161,150711,-1267,127450.0
77067,"2119 UNION MILL RD, HOUSTON, TX 77067",29.951765999999996,-95.455946,1526,7057,147921,133833,140877,-304,107864.0
77067,"2411 FALLS CHURCH DR, HOUSTON, TX 77067",29.960047999999997,-95.45638000000001,1643,5746,150040,135750,142895,-687,111920.0
77067,"1335 FLATROCK CRK, HOUSTON, TX 77067",29.95618,-95.44051,2971,5776,197110,178338,187724,-748,186402.0
77067,"2210 W GREENS RD, HOUSTON, TX 77067",29.949866999999998,-95.458256,1358,9300,137705,123279,131148,1287,114194.0
77067,"11935 PARAMOUNT LN, HOUSTON, TX 77067",29.957546999999998,-95.463841,1514,5776,133020,112274,122037,-107,117984.0
77067,"2734 S CAMDEN PKWY, HOUSTON, TX 77067",29.958989000000003,-95.467019,1223,6890,141598,128112,134855,-136,101000.0
77067,"12035 DIANE LN, HOUSTON, TX 77067",29.959477000000003,-95.462819,2182,5414,180603,163403,172003,1432,146793.0
77067,"11310 SPRINGTAIL LN, HOUSTON, TX 77067",29.94725,-95.453253,1445,7501,141359,123858,134628,-830,114910.0
77067,"2306 GREEN KNOLL DR, HOUSTON, TX 77067",29.954308,-95.460847,1701,6599,153794,137835,145089,633,127718.0
77067,"2535 TOMSBROOK DR, HOUSTON, TX 77067",29.961572999999998,-95.460952,2668,6294,194099,175613,184856,990,149695.0
77067,"2731 KINGS CANYON CT, HOUSTON, TX 77067",29.957808,-95.466633,1491,6298,142306,128754,135530,-271,112472.0
77067,"12187 SWORDS CREEK RD, HOUSTON, TX 77067",29.963644,-95.460709,1590,8838,153808,139160,146484,-629,110261.0
77067,"1230 COPPERMEADE DR, HOUSTON, TX 77067",29.952153000000003,-95.437624,2228,5249,181907,164583,173245,781,149988.0
77067,"2431 FALLS CHURCH DR, HOUSTON, TX 77067",29.960377,-95.45598000000001,1454,5502,145039,131225,138132,660,106985.0
77067,"2423 BLACKRIDGE RD, HOUSTON, TX 77067",29.961364,-95.457238,1961,5502,156247,136902,148807,-1529,121631.0
77067,"2623 GRAND TETON DR, HOUSTON, TX 77067",29.96214,-95.472142,1581,6695,149345,135121,142233,1273,113812.0
77067,"2527 S CAMDEN PKWY, HOUSTON, TX 77067",29.956868,-95.471402,1795,6599,152681,128648,141371,3606,136799.0
77067,"2511 GREEN KNOLL DR, HOUSTON, TX 77067",29.953831,-95.458772,1701,6273,150848,136482,143665,-155,117400.0
77067,"12031 DIANE LN, HOUSTON, TX 77067",29.959418,-95.462817,2808,5306,193230,174828,184029,659,170826.0
77067,"12030 SWEET HALL LN, HOUSTON, TX 77067",29.95941,-95.463328,1666,5297,153171,131289,145877,-308,132504.0
77067,"12111 CHAPEL OAKS DR, HOUSTON, TX 77067",29.963769,-95.45945999999999,1692,5894,149029,131997,141932,-4036,103000.0
77067,"2514 BROAD HAVEN DR, HOUSTON, TX 77067",29.944027000000002,-95.463585,1796,7349,156382,141488,148935,2347,132569.0
77067,"2811 THOMPSON CREEK DR, HOUSTON, TX 77067",29.960990999999996,-95.462071,2866,5447,194298,175794,185046,177,170545.0
77067,"11338 BIRDWING LN, HOUSTON, TX 77067",29.947768,-95.454215,1729,8899,156559,141649,149104,1613,127224.0
77067,"2615 WHITINHAM DR, HOUSTON, TX 77067",29.958872999999997,-95.45894799999999,2472,5501,194548,176020,185284,802,156760.0
77067,"2510 RHYME COURT RD, HOUSTON, TX 77067",29.952804999999998,-95.460824,1587,6599,151073,136685,143879,978,119619.0
77067,"2515 RHYME COURT RD, HOUSTON, TX 77067",29.952517999999998,-95.460584,1400,7370,146395,132453,139424,996,95000.0
77067,"2906 ASHINGTON DR, HOUSTON, TX 77067",29.944806,-95.460994,1402,6508,138346,125170,131758,-1224,110198.0
77067,"1322 BEAUFORT SEA DR, HOUSTON, TX 77067",29.954280999999998,-95.440698,2141,5776,180096,162944,171520,3628,164172.0
77067,"10927 MAPLE BOUGH LN, HOUSTON, TX 77067",29.941231,-95.45461999999999,2388,4500,187170,169344,178257,189,149819.0
77067,"11307 EAGLE VIEW LN, HOUSTON, TX 77067",29.94691,-95.462581,1640,6403,151559,137125,144342,2690,130961.0
77067,"2202 RAGLAND DR, HOUSTON, TX 77067",29.939808000000003,-95.456963,1528,4726,132101,103015,121194,-1041,118619.0
77067,"11918 SILVER CANYON LN, HOUSTON, TX 77067",29.958178999999998,-95.471855,1872,6300,158530,141922,150981,2875,132110.0
77067,"11839 STEAMBOAT SPRINGS DR, HOUSTON, TX 77067",29.95699,-95.468389,1520,6403,141780,126927,135029,-4631,120801.0
77067,"11930 UPPER HOLLOW RD, HOUSTON, TX 77067",29.957106,-95.45823399999999,1711,6826,153487,135946,146178,114,130398.0
77067,"2403 GREEN KNOLL DR, HOUSTON, TX 77067",29.954043,-95.459802,1701,6761,153155,138569,145862,-50,119351.0
77067,"11802 TRICKEY RD, HOUSTON, TX 77067",29.954126000000002,-95.444772,1045,21780,124130,92818,111829,3642,58700.0
77067,"12034 BALLARDVALE LN, HOUSTON, TX 77067",29.959888,-95.46418,2900,5301,193597,175159,184378,398,167286.0
77067,"1206 FLATROCK CRK, HOUSTON, TX 77067",29.956482,-95.438577,2407,5026,184287,166735,175511,-1643,165018.0
77067,"1802 TOMLINSON TRAIL DR, HOUSTON, TX 77067",29.941987,-95.454427,2312,7677,190893,172713,181803,7392,151433.0
77067,"11507 RAVEN VIEW DR, HOUSTON, TX 77067",29.951488,-95.461001,1760,7039,151479,137053,144266,158,115238.0
77067,"11411 TOUCAN LN, HOUSTON, TX 77067",29.949478999999997,-95.45293199999999,2388,9500,190469,172329,181399,1582,156367.0
77067,"2526 GRAND CANYON DR, HOUSTON, TX 77067",29.962259999999997,-95.474372,1808,7148,153252,134278,145954,426,130705.0
77067,"2466 FALLS CHURCH DR, HOUSTON, TX 77067",29.96118,-95.45546,1454,5502,142300,128748,135524,-396,101000.0
77067,"2315 RIDGE HOLLOW DR, HOUSTON, TX 77067",29.955864000000002,-95.460431,1660,10920,156149,139945,147310,-135,116031.0
77067,"11939 DURAN CANYON CT, HOUSTON, TX 77067",29.958071999999998,-95.473155,1944,7479,163233,147687,155460,-591,130732.0
77067,"10931 MAPLE BOUGH LN, HOUSTON, TX 77067",29.941265,-95.45461999999999,2525,4500,193226,174824,184025,369,158000.0
77067,"12023 GUADALUPE RIVER DR, HOUSTON, TX 77067",29.958659,-95.47457800000001,1723,14235,156038,138205,148608,-2900,127643.0
77067,"11326 DOVEDALE CT, HOUSTON, TX 77067",29.947182,-95.459811,1452,6403,135178,113292,128741,3236,121177.0
77067,"2643 KODIAK CT, HOUSTON, TX 77067",29.962984000000002,-95.472111,1633,6342,143598,120568,135470,-2372,120200.0
77067,"11546 EAGLE VIEW LN, HOUSTON, TX 77067",29.95161,-95.462475,1691,9827,161248,143164,150699,-731,117421.0
77067,"11903 MIDWOOD CT, HOUSTON, TX 77067",29.957894,-95.453623,1219,7009,137339,119027,130799,25,103916.0
77067,"2622 CHESTNUT MILLS RD, HOUSTON, TX 77067",29.964359,-95.461529,2308,6530,186347,168599,177473,670,156276.0
77067,"1802 HALL RIDGE TRACE LN, HOUSTON, TX 77067",29.940677,-95.4518,2441,4918,187218,169388,178303,1301,151049.0
77067,"12011 COBBS CREEK CT, HOUSTON, TX 77067",29.960315,-95.458671,2202,8729,187380,169534,178457,163,134328.0
77067,"2071 DELPHI LN, HOUSTON, TX 77067",29.955171999999997,-95.45674,1655,6299,157044,142088,149566,3771,127841.0
77067,"12051 BALLARDVALE LN, HOUSTON, TX 77067",29.960174,-95.46449399999999,2288,5502,191624,173374,182499,1626,156450.0
77067,"2411 BRUSH HOLLOW RD, HOUSTON, TX 77067",29.962667,-95.459311,1256,7440,137946,120867,131377,29,97304.0
77067,"2415 BRANDY MILL RD, HOUSTON, TX 77067",29.962242,-95.45862,1261,6303,134743,119344,128327,-1406,104916.0
77067,"11727 APPLE BOUGH CIR, HOUSTON, TX 77067",29.954428000000004,-95.44583100000001,1462,6599,149109,134909,142009,3091,116026.0
77067,"2659 KODIAK CT, HOUSTON, TX 77067",29.963141999999998,-95.471642,1570,6220,151734,137284,144509,384,113200.0
77067,"2718 BROAD HAVEN DR, HOUSTON, TX 77067",29.944074,-95.461492,1610,6508,146301,132367,139334,-2122,115821.0
77067,"1615 RIDGE HOLLOW DR, HOUSTON, TX 77067",29.950964000000003,-95.450851,1466,6638,141136,118713,131903,3853,85854.0
77067,"727 N ELLA CREEK DR, HOUSTON, TX 77067",29.962195,-95.42824499999999,1645,5114,188040,163204,177396,-1019,77124.0
77067,"12114 MCKAMY DR, HOUSTON, TX 77067",29.943845,-95.459374,1472,7549,139349,126077,132713,-2437,104981.0
77067,"2710 LACEWING LN, HOUSTON, TX 77067",29.948907000000002,-95.462239,1295,6508,129544,109990,122211,4016,112563.0
77067,"2619 GRAND TETON DR, HOUSTON, TX 77067",29.962077,-95.472264,1440,6695,146663,132695,139679,2563,99819.0
77067,"2426 N RIM DR, HOUSTON, TX 77067",29.960724,-95.47555600000001,2279,6299,180418,163236,171827,133,142363.0
77067,"11419 DEW ARBOR ST, HOUSTON, TX 77067",29.948769,-95.447705,1214,6874,90660,72692,81676,-2303,72338.0
77067,"2559 FORGE CREEK RD, HOUSTON, TX 77067",29.961883,-95.461776,2866,5828,193431,175009,184220,-421,170888.0
77067,"2675 GRAND CANYON DR, HOUSTON, TX 77067",29.964104,-95.47071700000001,1250,7562,144851,131055,137953,907,90000.0
77067,"11931 GUADALUPE RIVER DR, HOUSTON, TX 77067",29.957206,-95.4735,1852,6599,158551,130914,145460,-2170,124045.0
77067,"2027 KENTLAND DR, HOUSTON, TX 77067",29.953152000000003,-95.453457,1821,6281,159089,143937,151513,1298,135036.0
77067,"2115 UNION MILL RD, HOUSTON, TX 77067",29.951709,-95.455934,1691,6867,151123,136731,143927,-873,113001.0
77067,"2503 LACEWING LN, HOUSTON, TX 77067",29.948683000000003,-95.459976,1253,6617,127392,105759,120181,301,111021.0
77067,"1306 BEAUFORT SEA DR, HOUSTON, TX 77067",29.954271000000002,-95.44098699999999,2141,5776,180858,163634,172246,910,166053.0
77067,"2503 BROAD HAVEN DR, HOUSTON, TX 77067",29.943784,-95.463751,1565,8904,142943,122522,136136,-4400,114800.0
77067,"11807 GUADALUPE RIVER DR, HOUSTON, TX 77067",29.955906,-95.472537,1408,6175,145366,130137,138444,1699,121650.0
77067,"2430 PRIDES CROSSING RD, HOUSTON, TX 77067",29.962186,-95.457927,2109,5502,172700,151318,164476,933,148944.0
77067,"1323 BARTLETT COVE DR, HOUSTON, TX 77067",29.954769,-95.439714,2141,5776,180193,163031,171612,4420,162236.0
77067,"11607 BIRCH RUN LN, HOUSTON, TX 77067",29.951334999999997,-95.445549,1002,6299,123090,107851,117229,10559,88025.0
77067,"2618 CHESTNUT MILLS RD, HOUSTON, TX 77067",29.964359,-95.461573,1747,5750,154619,136948,147256,-2389,138576.0
77067,"11910 PARAMOUNT LN, HOUSTON, TX 77067",29.957044,-95.463504,1701,6939,152621,135178,145353,-408,137029.0
77067,"11747 BIRCH RUN LN, HOUSTON, TX 77067",29.953969,-95.446711,1028,8660,117335,99790,109659,5330,101308.0
77067,"11946 SULPHUR SPRINGS DR, HOUSTON, TX 77067",29.960932,-95.469503,2371,7253,183542,166062,174802,841,136257.0
77067,"2206 SNOWDROP LN, HOUSTON, TX 77067",29.948237,-95.4572,1520,6826,144612,129462,137726,2470,120678.0
77067,"2139 UNION MILL RD, HOUSTON, TX 77067",29.952047999999998,-95.45600400000001,1744,6804,151258,136852,144055,43,114381.0
77067,"1258 CHALK ROCK DR, HOUSTON, TX 77067",29.952856,-95.438284,2490,5227,187119,169299,178209,-136,146834.0
77067,"2535 CHESTNUT MILLS RD, HOUSTON, TX 77067",29.964094,-95.460326,2013,7200,156771,136065,147897,-2213,128689.0
77067,"11963 LOVELAND PASS DR, HOUSTON, TX 77067",29.960727000000002,-95.46894300000001,1520,6299,150145,135845,142995,1059,111460.0
77067,"11906 SILVER CANYON LN, HOUSTON, TX 77067",29.957789000000002,-95.47155500000001,1484,6969,127715,98799,120486,-5576,112500.0
77067,"12179 SWORDS CREEK RD, HOUSTON, TX 77067",29.963161,-95.46038100000001,1932,6190,155006,133071,146232,-2280,127824.0
77067,"11311 SNOW BAY DR, HOUSTON, TX 77067",29.946548999999997,-95.456801,1358,7196,140237,125545,133559,-57,115235.0
77067,"10822 GABLE HILL LN, HOUSTON, TX 77067",29.939757,-95.453179,2441,5645,188174,170252,179213,1587,154731.0
77067,"11971 STEAMBOAT SPRINGS DR, HOUSTON, TX 77067",29.960659999999997,-95.471198,1738,6615,151193,122933,141302,2013,129105.0
77067,"11819 TRICKEY RD, HOUSTON, TX 77067",29.954387,-95.445094,1123,20996,193134,148696,170915,4320,198844.0
77067,"11522 NEW VISTA LN, HOUSTON, TX 77067",29.951179999999997,-95.46158100000001,1500,6599,147460,133416,140438,485,104769.0
77067,"2470 FALLS CHURCH DR, HOUSTON, TX 77067",29.961246000000003,-95.45538,1552,5502,134736,118054,128320,-1971,108702.0
77067,"2707 QUIVER LN, HOUSTON, TX 77067",29.958083000000002,-95.462711,1633,6826,151283,136875,144079,-622,123212.0
77067,"2451 BRANDY MILL RD, HOUSTON, TX 77067",29.96283,-95.4579,2312,5502,181082,163836,172459,995,155000.0
77067,"2022 COOL RIVER LN, HOUSTON, TX 77067",29.953685999999998,-95.455272,1534,6825,132100,99368,116903,2082,122140.0
77067,"2406 GREEN KNOLL DR, HOUSTON, TX 77067",29.954317,-95.45975899999999,1701,6847,151248,136844,144046,-143,118000.0
77067,"1319 FLATROCK CRK, HOUSTON, TX 77067",29.956177,-95.44081,2808,5776,192783,174423,183603,-717,178671.0
77067,"12211 AURONIA DR, HOUSTON, TX 77067",29.963158,-95.452935,3092,5611,198748,179820,189284,-2,165000.0
77067,"2507 BROAD HAVEN DR, HOUSTON, TX 77067",29.943771,-95.463713,2102,8120,166338,148912,158417,2338,135346.0
77067,"11847 IRONSTONE CT, HOUSTON, TX 77067",29.957083,-95.469533,1431,9152,139594,119652,132947,-2199,113720.0
77067,"11946 ESTES PARK LN, HOUSTON, TX 77067",29.959564,-95.47192199999999,2378,7349,183786,166282,175034,1299,137635.0
77067,"2458 KENBRIDGE DR, HOUSTON, TX 77067",29.959637,-95.45614300000001,1561,5502,145065,129868,138157,193,125599.0
77067,"1510 BUFFALO RUN CIR, HOUSTON, TX 77067",29.951989,-95.44745999999999,1445,6268,148462,134322,141392,2662,110479.0
77067,"11918 SILVER ISLAND CIR, HOUSTON, TX 77067",29.959932000000002,-95.465324,1510,8773,150627,134847,143454,576,120074.0
77067,"11350 RAVEN VIEW DR, HOUSTON, TX 77067",29.947635,-95.460628,2394,5141,175376,135877,157996,1653,84286.0
77067,"1907 HAZYKNOLL LN, HOUSTON, TX 77067",29.946284999999996,-95.452294,1436,7013,135561,114904,129106,4741,123208.0
77067,"2519 QUIVER LN, HOUSTON, TX 77067",29.958111,-95.45899200000001,1707,6300,154951,138718,147572,1167,130439.0
77067,"11611 BIRCH RUN LN, HOUSTON, TX 77067",29.951418,-95.44555,1128,6299,128871,114143,122734,5185,88692.0
77067,"2018 DERBY DR, HOUSTON, TX 77067",29.954479,-95.455557,1843,6826,158638,142019,151084,2314,137024.0
77067,"2011 RAVENWIND RD, HOUSTON, TX 77067",29.950703999999998,-95.45661199999999,1616,7701,150849,136483,143666,445,116904.0
77067,"2511 LACEWING LN, HOUSTON, TX 77067",29.948683000000003,-95.459913,1253,7035,126022,103218,120021,-509,114546.0
77067,"835 FOREST BARK LN, HOUSTON, TX 77067",29.961902000000002,-95.429558,2130,3624,172852,154744,164621,-352,144697.0
77067,"11338 WHITE GATE LN, HOUSTON, TX 77067",29.947146000000004,-95.458963,2177,6510,170984,151628,161306,-1669,140084.0
77067,"11327 SNOW BAY DR, HOUSTON, TX 77067",29.9467,-95.456806,1614,9892,150648,136300,143474,-475,118692.0
77067,"1126 WATSON CROSSING WAY, HOUSTON, TX 77067",29.961563,-95.437436,1440,4317,153064,135571,145775,768,119242.0
77067,"2215 IRISH SPRING DR, HOUSTON, TX 77067",29.940946000000004,-95.456985,1560,6160,152347,137837,145092,20,126531.0
77067,"11927 ELK SPRINGS DR, HOUSTON, TX 77067",29.959834999999998,-95.46643900000001,1421,6403,146311,130983,139344,-179,117080.0
77067,"2614 OWENS CROSS DR, HOUSTON, TX 77067",29.943329,-95.460505,1836,6299,159427,144243,151835,1127,124088.0
77067,"2438 BRUSH HOLLOW RD, HOUSTON, TX 77067",29.963277,-95.459005,1692,5301,156661,141741,149201,-1900,110875.0
77067,"2010 BRIDGE CROSS LN, HOUSTON, TX 77067",29.954997,-95.45625799999999,1343,6174,142585,129005,135795,956,99418.0
77067,"2463 PRIDES CROSSING RD, HOUSTON, TX 77067",29.962496,-95.457084,1950,5249,157623,135318,148701,-563,123676.0
77067,"11503 EAGLE VIEW LN, HOUSTON, TX 77067",29.950796,-95.46275200000001,1701,7370,152043,137563,144803,133,115243.0
77067,"12019 SILVER ISLAND CIR, HOUSTON, TX 77067",29.962126,-95.465652,1520,6299,152360,137850,145105,-976,112305.0
77067,"12055 HADLEY FALLS CT, HOUSTON, TX 77067",29.960145,-95.453409,1944,5502,161650,146254,153952,429,139169.0
77067,"2711 OWENS CROSS DR, HOUSTON, TX 77067",29.943049,-95.461288,2511,6905,180089,162937,171513,1128,144089.0
77067,"2747 WINTER PARK CT, HOUSTON, TX 77067",29.962726,-95.46806600000001,1510,6299,147062,133056,140059,250,106000.0
77067,"2755 SPRING CANYON CT, HOUSTON, TX 77067",29.963458000000003,-95.46829,1540,7440,151821,137361,144591,-2032,114367.0
77067,"12022 BECCA CROSSING WAY, HOUSTON, TX 77067",29.960623,-95.439255,1017,4000,120721,100966,109746,418,94861.0
77067,"2114 UNION MILL RD, HOUSTON, TX 77067",29.951763,-95.455624,1526,6721,147860,133778,140819,-157,105882.0
77067,"1254 HAWKS NEST DR, HOUSTON, TX 77067",29.955777,-95.438276,1628,5497,144269,123854,136103,6878,128606.0
77067,"1234 CROSS DRAW DR, HOUSTON, TX 77067",29.953584000000003,-95.43871700000001,1825,5641,149651,121339,134821,5761,139166.0
77067,"12239 PORTREE DR, HOUSTON, TX 77067",29.944834000000004,-95.464053,1504,7841,139670,125176,131764,1247,98251.0
77067,"11530 OLD TELEGRAPH RD, HOUSTON, TX 77067",29.951375,-95.453988,1964,8063,158966,142312,151396,2123,133128.0
77067,"11806 QUICKSILVER CT, HOUSTON, TX 77067",29.955596000000003,-95.469942,1362,6300,147838,132350,140798,2835,132139.0
77067,"2723 KINGS CANYON CT, HOUSTON, TX 77067",29.957813,-95.466286,1510,6098,123794,100517,105807,-14019,115331.0
