zip,address,lat,lng,house area,lot area,high,low,estimate,month value change,property tax
77083,"13334 ALBELIA MEADOWS DR, HOUSTON, TX 77083",29.690637,-95.616761,1330,4095,157588,142580,150084,-2236,137615.0
77083,"8663 CAUSEWAY DR, HOUSTON, TX 77083",29.685167,-95.616023,2508,6887,185453,149056,173321,5120,128738.0
77083,"8510 ANTIETAM LN, HOUSTON, TX 77083",29.682109000000004,-95.67622800000001,2081,5775,213799,193437,203618,8557,181770.0
77083,"14719 WYNBOURN WAY, HOUSTON, TX 77083",29.676703000000003,-95.648443,3536,,303767,274837,289302,2620,281670.0
77083,"9222 BOLLINGBROOK DR, HOUSTON, TX 77083",29.67851,-95.61603199999999,1505,5628,100031,83836,95268,-795,95834.0
77083,"9511 TREE SPARROW LN, HOUSTON, TX 77083",29.678085,-95.665074,2439,9583,219530,198622,209076,1271,179170.0
77083,"15210 WYNDHAM LN, HOUSTON, TX 77083",29.682507,-95.65515500000001,2210,,208054,186258,198147,4079,169970.0
77083,"8906 NORHAM DR, HOUSTON, TX 77083",29.681911,-95.639901,1942,,212468,182683,198568,4549,182680.0
77083,"8207 ASHLAWN DR, HOUSTON, TX 77083",29.687002000000003,-95.664837,1995,7257,202629,183331,192980,5058,180750.0
77083,"8726 BARRON WOOD CIR, HOUSTON, TX 77083",29.683295,-95.633425,1674,23326,180427,146702,168623,323,146909.0
77083,"9523 RIVERSIDE LODGE DR, HOUSTON, TX 77083",29.676087,-95.625364,1393,5175,128967,115456,122826,431,100607.0
77083,"14414 LATERNA LN, HOUSTON, TX 77083",29.685698,-95.640198,2176,15999,210522,157434,183063,-2647,210186.0
77083,"8234 ALISO CANYON LN, HOUSTON, TX 77083",29.685128999999996,-95.68204200000001,2982,,260739,224187,243681,-3615,219560.0
77083,"9206 CLIPPERWOOD PL, HOUSTON, TX 77083",29.677701000000003,-95.62840899999999,1344,6050,140698,127298,133998,3112,113860.0
77083,"15802 MISSION VIEW CT, HOUSTON, TX 77083",29.683727,-95.66289,2082,9936,204340,184880,194610,4368,159410.0
77083,"8031 DAYLILY CREEK DR, HOUSTON, TX 77083",29.690487,-95.614991,2332,4522,201649,177150,188457,-682,140000.0
77083,"8407 CHANCELLORSVILLE LN, HOUSTON, TX 77083",29.683177,-95.676761,3096,5401,247588,224008,235798,-1008,216700.0
77083,"13818 PURPLEMARTIN ST, HOUSTON, TX 77083",29.684303000000003,-95.628741,1007,2870,124167,108939,117139,-950,95289.0
77083,"15214 DELBARTON DR, HOUSTON, TX 77083",29.685116999999998,-95.654279,2498,,209812,176786,194270,4839,172470.0
77083,"8015 SUSPIRO DR, HOUSTON, TX 77083",29.689942,-95.660377,1997,,201337,182163,191750,4937,174480.0
77083,"9107 BENTHOS DR, HOUSTON, TX 77083",29.678278999999996,-95.61854100000001,1411,4918,113673,85507,100596,1680,88718.0
77083,"14226 ANDREA WAY LN, HOUSTON, TX 77083",29.679078000000004,-95.638048,2716,7331,239798,216960,228379,3565,210820.0
77083,"15003 HAVENRIDGE DR, HOUSTON, TX 77083",29.678864,-95.653529,2637,,245650,208571,231745,5480,192020.0
77083,"9422 WESTACRE PL, HOUSTON, TX 77083",29.678732,-95.633706,1947,,191567,171498,182445,5327,146380.0
77083,"9206 EAGLEWOOD SPRING DR, HOUSTON, TX 77083",29.681351,-95.67059300000001,2442,14374,222396,201216,211806,69,190540.0
77083,"16814 CHESHIRE PLACE DR, HOUSTON, TX 77083",29.686878999999998,-95.678568,2093,7150,198662,179742,189202,7368,159640.0
77083,"8507 GRAND KNOLLS DR, HOUSTON, TX 77083",29.683183000000003,-95.66022199999999,1110,,125338,101625,112917,-4492,114500.0
77083,"9502 LASBURY DR, HOUSTON, TX 77083",29.678064000000003,-95.66690799999999,2439,6770,219688,198766,209227,3024,180330.0
77083,"8514 IVANHOE SPRINGS DR, HOUSTON, TX 77083",29.686826,-95.624111,2689,6599,226729,205135,215932,-2015,213718.0
77083,"13239 RUSTIC GARDEN DR, HOUSTON, TX 77083",29.691737,-95.616795,1760,4038,157332,139520,148426,-6899,160660.0
77083,"15203 BEECHNUT ST, HOUSTON, TX 77083",29.68917,-95.654591,1431,,170840,151316,162705,9035,122160.0
77083,"9235 BOLLINGBROOK DR, HOUSTON, TX 77083",29.678646999999998,-95.615719,1296,5175,114167,72652,94353,1204,87866.0
77083,"17318 PASTORIA DR, HOUSTON, TX 77083",29.689362,-95.686551,1339,9450,150142,133144,141643,13007,137950.0
77083,"14746 CHARLMONT DR, HOUSTON, TX 77083",29.681882,-95.647182,2372,,227558,186556,205007,-1036,220880.0
77083,"8014 FRESNO DR, HOUSTON, TX 77083",29.689915000000003,-95.662527,2148,,203530,184146,193838,5750,192030.0
77083,"9503 EAGLEWOOD GLEN TRL, HOUSTON, TX 77083",29.676965000000003,-95.667774,2209,6050,216589,195961,206275,3815,186620.0
77083,"13423 QUEENSLAND WAY, HOUSTON, TX 77083",29.678825,-95.620193,2534,4948,204763,185261,195012,-2052,168000.0
77083,"13402 ROYAL PARK DR, HOUSTON, TX 77083",29.679878000000002,-95.62050500000001,2612,9596,249010,220820,234915,2414,218747.0
77083,"15319 LINDITA DR, HOUSTON, TX 77083",29.691447999999998,-95.655771,1488,7475,177807,160873,169340,11700,134110.0
77083,"16727 WILSONS CREEK LN, HOUSTON, TX 77083",29.678633,-95.678067,2091,6969,208752,188870,198811,12664,189240.0
77083,"7922 GOLONDRINA DR, HOUSTON, TX 77083",29.690456,-95.670877,1673,6559,178977,161931,170454,5770,144380.0
77083,"8302 THAMES LN, HOUSTON, TX 77083",29.68498,-95.67890799999999,2463,7463,207678,185922,197789,5893,176440.0
77083,"7927 MANZANO DR, HOUSTON, TX 77083",29.689722999999997,-95.669708,1455,7313,157349,132350,147055,4781,116930.0
77083,"9202 DANFORTH WAY, HOUSTON, TX 77083",29.680272,-95.62931800000001,1344,6325,140869,127453,134161,1422,115019.0
77083,"9330 CLIPPERWOOD PL, HOUSTON, TX 77083",29.678801,-95.628426,1775,5998,145518,128888,138589,-5750,131910.0
77083,"8503 TAMAYO DR, HOUSTON, TX 77083",29.683638000000002,-95.670121,1931,6967,198282,179398,188840,3673,159920.0
77083,"9315 LYNCHESTER DR, HOUSTON, TX 77083",29.678428999999998,-95.63078399999999,1597,5889,147457,132009,140435,-1838,118257.0
77083,"8903 SHADY GREEN MDWS, HOUSTON, TX 77083",29.682458,-95.617221,2446,4901,229546,201657,214529,-638,177967.0
77083,"7702 SORBETE DR, HOUSTON, TX 77083",29.690683,-95.682344,1464,6300,164850,139967,155519,14260,138550.0
77083,"14235 ROYAL HILL DR, HOUSTON, TX 77083",29.678481,-95.636895,1604,,182969,163801,174256,3198,155560.0
77083,"16147 APRIL RIDGE DR, HOUSTON, TX 77083",29.683704,-95.671417,2453,5973,222291,196887,211706,2825,183690.0
77083,"9123 WINDSWEPT GROVE DR, HOUSTON, TX 77083",29.679011,-95.661281,1760,5248,192415,174089,183252,2832,155110.0
77083,"15418 SCENIC HAVEN DR, HOUSTON, TX 77083",29.685178000000004,-95.658072,1705,6909,182923,157038,172569,3695,141200.0
77083,"16015 MISSION GLEN DR, HOUSTON, TX 77083",29.681593,-95.667343,1803,11936,194361,174000,185106,3994,141380.0
77083,"16710 COLD HARBOR LN, HOUSTON, TX 77083",29.678165000000003,-95.678453,2431,6050,223576,202284,212930,4100,188580.0
77083,"9419 DENBRIDGE DR, HOUSTON, TX 77083",29.675239,-95.635262,1465,6900,164836,146176,155506,-3896,149450.0
77083,"16115 EAGLEWOOD SPRING CT, HOUSTON, TX 77083",29.679470000000002,-95.66709399999999,1885,,200221,181153,190687,2960,168560.0
77083,"14222 ALMOND BAY LN, HOUSTON, TX 77083",29.680776,-95.63756,2686,,241386,216098,229891,1838,204380.0
77083,"9227 HODGES BEND DR, HOUSTON, TX 77083",29.679078000000004,-95.67384200000001,2353,5510,220015,199061,209538,5141,177700.0
77083,"8911 BARRON WOOD CIR, HOUSTON, TX 77083",29.68232,-95.63341700000001,2691,7035,229670,192088,208791,2398,193999.0
77083,"9347 EAGLEWOOD GLEN TRL, HOUSTON, TX 77083",29.678247,-95.669229,2062,,206804,187108,196956,4487,179350.0
77083,"8210 BRENTFORD DR, HOUSTON, TX 77083",29.686186,-95.675732,2509,7587,204503,181131,194765,10459,180010.0
77083,"15814 BEECHNUT ST, HOUSTON, TX 77083",29.689113,-95.66407,1916,7625,194152,175662,184907,8577,153150.0
77083,"15511 EVERGREEN PLACE DR, HOUSTON, TX 77083",29.681571999999996,-95.659651,971,,123329,108060,117456,-4308,101960.0
77083,"14419 ROYAL HILL DR, HOUSTON, TX 77083",29.675971999999998,-95.64111700000001,1886,6720,192062,173770,182916,5606,173310.0
77083,"7911 TRABAJO DR, HOUSTON, TX 77083",29.690556,-95.67519200000001,1861,,194918,176354,185636,5676,154580.0
77083,"13903 PLANTATION VALLEY DR, HOUSTON, TX 77083",29.6775,-95.629832,1331,,149510,131174,141047,2950,90370.0
77083,"17339 TRACE GLEN LN, HOUSTON, TX 77083",29.685971999999996,-95.685598,2018,,209278,189346,199312,4492,185490.0
77083,"9203 BRISTLEBROOK DR, HOUSTON, TX 77083",29.67929,-95.631652,2129,6316,196021,177353,186687,1540,160102.0
77083,"14914 HAVENRIDGE DR, HOUSTON, TX 77083",29.678952000000002,-95.651238,2464,,222571,195014,211972,5347,192780.0
77083,"7631 TIERRA VERDE DR, HOUSTON, TX 77083",29.692473,-95.682521,1082,5500,138040,115244,126642,-1751,113260.0
77083,"7822 LOBERA DR, HOUSTON, TX 77083",29.691098999999998,-95.674675,2036,,193399,173139,184190,4779,160180.0
77083,"9323 BARROWHOLLOW DR, HOUSTON, TX 77083",29.679085999999998,-95.61754499999999,1655,5384,129561,107968,119964,-921,102255.0
77083,"13747 CANYON HOLLOW LOOP, HOUSTON, TX 77083",29.689624,-95.627368,1802,5000,157056,134831,148166,-5333,168682.0
77083,"9922 KINGSVILLE PARK DR, HOUSTON, TX 77083",29.675866999999997,-95.621558,1563,4948,148923,130658,140493,-2579,153951.0
77083,"9027 KNIGHTSLAND TRL, HOUSTON, TX 77083",29.682071999999998,-95.65455,1800,,200634,181526,191080,4346,169670.0
77083,"8227 VINY RIDGE DR, HOUSTON, TX 77083",29.686757,-95.65730500000001,1175,5250,168467,146629,155988,1478,139460.0
77083,"13923 CRAVENRIDGE DR, HOUSTON, TX 77083",29.676689,-95.629799,1575,,165920,137261,150836,-4988,128260.0
77083,"9511 CHALFORD DR, HOUSTON, TX 77083",29.675553000000004,-95.64124,1886,,190781,172611,181696,6354,172530.0
77083,"8310 THAMES LN, HOUSTON, TX 77083",29.684904,-95.678907,2455,6800,208008,188198,198103,10704,185270.0
77083,"9223 LYNCHESTER DR, HOUSTON, TX 77083",29.678995,-95.630799,1780,4998,149369,131221,139597,-4921,133888.0
77083,"15811 CERCA BLANCA DR, HOUSTON, TX 77083",29.689588,-95.664878,1612,6900,178954,161910,170432,12031,140440.0
77083,"9514 SEDGE WREN CT, HOUSTON, TX 77083",29.676218,-95.667106,3328,6050,261327,233950,248883,6430,228090.0
77083,"8613 RUSTLING LEAVES DR, HOUSTON, TX 77083",29.685644,-95.630646,1893,3179,184929,137885,162218,7047,
77083,"8411 ANTIETAM LN, HOUSTON, TX 77083",29.683119,-95.675912,2001,5880,212768,192504,202636,8863,177230.0
77083,"15330 ENSENADA DR, HOUSTON, TX 77083",29.690392,-95.654384,1881,8250,192629,172449,183456,13530,153330.0
77083,"8719 WOODLEIGH DR, HOUSTON, TX 77083",29.683887,-95.645222,2307,,215972,184269,198139,5660,207580.0
77083,"9315 ROYAL WAY, HOUSTON, TX 77083",29.677549,-95.65505300000001,2076,,216388,195780,206084,4909,190660.0
77083,"7903 BEECH PARK LN, HOUSTON, TX 77083",29.691299,-95.618018,2341,9688,215684,180390,196076,1125,202658.0
77083,"15522 BEECHNUT ST, HOUSTON, TX 77083",29.689149,-95.660102,2704,,238348,202371,224857,2980,238780.0
77083,"7711 LONDRES DR, HOUSTON, TX 77083",29.690599,-95.67880699999999,1586,6917,178106,152663,169625,3325,138540.0
77083,"9211 CRIBBAGE CT, HOUSTON, TX 77083",29.677635,-95.65791999999999,2692,8251,239656,216832,228244,4669,210360.0
77083,"13820 TRUMPETVINE ST, HOUSTON, TX 77083",29.685977,-95.62865,2020,2626,185471,167807,176639,12076,144117.0
77083,"9603 WELLSWORTH DR, HOUSTON, TX 77083",29.676246000000003,-95.626254,1296,5175,128049,112492,119672,280,91447.0
77083,"13715 RIVER KEG DR, HOUSTON, TX 77083",29.681278999999996,-95.628536,3293,7680,267969,240161,252801,3871,223625.0
77083,"8303 KINGSBRIDGE MEADOW DR, HOUSTON, TX 77083",29.686940000000003,-95.649961,1436,5000,181926,164600,173263,4869,150910.0
77083,"15927 CAMINO DEL SOL DR, HOUSTON, TX 77083",29.692602,-95.665335,1344,,143225,125660,135118,4969,114860.0
77083,"8115 GOLDEN TRACE CT, HOUSTON, TX 77083",29.690451,-95.620799,2643,5000,228210,206476,217343,1292,196738.0
77083,"8215 GAINES MEADOW DR, HOUSTON, TX 77083",29.687604999999998,-95.65079200000001,1325,5000,179373,162289,170831,4514,141690.0
77083,"8666 CONNAUGHT GARDEN DR, HOUSTON, TX 77083",29.684167,-95.617199,2088,6229,160062,137412,151002,2168,128639.0
77083,"8018 ADDICKS CLODINE RD, HOUSTON, TX 77083",29.689728999999996,-95.663575,1740,7840,179422,162334,170878,8805,142960.0
77083,"8226 WAHL MANOR CT, HOUSTON, TX 77083",29.687696000000003,-95.649493,1364,5140,179891,162759,171325,4134,139480.0
77083,"14506 ROYAL HILL DR, HOUSTON, TX 77083",29.676652,-95.639893,1886,7280,191197,172987,182092,6052,172680.0
77083,"8915 RUSTLING LEAVES RD, HOUSTON, TX 77083",29.682469,-95.630709,2535,7096,227159,184183,204648,-554,212802.0
77083,"8231 GAINES MEADOW DR, HOUSTON, TX 77083",29.68652,-95.65079899999999,1325,5000,179427,162339,170883,4558,141690.0
77083,"15926 WILLIWAW DR, HOUSTON, TX 77083",29.685157,-95.666747,2343,7139,214910,194442,204676,4150,173050.0
77083,"8402 MISSION ESTATES DR, HOUSTON, TX 77083",29.684269,-95.663338,2851,,228409,206655,217532,870,169810.0
77083,"16135 SOARING EAGLE DR, HOUSTON, TX 77083",29.678896999999996,-95.664765,2727,6622,225821,202164,215068,726,196160.0
77083,"7914 BEECH MEADOW LN, HOUSTON, TX 77083",29.691796999999998,-95.619174,2012,5645,186206,156622,174024,5566,176774.0
77083,"14401 LATERNA LN, HOUSTON, TX 77083",29.685425,-95.639932,784,,127142,76877,98560,-5607,3881.0
77083,"9519 HOMELAND DR, HOUSTON, TX 77083",29.676107000000002,-95.62448,1296,5175,129954,114312,120328,986,92151.0
77083,"13947 CRAVENRIDGE DR, HOUSTON, TX 77083",29.676663,-95.63118,2028,5052,191316,173096,182206,4368,143210.0
77083,"8406 WOODLAND WILLOWS DR, HOUSTON, TX 77083",29.684807,-95.656767,1586,,180439,163255,171847,7529,144720.0
77083,"14607 AUTO PARK WAY, HOUSTON, TX 77083",29.687904999999997,-95.64624599999999,2424,5205,216422,183755,204172,-875,166423.0
77083,"16219 MISSION GLEN DR, HOUSTON, TX 77083",29.683390999999997,-95.672591,2701,6415,230148,208230,219189,3119,193520.0
77083,"9531 FLYING EAGLE CT, HOUSTON, TX 77083",29.677544,-95.667221,3342,6325,211328,187628,197503,-1203,217390.0
77083,"13817 TRUMPETVINE ST, HOUSTON, TX 77083",29.685703000000004,-95.62894,1329,2800,137584,119239,131032,166,112874.0
77083,"8826 HEATHERLY DR, HOUSTON, TX 77083",29.682796999999997,-95.6496,2927,,250554,226692,238623,1077,236730.0
77083,"16015 CERCA BLANCA DR, HOUSTON, TX 77083",29.68957,-95.666336,2040,7224,195508,176888,186198,4670,146250.0
77083,"8318 KINGSBRIDGE MEADOW DR, HOUSTON, TX 77083",29.686769,-95.650273,1364,5224,181106,163858,172482,4526,150220.0
77083,"13431 BISHOP WAY DR, HOUSTON, TX 77083",29.675746999999998,-95.620324,1375,5763,150523,131887,143355,-917,147157.0
77083,"16251 BEECHNUT ST, HOUSTON, TX 77083",29.688565999999998,-95.673066,1272,,149029,134835,141932,597,100180.0
77083,"8519 BOLINGTON DR, HOUSTON, TX 77083",29.686159999999997,-95.621719,2060,6403,190100,170185,181048,3750,163300.0
77083,"13323 BENFORD DR, HOUSTON, TX 77083",29.677290000000003,-95.618314,1296,5288,102363,87740,97489,171,89128.0
77083,"16202 TURNSTONE CT, HOUSTON, TX 77083",29.677239,-95.665654,2439,7685,219521,198615,209068,1863,179710.0
77083,"8654 CONNAUGHT GARDEN DR, HOUSTON, TX 77083",29.684171000000003,-95.61691400000001,2448,6299,181648,141282,168193,3584,132701.0
77083,"8302 CHELSEA BEND CT, HOUSTON, TX 77083",29.684962,-95.679778,2839,9751,224605,186821,209911,98,192260.0
77083,"16310 LYNN CREST CT, HOUSTON, TX 77083",29.680260999999998,-95.671812,2018,,206997,187283,197140,5784,156370.0
77083,"15615 BARBAROSSA DR, HOUSTON, TX 77083",29.687903000000002,-95.66142099999999,1766,,179021,161971,170496,6867,146910.0
77083,"8920 RIVERWELL CIR W, HOUSTON, TX 77083",29.682247999999998,-95.62921300000001,2088,7492,195662,152972,177875,1294,177424.0
77083,"8714 EMERALD HEIGHTS CT, HOUSTON, TX 77083",29.684108000000002,-95.63900799999999,2820,8943,262393,235164,247541,2338,222244.0
77083,"8802 KIRKBY DR, HOUSTON, TX 77083",29.682639,-95.647436,2654,9944,247938,224324,236131,1733,227470.0
77083,"15523 EVERGREEN PLACE DR, HOUSTON, TX 77083",29.681762,-95.659673,1551,,175092,149391,160635,2955,139620.0
77083,"15411 BEECHNUT ST, HOUSTON, TX 77083",29.688771000000003,-95.657534,1697,,177354,160464,168909,7982,142580.0
77083,"15331 EVERGREEN PLACE DR, HOUSTON, TX 77083",29.681201,-95.65696,1551,,177327,153146,161206,-46,148130.0
77083,"16103 MISSION GLEN DR, HOUSTON, TX 77083",29.682222999999997,-95.66935,3182,7196,237766,215122,226444,2858,210980.0
77083,"15602 RIO DEL SOL DR, HOUSTON, TX 77083",29.692812,-95.659935,1828,,193429,173165,184218,9524,144570.0
77083,"8623 BEECHCREST ST, HOUSTON, TX 77083",29.684676,-95.627792,1423,2800,139503,120903,132860,531,115172.0
77083,"14803 STANBRIDGE DR, HOUSTON, TX 77083",29.67882,-95.647577,1976,,192406,170417,183244,4045,145480.0
77083,"14810 DELBARTON DR, HOUSTON, TX 77083",29.684616,-95.648523,2639,,219855,174706,196299,5445,207120.0
77083,"8322 INDIGO VILLA LN, HOUSTON, TX 77083",29.684037,-95.684569,2436,7155,222168,201010,211589,3119,191440.0
77083,"15310 ENSENADA DR, HOUSTON, TX 77083",29.690309000000003,-95.65482800000001,1488,7401,177973,155938,169498,11778,134110.0
77083,"14315 WHITECROSS DR, HOUSTON, TX 77083",29.676933000000002,-95.63583,1886,,191305,173085,182195,5800,172530.0
77083,"15326 LINDITA DR, HOUSTON, TX 77083",29.691724,-95.65565699999999,1924,8160,195829,177179,186504,6054,143930.0
77083,"8711 OLIVE BRANCH CT, HOUSTON, TX 77083",29.684082,-95.640563,2684,8908,240002,217144,228573,-10087,192612.0
77083,"9422 RIVERSIDE LODGE DR, HOUSTON, TX 77083",29.678937,-95.625736,1793,6342,148348,131394,141284,-5422,137859.0
77083,"9007 ROCKY VALLEY DR, HOUSTON, TX 77083",29.681371999999996,-95.651134,1948,,198520,179614,189067,6346,195330.0
77083,"15602 RIVERSIDE GROVE DR, HOUSTON, TX 77083",29.680734,-95.657686,1110,5460,126963,101799,114381,-6170,115540.0
77083,"13435 BAFING DR, HOUSTON, TX 77083",29.678063,-95.620568,1246,5158,156128,135508,147291,-1936,132061.0
77083,"7607 LORO LINDA DR, HOUSTON, TX 77083",29.689365000000002,-95.685056,1449,,157150,134700,149667,20758,139410.0
77083,"13310 AMBER LODGE LN, HOUSTON, TX 77083",29.687989,-95.615489,1469,5310,153505,138885,146195,-1186,143586.0
77083,"13731 SUNMOUNT PINES DR, HOUSTON, TX 77083",29.686538,-95.624427,1903,6599,155589,136326,148180,-1339,181352.0
77083,"9114 KNIGHTSLAND TRL, HOUSTON, TX 77083",29.68105,-95.65485100000001,2106,,207648,187872,197760,5133,185330.0
77083,"16410 PRADERA DR, HOUSTON, TX 77083",29.69025,-95.676448,1726,6300,179059,158595,170532,4192,144520.0
77083,"16107 CERCA BLANCA DR, HOUSTON, TX 77083",29.69003,-95.669096,1409,7657,165728,142052,157836,15768,129790.0
77083,"14811 KNIGHTSWAY DR, HOUSTON, TX 77083",29.682506,-95.647327,2665,8258,243472,215647,231878,3338,226010.0
77083,"9310 ROYAL WAY, HOUSTON, TX 77083",29.677583000000002,-95.655328,3573,18000,313066,266686,289876,2067,252190.0
77083,"13951 CRAVENRIDGE DR, HOUSTON, TX 77083",29.676663,-95.631224,1361,,152029,134655,144790,1707,113190.0
77083,"16534 CAMINO DEL SOL DR, HOUSTON, TX 77083",29.692507,-95.678812,1864,6633,194480,175958,185219,3526,147570.0
77083,"8930 WILLOW WIND LN, HOUSTON, TX 77083",29.682037,-95.621558,2895,4952,280914,235862,265013,11462,260382.0
77083,"8910 DIAMOND LAKE LN, HOUSTON, TX 77083",29.682083000000002,-95.63793299999999,2064,,212347,182579,198455,2772,169840.0
77083,"8202 ALISO CANYON LN, HOUSTON, TX 77083",29.684684000000004,-95.68194100000001,3209,7880,262075,223249,242662,-8257,227690.0
77083,"9214 ROCKY VALLEY DR, HOUSTON, TX 77083",29.679121000000002,-95.649457,2653,,236117,203323,218627,986,185450.0
77083,"8826 HYDETHORPE DR, HOUSTON, TX 77083",29.682388,-95.64827700000001,2964,,269333,238552,256508,5727,238200.0
77083,"9115 KNIGHTSLAND TRL, HOUSTON, TX 77083",29.681054,-95.654536,1646,,192880,174510,183695,4569,160710.0
77083,"9514 BENTHOS DR, HOUSTON, TX 77083",29.677057,-95.618848,1558,5759,116070,92205,108477,883,97353.0
77083,"8535 WOODLAND WILLOWS DR, HOUSTON, TX 77083",29.682346999999996,-95.656398,1449,5880,175772,151359,162752,6279,141920.0
77083,"8863 CHELSWORTH DR, HOUSTON, TX 77083",29.681472999999997,-95.649331,2434,,232820,200182,217589,4162,210720.0
77083,"9318 WESTACRE PL, HOUSTON, TX 77083",29.677740000000004,-95.633691,1951,,181233,163973,172603,7862,138180.0
77083,"8814 BARRON WOOD CIR, HOUSTON, TX 77083",29.681763,-95.633736,2002,8882,209486,171398,190442,3324,163272.0
77083,"9307 BARROWHOLLOW DR, HOUSTON, TX 77083",29.679267,-95.61754,1296,5627,117349,79919,101163,2644,88001.0
77083,"9702 SYNOTT RD, HOUSTON, TX 77083",29.674626,-95.614749,672,119790,249544,150552,206235,2006,219443.0
77083,"9710 KINGSVILLE PARK DR, HOUSTON, TX 77083",29.679467,-95.621554,1375,4948,149666,135412,142539,-691,137158.0
77083,"14818 CHARLMONT DR, HOUSTON, TX 77083",29.678958,-95.648499,2778,,245540,215140,233848,3603,176220.0
77083,"8506 ASHLAWN DR, HOUSTON, TX 77083",29.68372,-95.66404399999999,1556,6298,180074,162924,171499,3316,151790.0
77083,"7634 AIMUA CT, HOUSTON, TX 77083",29.690939,-95.68553299999999,2538,9166,258223,218316,234748,5090,258330.0
77083,"16251 CAMINO DEL SOL DR, HOUSTON, TX 77083",29.692421999999997,-95.672102,1220,5550,151898,135985,144665,-1794,119280.0
77083,"9510 LASBURY DR, HOUSTON, TX 77083",29.677823999999998,-95.666618,1668,5750,184621,167039,175830,872,151960.0
77083,"8919 INGLEBROOK LN, HOUSTON, TX 77083",29.681926,-95.619682,2949,5001,282349,237067,266367,12124,256752.0
77083,"15711 SCHUMANN LN, HOUSTON, TX 77083",29.687014,-95.662204,1945,,199439,180445,189942,4373,151650.0
77083,"9618 RAVENS NEST CT, HOUSTON, TX 77083",29.676308000000002,-95.66441800000001,2151,5500,208579,188715,198647,2086,166480.0
77083,"8415 ADLER LAKE DR, HOUSTON, TX 77083",29.684864,-95.670407,2305,6196,214726,192231,204501,6719,178970.0
77083,"15022 ROCK KNOLL DR, HOUSTON, TX 77083",29.682344,-95.652896,1870,,209558,180181,195849,6193,187880.0
77083,"8930 NORHAM DR, HOUSTON, TX 77083",29.680972999999998,-95.639476,2122,,211024,188916,200975,3985,191750.0
77083,"16027 WILLIWAW DR, HOUSTON, TX 77083",29.683007,-95.668284,2220,6825,204921,185405,195163,4317,174060.0
77083,"9607 STOCKWELL DR, HOUSTON, TX 77083",29.676233,-95.62361800000001,1154,5175,115928,92530,106356,3533,85235.0
77083,"13927 PLANTATION VALLEY DR, HOUSTON, TX 77083",29.677495,-95.630227,1947,,179434,158928,170890,8583,136980.0
77083,"15143 KINGSBRIDGE WAY, HOUSTON, TX 77083",29.685715999999996,-95.652395,1800,,201634,182430,192032,4649,171950.0
77083,"15619 MONTESA DR, HOUSTON, TX 77083",29.689682,-95.661399,2768,,236042,190980,214584,3363,197360.0
77083,"16422 SALIDA DE SOL DR, HOUSTON, TX 77083",29.691816999999997,-95.67756999999999,2362,6300,209193,187277,199231,7951,165900.0
77083,"8506 MORNING GLEN LN, HOUSTON, TX 77083",29.685843,-95.686603,2583,,222711,199380,212106,2526,200250.0
77083,"14301 LATERNA LN, HOUSTON, TX 77083",29.685438,-95.638048,644,,126480,80288,109983,-21938,3188.0
77083,"15902 BEECHNUT ST, HOUSTON, TX 77083",29.689102000000002,-95.665094,1409,7625,171355,155035,163195,9643,127290.0
77083,"8219 PADDINGTON PLACE DR, HOUSTON, TX 77083",29.686421000000003,-95.674399,1929,7837,193418,174998,184208,4292,165350.0
77083,"13335 BAFING DR, HOUSTON, TX 77083",29.678093,-95.618569,1313,4861,128558,99603,115818,7436,88496.0
77083,"13770 BRANFORD GREEN DR, HOUSTON, TX 77083",29.686082,-95.625618,2667,6726,222874,201648,212261,1939,197717.0
77083,"8926 HIGH HAVEN DR, HOUSTON, TX 77083",29.681140000000003,-95.65258,2637,,213375,175128,201297,-3040,184200.0
77083,"9426 KEEGANS WOOD DR, HOUSTON, TX 77083",29.680728000000002,-95.627517,1584,5998,148937,133334,141845,-412,122922.0
77083,"8616 HEMLOCK HILL DR, HOUSTON, TX 77083",29.685807,-95.62734499999999,1620,2800,145684,129035,138747,-2528,117829.0
77083,"9418 KEEGANS WOOD DR, HOUSTON, TX 77083",29.680619,-95.627517,1800,5998,149473,135237,142355,-4750,130725.0
77083,"15310 WILDWOOD GLEN DR, HOUSTON, TX 77083",29.682465999999998,-95.65929399999999,1499,5775,171338,148920,160129,4034,135720.0
77083,"15331 MONDRIAN DR, HOUSTON, TX 77083",29.690913000000002,-95.657301,1632,8191,179200,162134,170667,10076,142870.0
77083,"8310 CHERRYSHIRE CT, HOUSTON, TX 77083",29.685871999999996,-95.668345,2850,10901,248323,210840,234267,1307,205490.0
77083,"13742 CANYON HOLLOW LOOP, HOUSTON, TX 77083",29.689694,-95.627052,1759,5001,167330,144303,153514,-3922,172000.0
77083,"15222 DELBARTON DR, HOUSTON, TX 77083",29.685116999999998,-95.654664,1976,,196515,177799,187157,4950,170740.0
77083,"15038 VISTAMONT DR, HOUSTON, TX 77083",29.680640000000004,-95.65247,2229,,212024,177329,192749,4206,207740.0
77083,"7927 DAYLILY CREEK DR, HOUSTON, TX 77083",29.691213,-95.615054,1570,4549,155717,140887,148302,-3763,151753.0
77083,"15542 SCENIC HAVEN DR, HOUSTON, TX 77083",29.685659,-95.65986600000001,1634,4829,179305,155398,170767,2846,136940.0
77083,"15234 LOMA PASEO DR, HOUSTON, TX 77083",29.686884999999997,-95.654917,1868,,188857,170871,179864,9500,145390.0
77083,"8539 WOODLAND WILLOWS DR, HOUSTON, TX 77083",29.682552,-95.65639499999999,1736,5880,190811,164062,178328,2175,144600.0
77083,"14923 WYNBOURN CT, HOUSTON, TX 77083",29.67742,-95.653379,2844,,246550,223070,234810,5822,214130.0
77083,"13330 BASSFORD DR, HOUSTON, TX 77083",29.676796999999997,-95.618688,1523,6325,119102,95506,112360,1550,80000.0
77083,"14103 ALMOND BAY LN, HOUSTON, TX 77083",29.681093,-95.63545500000001,1625,8485,166989,143133,159037,-2815,153971.0
77083,"15011 BERKSHIRE GREEN DR, HOUSTON, TX 77083",29.683506,-95.651539,2312,,205371,180184,193746,3966,186920.0
77083,"16710 APRIL FALLS TRL, HOUSTON, TX 77083",29.679688,-95.678708,2799,6451,240346,217456,228901,3718,209720.0
77083,"15902 BARBAROSSA DR, HOUSTON, TX 77083",29.688118,-95.667066,1555,6054,174447,154883,163035,64,121380.0
77083,"16538 CAMINO DEL SOL DR, HOUSTON, TX 77083",29.692507,-95.67877,1992,6470,195691,177053,186372,5728,166290.0
77083,"8607 CAUSEWAY DR, HOUSTON, TX 77083",29.685228000000002,-95.617544,2090,8538,169657,137268,154234,1934,127730.0
77083,"15015 ROCK KNOLL DR, HOUSTON, TX 77083",29.681922999999998,-95.652204,2487,9212,236201,207504,220749,1989,211020.0
77083,"15602 WILDWOOD LAKE DR, HOUSTON, TX 77083",29.684788,-95.65950500000001,1560,,178321,153087,168227,4738,143670.0
77083,"9123 BENTHOS DR, HOUSTON, TX 77083",29.678417,-95.618539,1676,4918,128760,110540,121472,746,100558.0
77083,"9331 FLORAL CREST DR, HOUSTON, TX 77083",29.679099,-95.668963,3075,,235072,208460,221766,1929,209420.0
77083,"15427 WILDWOOD LAKE DR, HOUSTON, TX 77083",29.684088,-95.65793599999999,1561,5776,185434,167774,176604,2124,138640.0
77083,"8322 SONESTA POINT LN, HOUSTON, TX 77083",29.684596000000003,-95.681032,3038,3080,267175,241729,254452,1411,224050.0
77083,"8622 HUMPHREYS DR, HOUSTON, TX 77083",29.684151,-95.615825,1856,6720,160001,143239,152382,-1090,124869.0
77083,"8622 HEMLOCK HILL DR, HOUSTON, TX 77083",29.684941,-95.627318,1742,2801,159313,141446,148891,-412,132969.0
77083,"16722 COLD HARBOR LN, HOUSTON, TX 77083",29.678163,-95.678572,2094,7562,216821,196171,206496,5218,178990.0
77083,"16431 CANARIO DR, HOUSTON, TX 77083",29.690637,-95.677701,2362,6300,217464,196754,207109,7342,165900.0
77083,"13314 BASSFORD DR, HOUSTON, TX 77083",29.676803999999997,-95.61739399999999,1296,5288,102350,86754,97476,124,88010.0
77083,"7507 SORBETE DR, HOUSTON, TX 77083",29.6924,-95.683566,1148,9939,142789,120313,132212,4787,121430.0
77083,"17230 TRACE GLEN LN, HOUSTON, TX 77083",29.686949,-95.684522,2314,,220025,199071,209548,4163,185020.0
77083,"16707 PARLIAMENT DR, HOUSTON, TX 77083",29.684834000000002,-95.67719,2553,8587,207174,185470,197309,5446,210910.0
77083,"8218 BRENTFORD DR, HOUSTON, TX 77083",29.686127000000003,-95.67567700000001,1935,7587,193203,174803,184003,4171,165790.0
77083,"16115 APRIL RIDGE DR, HOUSTON, TX 77083",29.683458,-95.67071800000001,1648,7179,187097,169279,178188,4453,154580.0
77083,"8824 RIVERWELL CIR W, HOUSTON, TX 77083",29.683287,-95.628886,2812,6534,226656,199374,209867,2728,188750.0
77083,"8035 TAMAYO DR, HOUSTON, TX 77083",29.689791999999997,-95.66860799999999,1455,8162,172334,155922,164128,4557,131450.0
77083,"15942 BARBAROSSA DR, HOUSTON, TX 77083",29.688129999999997,-95.666318,1870,,183180,165734,174457,4699,133620.0
77083,"7723 LONDRES DR, HOUSTON, TX 77083",29.690672999999997,-95.67880799999999,1630,6353,176951,149987,168525,3708,139260.0
77083,"9234 FLORAL CREST DR, HOUSTON, TX 77083",29.680784999999997,-95.67128000000001,2442,,214286,193878,204082,5926,191510.0
77083,"8803 WOODLEIGH DR, HOUSTON, TX 77083",29.683028000000004,-95.645196,3232,,265128,239878,252503,3851,244500.0
77083,"15634 RIO DEL SOL DR, HOUSTON, TX 77083",29.692763,-95.662095,1876,,195702,177064,186383,9428,149190.0
77083,"8927 INGLEBROOK LN, HOUSTON, TX 77083",29.681863,-95.619682,2830,4748,270336,230286,250311,6367,245881.0
77083,"8646 CONNAUGHT GARDEN DR, HOUSTON, TX 77083",29.684172999999998,-95.616727,2088,7488,170874,150113,159695,3074,130138.0
77083,"17419 TRACE GLEN LN, HOUSTON, TX 77083",29.686609000000004,-95.684508,2436,,220792,199764,210278,3387,191440.0
77083,"15808 BARBAROSSA DR, HOUSTON, TX 77083",29.688090000000003,-95.668823,1350,,175483,155428,167127,5579,129890.0
77083,"15131 BEECHNUT ST, HOUSTON, TX 77083",29.6894,-95.652487,1705,,178145,161179,169662,6568,135510.0
77083,"8135 SOLARA BND, HOUSTON, TX 77083",29.685084000000003,-95.684754,2428,6324,228809,207017,217913,2959,201940.0
77083,"14214 ANDREA WAY LN, HOUSTON, TX 77083",29.678760999999998,-95.63838299999999,1794,,204336,182930,194606,6052,178460.0
77083,"15326 MISSION OAK DR, HOUSTON, TX 77083",29.677387,-95.659269,2740,,240907,200756,223062,1097,205140.0
77083,"8822 BEAWOOD DR, HOUSTON, TX 77083",29.681559000000004,-95.631939,3314,6456,288729,261231,274980,2856,253019.0
77083,"8414 GRAND KNOLLS DR, HOUSTON, TX 77083",29.681717,-95.660496,1376,,173945,148175,161060,-309,121620.0
77083,"13738 CANYON HOLLOW LOOP, HOUSTON, TX 77083",29.689764,-95.627052,1824,5000,182552,148430,170609,672,180931.0
77083,"8614 HUMPHREYS DR, HOUSTON, TX 77083",29.684054999999997,-95.615822,2032,5776,165169,134863,151531,-959,124229.0
77083,"15603 BARBAROSSA DR, HOUSTON, TX 77083",29.687903000000002,-95.661611,1691,,173897,152367,165616,4887,138980.0
77083,"8419 E SIENNA COVE LN, HOUSTON, TX 77083",29.687088,-95.686302,2982,,252385,228349,240367,432,220970.0
77083,"9202 HOMELAND DR, HOUSTON, TX 77083",29.679763,-95.624705,1578,5175,146124,130816,139166,563,127204.0
77083,"14731 EARLSWOOD DR, HOUSTON, TX 77083",29.683569,-95.64885699999999,2572,,223460,170067,197752,85,207100.0
77083,"13902 GREENSIDE DR, HOUSTON, TX 77083",29.683346999999998,-95.630931,3105,10637,292881,264987,278934,1692,247641.0
77083,"9223 EAGLEWOOD GLEN TRL, HOUSTON, TX 77083",29.680356,-95.67157900000001,1885,,201640,182436,192038,3273,168550.0
77083,"15255 ENSENADA DR, HOUSTON, TX 77083",29.689799,-95.655988,1924,7627,191593,173347,182470,9044,141480.0
77083,"14222 ANDREA WAY LN, HOUSTON, TX 77083",29.678973,-95.638186,1931,,202351,183079,192715,5727,171240.0
77083,"8635 POTTINGER DR, HOUSTON, TX 77083",29.683896,-95.619732,1919,12097,177262,155315,168821,4238,129215.0
77083,"15527 PRAIRIE OAKS DR, HOUSTON, TX 77083",29.683172999999996,-95.659662,1614,5828,188239,163377,177584,412,164760.0
77083,"14634 WYNBOURN WAY, HOUSTON, TX 77083",29.677162,-95.64707299999999,2886,9483,281777,252257,268359,2040,247890.0
77083,"14131 RENN RD, HOUSTON, TX 77083",29.683118,-95.63567900000001,1725,7971,166014,134983,155153,-4799,147710.0
77083,"9219 BOLLINGBROOK DR, HOUSTON, TX 77083",29.678471000000002,-95.615716,1300,5175,118998,87736,100846,2763,74034.0
77083,"13550 BONILLA LN, HOUSTON, TX 77083",29.692702,-95.621729,1634,6080,147917,124848,135704,-4398,147016.0
77083,"15818 MISSION ESTATES CT, HOUSTON, TX 77083",29.687256,-95.66407,2851,12138,243030,217570,231457,4595,177730.0
77083,"15651 RIO DEL SOL DR, HOUSTON, TX 77083",29.692495,-95.661731,1452,,163834,138868,156032,13875,125190.0
77083,"8823 HEATHERLY DR, HOUSTON, TX 77083",29.682775,-95.649281,3538,9774,295177,261443,281121,5875,274530.0
77083,"16111 EAGLEWOOD SPRING CT, HOUSTON, TX 77083",29.679634000000004,-95.667023,2442,,215950,195384,205667,2392,183820.0
77083,"9319 SPINDLEWOOD DR, HOUSTON, TX 77083",29.678276,-95.632515,1659,,172141,149189,163944,2867,123780.0
77083,"13430 KNIGHTSWAY DR, HOUSTON, TX 77083",29.676783,-95.620936,2248,5127,201092,181940,191516,-651,185747.0
77083,"15330 MONDRIAN DR, HOUSTON, TX 77083",29.691107000000002,-95.657078,1924,8400,194675,172427,185405,4943,145220.0
77083,"13410 AMBER LODGE LN, HOUSTON, TX 77083",29.687997999999997,-95.61584,1575,5175,154972,140212,147592,-4469,149676.0
77083,"15923 BEECHNUT ST, HOUSTON, TX 77083",29.688613,-95.666228,1772,,180778,163562,172170,4678,131560.0
77083,"7530 TIERRA VERDE DR, HOUSTON, TX 77083",29.691327,-95.681864,1148,5460,143885,127441,137033,-4710,116700.0
77083,"9626 LASBURY DR, HOUSTON, TX 77083",29.677058000000002,-95.664355,2439,4628,219820,198884,209352,3152,184930.0
77083,"8334 WOODLAND WILLOWS DR, HOUSTON, TX 77083",29.686172999999997,-95.656787,1483,5429,175295,150253,166948,1296,160260.0
77083,"15622 WILDWOOD LAKE DR, HOUSTON, TX 77083",29.684734999999996,-95.659313,1294,5902,160848,138086,151743,-3612,128870.0
77083,"8306 WOODLAND WILLOWS DR, HOUSTON, TX 77083",29.685122999999997,-95.65677099999999,1343,5429,173496,156972,165234,2430,148530.0
77083,"8604 PRIMA ST, HOUSTON, TX 77083",29.685243,-95.629514,1972,3659,184827,167225,176026,2673,142029.0
77083,"8651 CONNAUGHT GARDEN DR, HOUSTON, TX 77083",29.684447,-95.616783,2600,6299,212584,184507,200551,3414,151019.0
77083,"16306 DRYBERRY CT, HOUSTON, TX 77083",29.677789,-95.6693,2062,6050,211052,190952,201002,5383,178270.0
77083,"15531 RIO DEL SOL DR, HOUSTON, TX 77083",29.692543,-95.65793599999999,1452,,163708,137203,155912,14864,126770.0
77083,"8615 LONE MAPLE DR, HOUSTON, TX 77083",29.682776,-95.666524,1909,7938,195357,176751,186054,3068,158430.0
77083,"15510 TOWN GREEN DR, HOUSTON, TX 77083",29.683812,-95.658716,1368,5775,177376,160484,168930,3054,146640.0
77083,"8922 SHADY GREEN MDWS, HOUSTON, TX 77083",29.682529,-95.617506,3130,5300,242033,218983,230508,1890,209008.0
77083,"16107 FLATRIDGE CT, HOUSTON, TX 77083",29.680214000000003,-95.66766899999999,2353,,215044,194564,204804,4961,179270.0
77083,"9318 BERINGWOOD DR, HOUSTON, TX 77083",29.67918,-95.630212,1718,6251,144354,127856,137480,-5225,133546.0
77083,"8406 ANTIETAM LN, HOUSTON, TX 77083",29.683159000000003,-95.67622800000001,2001,5140,213332,193014,203173,9271,177230.0
77083,"7906 CORRALES DR, HOUSTON, TX 77083",29.691381,-95.665398,1740,6620,180537,163343,171940,4270,153110.0
77083,"8207 SOLARA BND, HOUSTON, TX 77083",29.685146999999997,-95.684649,2543,6324,226446,204880,215663,4735,193860.0
77083,"9323 STOCKWELL DR, HOUSTON, TX 77083",29.678739,-95.62365799999999,1347,5175,143998,127541,137141,-1668,127464.0
77083,"9226 WELLSWORTH DR, HOUSTON, TX 77083",29.679602000000003,-95.626586,1790,5175,151508,137078,144293,-3930,132751.0
77083,"15110 DELBARTON DR, HOUSTON, TX 77083",29.684811,-95.65251500000001,2586,,212163,175181,194645,4486,193230.0
77083,"13518 BONILLA LN, HOUSTON, TX 77083",29.692707000000002,-95.621214,1498,6599,141125,123653,134405,-3948,125882.0
77083,"8619 BOLINGTON DR, HOUSTON, TX 77083",29.685702000000003,-95.621712,1870,11200,186464,168706,177585,938,131537.0
77083,"8614 HEMLOCK HILL DR, HOUSTON, TX 77083",29.685683,-95.62735699999999,1737,2800,168830,145808,153482,1238,110000.0
77083,"16146 MISSION GLEN DR, HOUSTON, TX 77083",29.684795,-95.673443,1926,6751,198256,179374,188815,2884,166580.0
77083,"8126 SOLANA DR, HOUSTON, TX 77083",29.687445,-95.65464399999999,2072,,201820,182600,192210,5358,155420.0
77083,"9355 ROYAL WAY, HOUSTON, TX 77083",29.678579,-95.65503100000001,1765,,203390,184020,193705,6247,169690.0
77083,"15618 WILDWOOD LAKE DR, HOUSTON, TX 77083",29.684745,-95.659351,1560,6200,180395,163215,171805,3395,145270.0
77083,"9415 EAGLEWOOD SPRING DR, HOUSTON, TX 77083",29.680228999999997,-95.666935,2353,,214006,193624,203815,4302,178060.0
77083,"13318 BIRCH GROVE DR, HOUSTON, TX 77083",29.676033,-95.618436,1383,5175,125346,113408,119377,2114,98243.0
77083,"9507 SAVILLE CT, HOUSTON, TX 77083",29.675121,-95.636682,1886,,190582,161541,181507,7320,170880.0
77083,"8811 BOULDER SPRINGS DR, HOUSTON, TX 77083",29.68279,-95.636813,2166,7897,214184,175593,192959,1948,166259.0
77083,"16702 NEW MARKET LN, HOUSTON, TX 77083",29.677402,-95.678206,2922,6090,253683,229523,241603,-4870,213480.0
77083,"9223 HODGES BEND DR, HOUSTON, TX 77083",29.679109999999998,-95.67384200000001,2727,5553,236398,213884,225141,5724,193040.0
77083,"8410 SPOTSLYVANIA LN, HOUSTON, TX 77083",29.683124,-95.675338,2219,5880,219225,198347,208786,4975,187440.0
77083,"15238 DELBARTON DR, HOUSTON, TX 77083",29.685109000000004,-95.65496999999999,1520,,188035,170127,179081,4386,152690.0
77083,"15910 MISSION GLEN DR, HOUSTON, TX 77083",29.680773,-95.66415400000001,2324,6623,217217,196529,206873,4454,179420.0
77083,"9115 ROCKY VALLEY DR, HOUSTON, TX 77083",29.680944,-95.650272,2350,,217998,180683,196395,-345,216240.0
77083,"13435 CASTLE WAY DR, HOUSTON, TX 77083",29.677290000000003,-95.62087,2248,5130,201661,182455,192058,-466,190000.0
77083,"13302 ALBELIA MEADOWS DR, HOUSTON, TX 77083",29.690637,-95.616376,2201,3999,215006,183154,199080,-1419,167000.0
77083,"9906 KINGSVILLE PARK DR, HOUSTON, TX 77083",29.676409000000003,-95.621558,2600,4948,204474,185000,194737,-3809,200355.0
77083,"9403 RIVERSIDE LODGE DR, HOUSTON, TX 77083",29.6788,-95.625417,1471,4600,142527,128953,135740,2953,112632.0
77083,"16123 APRIL RIDGE DR, HOUSTON, TX 77083",29.68352,-95.670893,1841,6102,200268,181194,190731,4572,156480.0
77083,"16214 SOARING EAGLE DR, HOUSTON, TX 77083",29.677281,-95.664869,2439,6333,222181,201021,211601,3321,187570.0
77083,"8623 HEMLOCK HILL DR, HOUSTON, TX 77083",29.684694,-95.626882,1742,2801,159313,141446,148891,-412,132969.0
77083,"15638 SCENIC HAVEN DR, HOUSTON, TX 77083",29.687019,-95.661294,1192,5793,149101,133481,142001,-567,116240.0
77083,"8519 CHANCELLORSVILLE LN, HOUSTON, TX 77083",29.68177,-95.676733,2219,5775,223921,202595,213258,6355,189470.0
77083,"15215 MISSION OAK DR, HOUSTON, TX 77083",29.677536,-95.65731,1315,5594,179817,162691,171254,4463,135080.0
77083,"8426 SPOTSLYVANIA LN, HOUSTON, TX 77083",29.682969,-95.67533900000001,3384,5880,248863,225161,237012,-2283,234190.0
77083,"15526 LYNFORD CREST DR, HOUSTON, TX 77083",29.679407,-95.66065,1616,12053,190950,172764,181857,1792,156050.0
77083,"7911 MARISOL DR, HOUSTON, TX 77083",29.691137,-95.664201,2040,7341,197046,178280,187663,3900,147740.0
77083,"8602 BEECHCREST ST, HOUSTON, TX 77083",29.685725,-95.628117,1568,2801,146492,129908,138200,-962,118289.0
77083,"8807 BOULDER SPRINGS DR, HOUSTON, TX 77083",29.682759000000004,-95.63678399999999,2677,8311,233430,199165,214156,3739,188302.0
77083,"8807 RUSTLING LEAVES RD, HOUSTON, TX 77083",29.681408,-95.63072199999999,2884,6999,257194,227801,244947,2598,234870.0
77083,"7607 TIERRA VERDE DR, HOUSTON, TX 77083",29.692251000000002,-95.682315,1082,5501,138750,115838,127294,-4004,123350.0
77083,"14711 EARLSWOOD DR, HOUSTON, TX 77083",29.683565,-95.649271,2707,,262749,235223,250237,4337,226170.0
77083,"16103 DARWOOD CT, HOUSTON, TX 77083",29.680456,-95.66849,1885,6482,195564,176938,186251,1238,166910.0
77083,"9514 WELLSWORTH DR, HOUSTON, TX 77083",29.677049,-95.62658499999999,1035,5175,110578,82693,96155,1196,75340.0
77083,"8207 TAMAYO DR, HOUSTON, TX 77083",29.686947999999997,-95.66878,3119,,218091,176830,196478,-4672,224580.0
77083,"9303 EAGLEWOOD GLEN TRL, HOUSTON, TX 77083",29.679403000000004,-95.6705,2628,6466,220270,192999,209781,-312,198130.0
77083,"14217 LATERNA LN, HOUSTON, TX 77083",29.685447999999997,-95.636465,1088,1088,125748,79673,95991,3420,14551.0
77083,"9418 DANFORTH WAY, HOUSTON, TX 77083",29.678342999999998,-95.62931,1736,5998,143713,128799,135578,-5410,135007.0
77083,"16115 SOARING EAGLE DR, HOUSTON, TX 77083",29.679206,-95.66476899999999,2439,6250,219863,198923,209393,2306,181460.0
77083,"14334 WHITECROSS DR, HOUSTON, TX 77083",29.677272,-95.63536500000001,1604,9344,183536,166056,174796,1490,153360.0
77083,"16263 MISSION GLEN DR, HOUSTON, TX 77083",29.682953,-95.67157399999999,2390,10277,214969,186306,204732,1543,200640.0
77083,"13603 TONNOCHY DR, HOUSTON, TX 77083",29.684178999999997,-95.62006600000001,2398,11901,192958,174582,183770,1617,133763.0
77083,"8511 RALSTONS RIDGE DR, HOUSTON, TX 77083",29.686003000000003,-95.62008900000001,1881,6425,177384,148092,162738,383,173359.0
77083,"8118 SOLANA DR, HOUSTON, TX 77083",29.687459999999998,-95.654523,1705,,179149,162087,170618,5662,139140.0
77083,"15603 BEECHNUT ST, HOUSTON, TX 77083",29.688743,-95.660249,1691,,174909,154919,166580,6617,137980.0
77083,"8103 VISTA DEL SOL DR, HOUSTON, TX 77083",29.687762,-95.65253299999999,2123,,202243,182981,192612,5327,158540.0
77083,"8007 PETRA DR, HOUSTON, TX 77083",29.689870000000003,-95.66128,2686,12693,279220,249969,265924,5349,235360.0
77083,"14329 LATERNA LN, HOUSTON, TX 77083",29.685434000000004,-95.638575,980,980,129737,81086,101357,-12187,3871.0
77083,"8207 RUSTIC FALLS CT, HOUSTON, TX 77083",29.685935999999998,-95.658452,1705,9589,189726,169850,180691,5022,147270.0
77083,"14703 STANBRIDGE DR, HOUSTON, TX 77083",29.678711,-95.646192,2180,9200,212805,179615,195234,4375,205100.0
77083,"9023 CHESNEY DOWNS DR, HOUSTON, TX 77083",29.679524,-95.647274,2835,,256948,223328,240138,1108,199680.0
77083,"14819 CHARLMONT DR, HOUSTON, TX 77083",29.678973,-95.648184,2242,,210656,179448,195052,5892,198600.0
77083,"16319 APRIL FALLS TRL, HOUSTON, TX 77083",29.679847,-95.67378599999999,2034,,206160,186526,196343,6392,163020.0
77083,"9218 HOMELAND DR, HOUSTON, TX 77083",29.679807,-95.62424,1735,4826,152623,138087,145355,423,121497.0
77083,"7610 TIERRA VERDE DR, HOUSTON, TX 77083",29.692084,-95.682565,1076,5460,135227,115006,126380,-1244,111060.0
77083,"14511 ROYAL HILL DR, HOUSTON, TX 77083",29.676413,-95.63973,2218,6726,207689,187909,197799,7463,188970.0
77083,"15519 PRAIRIE OAKS DR, HOUSTON, TX 77083",29.683058000000003,-95.659623,2324,8958,213407,183767,197599,1292,204400.0
77083,"9214 BRISTLEBROOK DR, HOUSTON, TX 77083",29.679414,-95.631969,1744,5280,164405,145793,155099,-2065,141989.0
77083,"14206 ANDREA WAY LN, HOUSTON, TX 77083",29.678549,-95.63858,3290,,281018,251578,267636,-212,232140.0
77083,"8518 SPOTSLYVANIA LN, HOUSTON, TX 77083",29.682076000000002,-95.675344,2231,6286,219313,198427,208870,4431,190140.0
77083,"9403 CLIPPERWOOD PL, HOUSTON, TX 77083",29.679444,-95.62812,1392,4600,144935,129751,138033,-29,119997.0
77083,"13410 BAFING DR, HOUSTON, TX 77083",29.678366999999998,-95.61870400000001,1802,5519,175628,146889,159662,-4452,163986.0
77083,"9303 BARONSMEDE DR, HOUSTON, TX 77083",29.679333000000003,-95.616602,1133,5628,101678,86184,96836,3648,83025.0
77083,"13335 BOXWOOD TERRACE DR, HOUSTON, TX 77083",29.691043,-95.61713,2133,4034,199404,178514,189909,-477,182169.0
77083,"14126 BEECH MEADOW DR, HOUSTON, TX 77083",29.689172999999997,-95.636813,1950,3515,191134,172930,182032,1437,149198.0
77083,"15631 RIO DEL SOL DR, HOUSTON, TX 77083",29.692487,-95.66217900000001,1452,,163744,137233,155947,14047,125350.0
77083,"15911 HIGHLAND BROOK DR, HOUSTON, TX 77083",29.687052,-95.666329,1974,6930,201162,182004,191583,4487,171800.0
77083,"8838 CHELSWORTH DR, HOUSTON, TX 77083",29.681773,-95.650104,2100,,225600,184951,203243,3283,207970.0
77083,"13414 SANDERFORD LN, HOUSTON, TX 77083",29.685917,-95.61592399999999,1874,5227,179680,149453,167925,-2631,158123.0
77083,"13947 PLANTATION VALLEY DR, HOUSTON, TX 77083",29.677432,-95.631568,1659,5436,187335,167709,178414,3250,131180.0
77083,"14210 ALMOND BAY LN, HOUSTON, TX 77083",29.681171999999997,-95.636248,2064,,211928,181938,199932,2741,184210.0
77083,"15802 BEECHNUT ST, HOUSTON, TX 77083",29.689108,-95.66474000000001,1445,8184,176709,158196,168294,5858,129590.0
77083,"16314 PEBBLE CREST CT, HOUSTON, TX 77083",29.677446999999997,-95.672375,2143,,215268,194766,205017,3631,187970.0
77083,"8023 TAMAYO DR, HOUSTON, TX 77083",29.689165000000003,-95.668807,2040,7564,194293,175789,185041,7963,151380.0
77083,"9215 CHESNEY DOWNS DR, HOUSTON, TX 77083",29.681123,-95.645393,2158,,207788,182542,194194,3749,198230.0
77083,"7902 CORRALES DR, HOUSTON, TX 77083",29.691421000000002,-95.665398,2040,8279,197085,178315,187700,4561,147860.0
77083,"15531 SCENIC HAVEN DR, HOUSTON, TX 77083",29.685361,-95.659751,1094,5176,119706,100325,114006,-2547,99540.0
77083,"9426 WESTACRE PL, HOUSTON, TX 77083",29.678771,-95.633707,1659,,177263,160381,168822,4619,125360.0
77083,"9022 KNIGHTSLAND TRL, HOUSTON, TX 77083",29.682115000000003,-95.654866,1646,,193616,175176,184396,5582,160710.0
77083,"13506 OAK BEND FOREST DR, HOUSTON, TX 77083",29.674955999999998,-95.623496,3080,9100,259919,211786,240666,2783,188688.0
77083,"7622 ALEGRIA DR, HOUSTON, TX 77083",29.690601,-95.683384,1464,5750,179520,159003,170971,3580,136630.0
77083,"8606 PRIMA ST, HOUSTON, TX 77083",29.685235,-95.629517,1972,2945,181476,162464,172834,3747,138132.0
77083,"14347 WHITECROSS DR, HOUSTON, TX 77083",29.675079999999998,-95.637582,2218,7406,208155,184810,194537,4511,176000.0
77083,"14415 SWANFIELD DR, HOUSTON, TX 77083",29.674979999999998,-95.638837,1218,6670,162793,147289,155041,-1675,131450.0
77083,"8323 TAMAYO DR, HOUSTON, TX 77083",29.685806,-95.668951,1782,6729,193234,174830,184032,5898,162930.0
77083,"8402 HEMLOCK HILL DR, HOUSTON, TX 77083",29.690138,-95.626464,1776,7619,188930,150797,173330,582,175000.0
77083,"13811 ASHENTREE WAY, HOUSTON, TX 77083",29.676496999999998,-95.628215,1335,,144142,124923,137278,4444,86400.0
77083,"14306 ROYAL HILL DR, HOUSTON, TX 77083",29.679446000000002,-95.635389,1465,7015,183012,165582,174297,5788,163600.0
77083,"9307 BERINGWOOD DR, HOUSTON, TX 77083",29.679309999999997,-95.629898,1746,5624,145520,130419,137283,-5407,134697.0
77083,"14635 AUTO PARK WAY, HOUSTON, TX 77083",29.687907,-95.646462,1789,5203,166464,134971,149968,-1748,126000.0
77083,"16706 PARLIAMENT DR, HOUSTON, TX 77083",29.685108000000003,-95.677184,1657,7792,183550,166070,174810,3062,148520.0
77083,"8207 SQUIRES PLACE DR, HOUSTON, TX 77083",29.686656,-95.678136,2211,8905,206782,187088,196935,3827,179870.0
77083,"13434 CRICKLEWOOD CREEK LN, HOUSTON, TX 77083",29.686657,-95.616029,1505,5393,152524,135093,145261,-1332,141981.0
77083,"9411 SPINDLEWOOD DR, HOUSTON, TX 77083",29.679003,-95.632509,2247,6000,229216,180098,204657,3230,152380.0
77083,"7726 SORBETE DR, HOUSTON, TX 77083",29.6905,-95.68218,1316,6838,175505,148133,161014,-1625,142800.0
77083,"15830 BARBAROSSA DR, HOUSTON, TX 77083",29.688096,-95.668412,1870,,184969,167353,176161,5883,134230.0
77083,"16211 TURNSTONE CT, HOUSTON, TX 77083",29.677133,-95.665359,2439,7524,218676,197850,208263,1154,183830.0
77083,"9907 KNIGHTS CREST DR, HOUSTON, TX 77083",29.676610999999998,-95.619702,1744,5615,176759,150079,166754,-1605,162347.0
77083,"8327 GREEN CEDAR DR, HOUSTON, TX 77083",29.684618,-95.665101,2238,,214487,192017,204273,4179,196340.0
77083,"8234 MISSION ESTATES DR, HOUSTON, TX 77083",29.686097999999998,-95.663928,2851,10690,244083,202635,230267,1942,179550.0
77083,"15715 SCHUMANN LN, HOUSTON, TX 77083",29.687005,-95.662245,1835,,196716,177982,187349,4649,143260.0
77083,"14307 BEECH MEADOW DR, HOUSTON, TX 77083",29.688893,-95.63760500000001,1956,3598,188788,170808,179798,2153,148941.0
77083,"13310 RUSTIC GARDEN DR, HOUSTON, TX 77083",29.692017,-95.61567099999999,2604,4480,235239,212835,224037,-1114,200101.0
77083,"15843 WILLIWAW DR, HOUSTON, TX 77083",29.685446000000002,-95.664689,2716,6300,233644,202491,222518,2875,240460.0
77083,"16219 DRYBERRY CT, HOUSTON, TX 77083",29.678148999999998,-95.668373,2923,6434,237942,215280,226611,5679,196450.0
77083,"9214 WELLSWORTH DR, HOUSTON, TX 77083",29.679747999999996,-95.626354,1893,6000,172522,156092,164307,1040,139702.0
77083,"14727 KNIGHTSWAY DR, HOUSTON, TX 77083",29.68269,-95.646744,2277,,231719,191695,210654,4794,213220.0
77083,"16326 SPLIT WILLOW DR, HOUSTON, TX 77083",29.678843,-95.672684,2353,,216630,195998,206314,4747,178290.0
77083,"14746 RAVENSCROFT WAY, HOUSTON, TX 77083",29.677767,-95.649226,2913,8500,278725,244216,265452,3033,242130.0
77083,"15514 BEECHNUT ST, HOUSTON, TX 77083",29.689148,-95.660227,2375,,206329,177672,191045,5327,198420.0
77083,"15927 CERCA BLANCA DR, HOUSTON, TX 77083",29.689546999999997,-95.667466,2040,6900,195350,176746,186048,4310,146710.0
77083,"7410 LA GRANADA DR, HOUSTON, TX 77083",29.692667,-95.66262900000001,1479,,169654,150265,161575,9569,125190.0
77083,"15111 GAINES MEADOW CT, HOUSTON, TX 77083",29.687023999999997,-95.651044,1381,5355,180868,163642,172255,4340,149760.0
77083,"9631 LASBURY DR, HOUSTON, TX 77083",29.677333,-95.664305,2151,7200,215781,195231,205506,4664,171410.0
77083,"15122 GAINES MEADOW CT, HOUSTON, TX 77083",29.687299,-95.65115,1808,5919,196447,177737,187092,4288,169480.0
77083,"9306 RIVERSIDE LODGE DR, HOUSTON, TX 77083",29.677896999999998,-95.625713,1793,5175,149284,135066,142175,-5784,134169.0
77083,"7811 SAN LUCAS DR, HOUSTON, TX 77083",29.69159,-95.677971,2362,6825,208682,184833,198745,8581,167120.0
77083,"14835 CHARLMONT DR, HOUSTON, TX 77083",29.679178000000004,-95.648196,2291,,237135,210289,223712,5545,219740.0
77083,"8235 SOLARA BND, HOUSTON, TX 77083",29.684671,-95.68250400000001,2428,,228000,206286,217143,3724,205310.0
77083,"8839 INGLEBROOK LN, HOUSTON, TX 77083",29.683197999999997,-95.619676,1702,5001,184630,148730,170954,72,177845.0
77083,"8511 BELLAMY LN, HOUSTON, TX 77083",29.686777000000003,-95.615156,2410,5308,200550,177630,191000,270,185821.0
77083,"8827 RIVERWELL CIR E, HOUSTON, TX 77083",29.68167,-95.628003,2812,7139,229187,199199,214193,6226,193353.0
77083,"8210 CHERRYSHIRE CT, HOUSTON, TX 77083",29.686503000000002,-95.668286,1774,6643,193887,175421,184654,7487,163350.0
77083,"16407 SALIDA DE SOL DR, HOUSTON, TX 77083",29.691543,-95.677752,1630,,180641,163437,172039,6261,139850.0
77083,"14203 ANDREA WAY LN, HOUSTON, TX 77083",29.678254,-95.638488,3459,,294191,266173,280182,2216,253170.0
77083,"7926 GOLONDRINA DR, HOUSTON, TX 77083",29.690410999999997,-95.670875,1455,6480,178685,161667,170176,5088,136090.0
77083,"17502 N SIENNA COVE LN, HOUSTON, TX 77083",29.687267,-95.68682,2428,,228357,206609,217483,5098,206150.0
77083,"8406 W SIENNA COVE LN, HOUSTON, TX 77083",29.686559000000003,-95.687309,3604,,285916,258686,272301,481,247980.0
77083,"8604 MAPLETWIST ST, HOUSTON, TX 77083",29.685634999999998,-95.630228,1566,3533,149580,135334,142457,-1615,123607.0
77083,"15226 LYNFORD CREST DR, HOUSTON, TX 77083",29.679476,-95.657084,2451,5320,224164,202816,213490,3337,195050.0
77083,"9215 PINDERFIELD CT, HOUSTON, TX 77083",29.677468,-95.65879699999999,2313,5256,223359,202087,212723,4916,184730.0
77083,"14318 BERRINGTON DR, HOUSTON, TX 77083",29.684137,-95.63853,3280,7131,250356,224376,236185,864,206242.0
77083,"9003 WOODLEIGH DR, HOUSTON, TX 77083",29.680596,-95.645149,2544,,208696,157471,189724,643,203070.0
77083,"13218 VINEYARD FALLS DR, HOUSTON, TX 77083",29.689867,-95.617274,2028,4600,208665,185263,195014,3138,173796.0
77083,"15326 BARBAROSSA DR, HOUSTON, TX 77083",29.688267,-95.656238,1697,,179818,162692,171255,6396,145080.0
77083,"7511 ALEGRIA DR, HOUSTON, TX 77083",29.692189000000003,-95.68486800000001,1148,5661,148852,131841,141764,-2315,119570.0
77083,"15806 MISSION GATE CT, HOUSTON, TX 77083",29.685498,-95.663092,3489,,249125,220923,235024,7253,195240.0
77083,"14346 WHITECROSS DR, HOUSTON, TX 77083",29.675079999999998,-95.63789799999999,1465,6710,180605,163405,172005,4471,147800.0
77083,"8526 ASHLAWN DR, HOUSTON, TX 77083",29.683891,-95.664124,1050,,139048,119184,132427,3656,109000.0
77083,"13526 ELDRIDGE TRACE DR, HOUSTON, TX 77083",29.690673999999998,-95.620132,3184,4791,280505,246425,262154,12374,227151.0
77083,"15323 ENSENADA DR, HOUSTON, TX 77083",29.690095,-95.654504,1924,10590,198268,179386,188827,6191,144930.0
77083,"17005 PASTORIA DR, HOUSTON, TX 77083",29.692445000000003,-95.684629,1130,8925,129903,105546,115985,-5446,73240.0
77083,"9415 WESTACRE PL, HOUSTON, TX 77083",29.678659999999997,-95.63338900000001,1663,5540,177269,160387,168828,4174,130780.0
77083,"16026 BARBAROSSA DR, HOUSTON, TX 77083",29.688155,-95.664748,1555,,171051,150269,159861,5907,121430.0
77083,"14227 BEECH MEADOW DR, HOUSTON, TX 77083",29.688919,-95.635122,1950,3620,191482,173246,182364,792,149255.0
77083,"8419 CHANCELLORSVILLE LN, HOUSTON, TX 77083",29.683027000000003,-95.67675799999999,1962,5776,207254,187516,197385,4526,177420.0
77083,"9206 KEEGANS WOOD DR, HOUSTON, TX 77083",29.677740999999997,-95.627498,1584,6142,149350,133704,142238,22,125692.0
77083,"9222 LYNCHESTER DR, HOUSTON, TX 77083",29.678990000000002,-95.63111500000001,1619,4853,149343,130853,142231,-866,124261.0
77083,"16106 TALONCREST DR, HOUSTON, TX 77083",29.67963,-95.666427,1885,,198211,179333,188772,1396,169510.0
77083,"8905 RIVERWELL CIR W, HOUSTON, TX 77083",29.682418,-95.628896,3435,7104,256430,229819,241915,-422,227261.0
77083,"15903 WILLIWAW DR, HOUSTON, TX 77083",29.685257,-95.665611,2506,6107,222597,199277,211997,4787,195000.0
77083,"15303 MONDRIAN DR, HOUSTON, TX 77083",29.691509000000003,-95.65750899999999,1924,10430,201913,180760,192298,5228,147330.0
77083,"16039 SOMA DR, HOUSTON, TX 77083",29.690478000000002,-95.668109,1916,7869,192752,174394,183573,10758,157250.0
77083,"16646 CHINN RIDGE LN, HOUSTON, TX 77083",29.683387,-95.677028,1820,5775,198954,180006,189480,3375,170050.0
77083,"8227 WOODLAND WILLOWS DR, HOUSTON, TX 77083",29.686531,-95.656483,1284,5250,156894,134481,149423,2345,115730.0
77083,"8523 WOODLAND WILLOWS DR, HOUSTON, TX 77083",29.6833,-95.65642199999999,1294,5880,160594,137869,151504,11420,129260.0
77083,"14431 PARKESGATE DR, HOUSTON, TX 77083",29.681881,-95.640875,2686,7281,243722,213831,229926,3105,204580.0
77083,"14211 SWANFIELD DR, HOUSTON, TX 77083",29.674963,-95.636649,1886,6900,184502,166930,175716,4520,152450.0
77083,"15215 KINGSBRIDGE WAY, HOUSTON, TX 77083",29.685575,-95.655498,1646,5610,186326,168580,177453,2000,162600.0
77083,"7719 ALEGRIA DR, HOUSTON, TX 77083",29.690307,-95.682694,1616,5775,180196,163034,171615,3292,130670.0
77083,"9203 CRIBBAGE CT, HOUSTON, TX 77083",29.677612,-95.65791800000001,2622,8624,238461,215751,227106,4077,207290.0
77083,"8515 GRAND KNOLLS DR, HOUSTON, TX 77083",29.683311,-95.660232,1180,,149386,135158,142272,2993,118950.0
77083,"15923 WILLIWAW DR, HOUSTON, TX 77083",29.684962,-95.66651,2605,7214,221560,196239,211010,2998,182780.0
77083,"14326 MOORFIELD DR, HOUSTON, TX 77083",29.677408000000003,-95.637275,1465,7091,182170,164820,173495,7424,147710.0
77083,"13238 RUSTIC GARDEN DR, HOUSTON, TX 77083",29.692010999999997,-95.61679699999999,1999,4478,193788,175332,184560,170,173280.0
77083,"9407 KEEGANS WOOD DR, HOUSTON, TX 77083",29.680458,-95.6272,1669,5998,149101,133481,142001,-1801,126863.0
77083,"9535 FLYING EAGLE CT, HOUSTON, TX 77083",29.677512,-95.667188,2022,6534,204927,185411,195169,5449,178390.0
77083,"8119 HALLDALE DR, HOUSTON, TX 77083",29.690471000000002,-95.649958,2600,9148,230377,208437,219407,-5118,210883.0
77083,"13319 RUSTIC GARDEN DR, HOUSTON, TX 77083",29.691743,-95.615546,1488,4038,153934,136342,146604,-2991,149015.0
77083,"8215 TAMAYO DR, HOUSTON, TX 77083",29.687333000000002,-95.66879499999999,3119,,233920,211642,222781,2042,213660.0
77083,"13634 HEMWICK COVE DR, HOUSTON, TX 77083",29.68713,-95.621829,2047,6978,190846,172670,181758,5531,162000.0
77083,"13530 BEECH RIDGE LN, HOUSTON, TX 77083",29.691438,-95.620304,2012,6050,187129,157398,174887,3597,185274.0
77083,"9523 KEEGANS WOOD DR, HOUSTON, TX 77083",29.676522,-95.62718100000001,1512,,149181,130885,140737,-2207,88900.0
77083,"8218 CHERRYSHIRE CT, HOUSTON, TX 77083",29.686566999999997,-95.668284,2100,6812,204965,185445,195205,4854,172650.0
77083,"8426 DOVECOTT LN, HOUSTON, TX 77083",29.687701,-95.618528,2532,10929,232360,208248,219208,2979,195538.0
77083,"17306 PASTORIA DR, HOUSTON, TX 77083",29.689265000000002,-95.686549,1620,5775,184598,160217,174149,1652,147740.0
77083,"8615 BARRON WOOD CIR, HOUSTON, TX 77083",29.683066999999998,-95.63287,2676,7096,231912,196071,210829,6061,200818.0
77083,"8423 SPOTSLYVANIA LN, HOUSTON, TX 77083",29.683006,-95.675023,2001,5775,208878,188984,198931,6218,181760.0
77083,"8231 CHELSEA BEND CT, HOUSTON, TX 77083",29.685744,-95.679651,1899,6698,196161,177479,186820,3161,151930.0
77083,"7631 ALEGRIA DR, HOUSTON, TX 77083",29.690704999999998,-95.683077,1148,5250,148496,132939,141425,-2183,119570.0
77083,"8222 CHELSEA BEND CT, HOUSTON, TX 77083",29.685736,-95.679978,1929,8503,198376,179484,188930,2968,167010.0
77083,"15619 BARBAROSSA DR, HOUSTON, TX 77083",29.687903000000002,-95.661357,1691,,173518,152035,165255,4819,139520.0
77083,"8511 HARFORD MILLS DR, HOUSTON, TX 77083",29.68733,-95.62547099999999,2716,9335,237673,208525,224220,2649,194758.0
77083,"15319 PRAIRIE OAKS DR, HOUSTON, TX 77083",29.682617999999998,-95.656796,1433,5860,178400,161410,169905,4485,152580.0
77083,"14306 LATERNA LN, HOUSTON, TX 77083",29.685710999999998,-95.638163,1216,,125718,81863,97456,-7940,21331.0
77083,"15715 MONTESA DR, HOUSTON, TX 77083",29.689644,-95.662203,1887,,194405,175891,185148,5999,170980.0
77083,"9503 SWANFIELD CT, HOUSTON, TX 77083",29.67558,-95.640619,1886,12934,199661,180645,190153,6871,172620.0
77083,"8422 W SIENNA COVE LN, HOUSTON, TX 77083",29.686692999999998,-95.687338,3544,13155,297194,256667,270176,-6270,249560.0
77083,"17011 COSTERO DR, HOUSTON, TX 77083",29.689535,-95.680614,1316,5776,171660,147818,158944,-3938,137240.0
77083,"9407 RIVERSIDE LODGE DR, HOUSTON, TX 77083",29.678834000000002,-95.62541800000001,1296,4600,131161,113673,124915,957,107549.0
77083,"9110 ROCKY VALLEY DR, HOUSTON, TX 77083",29.680716999999998,-95.650456,1997,,200861,181731,191296,5334,192590.0
77083,"8315 IVY POINT DR, HOUSTON, TX 77083",29.684869,-95.668352,2004,7118,202687,183383,193035,4865,177820.0
77083,"14238 BEECH GLEN DR, HOUSTON, TX 77083",29.689785999999998,-95.636516,2060,3929,192126,173828,182977,758,155882.0
77083,"9319 EAGLEWOOD GLEN TRL, HOUSTON, TX 77083",29.678942,-95.669997,2628,,220442,199448,209945,-1218,196630.0
77083,"13422 BAFING DR, HOUSTON, TX 77083",29.678337,-95.621027,2214,5520,201074,181924,191499,-602,185617.0
77083,"14109 LATERNA LN, HOUSTON, TX 77083",29.685462,-95.63443000000001,980,924,131621,79770,99713,6151,4963.0
77083,"14227 ALMOND BAY LN, HOUSTON, TX 77083",29.680539000000003,-95.637398,3641,,298858,270396,284627,5432,262340.0
77083,"13706 MIDLAND FIELDS DR, HOUSTON, TX 77083",29.687875,-95.623933,1867,7884,166925,139359,153142,-4249,169414.0
77083,"13226 BOXWOOD TERRACE DR, HOUSTON, TX 77083",29.691325,-95.615674,1760,4038,156017,139673,148588,-7528,160660.0
77083,"14222 MOORFIELD DR, HOUSTON, TX 77083",29.678634000000002,-95.635192,1369,,165084,146396,155740,-706,138770.0
77083,"14227 LATERNA LN, HOUSTON, TX 77083",29.685446999999996,-95.63665300000001,1216,,123963,79759,96095,-9147,15699.0
