zip,address,lat,lng,house area,lot area,high,low,estimate,month value change,property tax
77339,"3207 PARKDALE DR, HUMBLE, TX 77339",30.052296999999996,-95.20686500000001,3374,12100,314895,284905,299900,-3123,292147.0
77339,"3510 VALLEY HAVEN DR, HUMBLE, TX 77339",30.057871000000002,-95.206275,3113,11317,313327,283487,298407,-4211,260199.0
77339,"1027 BURNING TREE RD, HUMBLE, TX 77339",30.030510999999997,-95.244821,1574,12602,173857,146235,162483,1564,115000.0
77339,"1214 BELGRAVIA WAY, KINGWOOD, TX 77339",30.034347999999998,-95.208611,2753,10707,402564,364224,383394,-19391,422712.0
77339,"2127 WHISPERING TRAILS CIR, HUMBLE, TX 77339",30.056005,-95.217046,2260,21959,235599,200037,222263,3611,159914.0
77339,"1210 ASHFORD WAY, HUMBLE, TX 77339",30.034834000000004,-95.211238,1938,5750,288967,201245,258006,2730,244000.0
77339,"21343 BISHOPS MILL CT, KINGWOOD, TX 77339",30.048790000000004,-95.21933,2674,4181,269267,229742,247034,-1147,233000.0
77339,"2119 WHISPERING TRAILS CIR, HUMBLE, TX 77339",30.055978000000003,-95.21708100000001,2262,14641,224595,203205,213900,5743,165992.0
77339,"1507 SOUTHERN PINES CT, HUMBLE, TX 77339",30.037865999999998,-95.222838,2650,14471,279577,252951,266264,-587,253120.0
77339,"2006 PLAYERS PATH, HUMBLE, TX 77339",30.044971000000004,-95.244747,1982,19201,254546,225455,242425,-403,208955.0
77339,"11 CLUB OAK CT, HUMBLE, TX 77339",30.034303,-95.18218399999999,3984,13286,525028,475026,500027,7734,384352.0
77339,"2703 ROCKY WOODS DR, HUMBLE, TX 77339",30.050318,-95.197152,4526,40188,568150,509191,535991,-15466,470000.0
77339,"2306 SILVER FALLS DR, HUMBLE, TX 77339",30.0618,-95.21078399999999,2842,10223,285858,258634,272246,-5169,239480.0
77339,"21106 BASTIDE LN, KINGWOOD, TX 77339",30.048790000000004,-95.21933,2000,5250,229323,205525,216342,-3420,211980.0
77339,"2903 KINGS FOREST DR, HUMBLE, TX 77339",30.047613000000002,-95.20474300000001,3167,21780,461050,376120,404430,14956,248343.0
77339,"1387 KINGWOOD DR, HUMBLE, TX 77339",30.050067,-95.235781,2458,10799,256450,232026,244238,-3705,221857.0
77339,"21331 TREBUCHET DR, KINGWOOD, TX 77339",30.048790000000004,-95.21933,1775,5979,226705,199416,209912,-3181,180910.0
77339,"2218 VILLA CREEK DR, HUMBLE, TX 77339",30.055175,-95.21594300000001,2716,17664,273418,221220,248562,3006,180089.0
77339,"2719 WILDRIDGE DR, HUMBLE, TX 77339",30.053265999999997,-95.223069,2071,8624,223121,201871,212496,-108,179972.0
77339,"3319 REDWOOD LODGE DR, HUMBLE, TX 77339",30.053046999999996,-95.203164,2724,10406,260438,230954,245696,1079,175000.0
77339,"3318 REDWOOD LODGE DR, HUMBLE, TX 77339",30.052773,-95.203176,2471,11303,261922,236978,249450,-1967,245643.0
77339,"2815 TRAIL LODGE DR, HUMBLE, TX 77339",30.052902000000003,-95.200132,2715,25561,367029,316053,339842,5623,285000.0
77339,"2202 NORTHSHORE DR, HUMBLE, TX 77339",30.026415000000004,-95.224299,1864,15461,169177,112784,137542,1892,35514.0
77339,"3907 OAK GARDENS DR, HUMBLE, TX 77339",30.063174,-95.202694,2372,8760,228772,206984,217878,-6154,196770.0
77339,"3442 TREE LN, HUMBLE, TX 77339",30.056759999999997,-95.19757,2719,10799,278839,252283,265561,-4281,233253.0
77339,"3758 CLEAR FALLS DR, HUMBLE, TX 77339",30.063206,-95.195391,1780,7688,193189,174791,183990,-1073,177065.0
77339,"22104 KNIGHTS COVE DR, HUMBLE, TX 77339",30.061062,-95.22924300000001,2034,5850,215906,193287,205625,-15,182720.0
77339,"21700 WALESTON CT, HUMBLE, TX 77339",30.053472999999997,-95.238864,3489,11596,310762,256593,285103,-3572,252220.0
77339,"3315 REDWOOD LODGE DR, HUMBLE, TX 77339",30.053061,-95.203456,2435,10768,254714,230456,242585,-2524,233891.0
77339,"3547 MAPLE PARK DR, HUMBLE, TX 77339",30.056124,-95.191795,2535,11918,274357,245886,258827,-6652,202509.0
77339,"2010 RIVERLAWN DR, HUMBLE, TX 77339",30.053146,-95.220205,2674,7840,188479,170529,179504,-319,175000.0
77339,"1723 SANDY TRAIL CT, HUMBLE, TX 77339",30.048229,-95.229439,2586,6765,240820,217884,229352,1853,225543.0
77339,"3323 LAUREL CREST DR, HUMBLE, TX 77339",30.060627,-95.22421899999999,2311,9840,242207,219139,230673,2973,193968.0
77339,"1506 CHESTNUT RIDGE RD, HUMBLE, TX 77339",30.038338,-95.242232,2062,16270,254519,218502,240112,3828,225385.0
77339,"21447 PALACE PINES DR, HUMBLE, TX 77339",30.054878000000002,-95.242411,2200,13576,231663,201633,214503,-4262,196160.0
77339,"1719 SANDY TRAIL CT, HUMBLE, TX 77339",30.048229,-95.229376,1943,6765,213717,193363,203540,760,190021.0
77339,"3110 REDWOOD LODGE DR, HUMBLE, TX 77339",30.053615,-95.20885200000001,3000,10533,283306,256324,269815,-3012,243653.0
77339,"2235 KINGS TRL, HUMBLE, TX 77339",30.040609000000003,-95.178501,4238,13000,500620,452942,476781,7901,372138.0
77339,"2219 LAKEVILLE DR, HUMBLE, TX 77339",30.051496999999998,-95.217329,2025,8925,212691,192435,202563,-846,189973.0
77339,"3619 VALLEY HAVEN DR, HUMBLE, TX 77339",30.059379999999997,-95.205539,2464,12114,271670,245796,258733,-1725,228983.0
77339,"3010 CEDAR KNOLLS DR, HUMBLE, TX 77339",30.054190999999996,-95.209972,2546,10614,249123,225397,237260,-1159,213017.0
77339,"21326 BISHOPS MILL CT, KINGWOOD, TX 77339",30.048790000000004,-95.21933,2961,6055,296630,246309,264848,-2378,256790.0
77339,"2210 LAKE GARDENS DR, HUMBLE, TX 77339",30.045364000000003,-95.216596,4920,38982,730350,577641,663955,8493,540139.0
77339,"4027 VALLEY HAVEN DR, HUMBLE, TX 77339",30.063865000000003,-95.200693,2746,16750,300266,271670,285968,387,228015.0
77339,"2011 GROVE LAKE DR, HUMBLE, TX 77339",30.040618,-95.223837,2619,10079,258002,233430,245716,-4550,243651.0
77339,"2010 PLAYERS PATH, HUMBLE, TX 77339",30.04525,-95.24475,2346,20708,278821,244626,263039,2776,260000.0
77339,"2131 BLOSSOM CREEK TRL, HUMBLE, TX 77339",30.0464,-95.230478,1998,6600,213832,193468,203650,1492,192136.0
77339,"21824 WHISPERING FOREST DR, HUMBLE, TX 77339",30.055604,-95.23691600000001,2721,5596,238774,216034,227404,-212,193000.0
77339,"2115 FAIRWAY GREEN DR, HUMBLE, TX 77339",30.038604,-95.177688,4151,11421,538594,487300,512947,3333,475810.0
77339,"4210 HIDDEN LINKS CT, HUMBLE, TX 77339",30.038984000000003,-95.178719,2877,8489,409094,362782,385938,18876,347014.0
77339,"3303 LAUREL CREST DR, HUMBLE, TX 77339",30.061315999999998,-95.22320400000001,2365,10250,237924,215264,226594,1657,196731.0
77339,"2311 KINGS FOREST DR, HUMBLE, TX 77339",30.050146999999996,-95.21446999999999,3901,37801,488473,441951,465212,-2046,378316.0
77339,"2346 SUMMIT WAY CT, HUMBLE, TX 77339",30.048557000000002,-95.231207,1578,2692,170687,151545,159521,-309,150634.0
77339,"15 GREENS EDGE DR, HUMBLE, TX 77339",30.032587,-95.17738100000001,3084,8303,367071,328616,349591,1472,350000.0
77339,"21467 PALACE PINES DR, HUMBLE, TX 77339",30.054883,-95.24217900000001,1742,6578,196619,172506,185490,9341,152470.0
77339,"21354 KINGS MILL LN, KINGWOOD, TX 77339",30.063492999999998,-95.236939,3408,7340,409119,291237,346711,5836,133470.0
77339,"21554 DUKE ALEXANDER DR, HUMBLE, TX 77339",30.063777,-95.2308,2093,5250,219325,198437,208881,1188,189000.0
77339,"22016 KNIGHTS COVE DR, HUMBLE, TX 77339",30.061093,-95.232528,1797,5850,192445,172284,183281,4787,155430.0
77339,"1501 SYCAMORE LN, HUMBLE, TX 77339",30.033487,-95.233992,2368,58191,369707,314935,342321,-3178,265363.0
77339,"2122 RIVER FALLS DR, HUMBLE, TX 77339",30.048478000000003,-95.21926500000001,2619,10201,255336,231018,243177,-1206,241422.0
77339,"2703 MAPLE GLADE DR, HUMBLE, TX 77339",30.052294,-95.21987299999999,2222,8004,224715,203313,214014,858,187414.0
77339,"26888 HAILEY'S MNR, KINGWOOD, TX 77339",30.060028000000003,-95.237328,1592,3361,269158,178738,210280,2860,139380.0
77339,"1111 FOREST COVE DR, HUMBLE, TX 77339",30.032023,-95.239091,2243,43495,306469,265606,291875,2629,249953.0
77339,"3311 LAUREL CREST DR, HUMBLE, TX 77339",30.061139,-95.22368900000001,2594,9840,243331,220157,231744,893,197000.0
77339,"2039 RIVERLAWN DR, HUMBLE, TX 77339",30.053263,-95.221393,2536,8442,237029,214455,225742,794,210306.0
77339,"3502 EVERGREEN GLADE DR, HUMBLE, TX 77339",30.062141999999998,-95.22478000000001,2656,9100,245037,221701,233369,713,217111.0
77339,"26845 ARMOR OAKS DR, HUMBLE, TX 77339",30.060846999999995,-95.22811999999999,2128,7209,214948,194476,204712,179,172306.0
77339,"1902 SHADOW ROCK DR, HUMBLE, TX 77339",30.058001,-95.22520899999999,1844,8049,197610,178790,188200,1411,163331.0
77339,"3910 VALLEY HAVEN DR, HUMBLE, TX 77339",30.062642999999998,-95.201552,2722,9348,256507,232077,244292,-1148,224657.0
77339,"2303 RIVERLAWN DR, HUMBLE, TX 77339",30.052017,-95.214425,2476,10803,244471,221189,232830,870,198844.0
77339,"2002 NORTHSHORE DR, HUMBLE, TX 77339",30.025990999999998,-95.226778,1041,6499,127601,82686,102081,6296,10480.0
77339,"3435 CAVE SPRINGS DR, HUMBLE, TX 77339",30.062262,-95.223548,2434,9374,234177,211875,223026,820,210426.0
77339,"1934 HIDDEN CREEK DR, HUMBLE, TX 77339",30.050365000000003,-95.225016,3350,11687,292797,264911,278854,-4899,259544.0
77339,"3434 WILLOW RIDGE DR, HUMBLE, TX 77339",30.057838,-95.199566,2727,10197,285220,258056,271638,-2692,258034.0
77339,"2147 LONE ROCK DR, HUMBLE, TX 77339",30.063042,-95.21598900000001,2478,9240,241509,218509,230009,-1178,204759.0
77339,"3203 EVERGREEN GLADE DR, HUMBLE, TX 77339",30.059178999999997,-95.226298,2004,8581,200627,181519,191073,-1396,163590.0
77339,"3831 VILLAGE OAKS DR, HUMBLE, TX 77339",30.063106,-95.204527,2067,9357,219567,198655,209111,-5372,198056.0
77339,"3803 W LAKE HOUSTON PKWY, HUMBLE, TX 77339",30.061503000000002,-95.18780100000001,2626,12480,260063,235295,247679,-2094,213000.0
77339,"2702 KINGS FOREST DR, HUMBLE, TX 77339",30.048838,-95.208435,4084,38190,528864,478496,503680,7818,429804.0
77339,"2122 PARKDALE DR, HUMBLE, TX 77339",30.054258,-95.219101,2643,10319,243728,220516,232122,2015,210363.0
77339,"1112 CHESTNUT RIDGE RD, HUMBLE, TX 77339",30.032190000000003,-95.241969,3236,11680,341531,282540,310483,1523,163000.0
77339,"1719 CHIMNEY VINE LN, HUMBLE, TX 77339",30.04073,-95.235501,2362,14902,252027,216363,237761,9511,205898.0
77339,"1319 CHESTNUT RIDGE RD, HUMBLE, TX 77339",30.035541,-95.242864,1913,14449,217240,196550,206895,-1164,155700.0
77339,"910 MASTERS WAY, HUMBLE, TX 77339",30.044445,-95.242954,2293,20800,292884,264990,278937,793,218538.0
77339,"23 GOLF LINKS CT, HUMBLE, TX 77339",30.033723,-95.179813,3782,15769,522925,450963,479748,706,353440.0
77339,"3206 PARK GARDEN DR, HUMBLE, TX 77339",30.060888000000002,-95.193037,1650,7501,178984,161938,170461,-1567,147122.0
77339,"1615 TRAIL FOREST CT, HUMBLE, TX 77339",30.039772999999997,-95.248368,2338,4996,203556,184170,193863,-808,174844.0
77339,"1914 LAUREL HILL DR, HUMBLE, TX 77339",30.04873,-95.22564399999999,2985,10115,306089,268550,288763,263,273134.0
77339,"1614 CHESTNUT RIDGE RD, HUMBLE, TX 77339",30.039841,-95.242345,3040,12388,289397,259079,275616,-4089,232296.0
77339,"3810 VALLEY HAVEN DR, HUMBLE, TX 77339",30.063375,-95.20085,2663,18406,282238,255358,268798,3867,222251.0
77339,"3415 OAK LAKE DR, HUMBLE, TX 77339",30.056663,-95.20609,2992,12097,297280,268968,283124,-1472,237548.0
77339,"1601 CYPRESS LN, HUMBLE, TX 77339",30.032082,-95.231902,2740,44388,358760,302807,329138,-8538,307636.0
77339,"1719 RED OAK TER, HUMBLE, TX 77339",30.047936,-95.233673,2056,6765,216925,196265,206595,888,192000.0
77339,"907 GOLDEN BEAR LN, HUMBLE, TX 77339",30.043678999999997,-95.24300600000001,1800,20800,209066,181712,195389,-595,170413.0
77339,"3738 PALMETTO CREEK DR, HUMBLE, TX 77339",30.053628000000003,-95.192702,3394,11400,324710,291014,306330,-575,295392.0
77339,"2018 WOODLAND VALLEY DR, HUMBLE, TX 77339",30.035684999999997,-95.223034,3187,11809,306967,277733,292350,-4209,282697.0
77339,"21853 MAIDENS CROSSING DR, HUMBLE, TX 77339",30.057496,-95.23556500000001,2542,7957,220737,199715,210226,-1756,195690.0
77339,"2018 LAKEVILLE DR, HUMBLE, TX 77339",30.052433,-95.22313,1986,8590,206010,184428,196200,-3807,177516.0
77339,"2010 LAUREL HILL DR, HUMBLE, TX 77339",30.048519,-95.222864,2461,10798,255431,231105,243268,-1435,230541.0
77339,"3615 HIGHLAND LAKES DR, HUMBLE, TX 77339",30.0547,-95.194917,2817,10080,299942,271376,285659,-676,226584.0
77339,"3310 VILLAGE FALLS CT, HUMBLE, TX 77339",30.055313,-95.205404,2440,6874,238932,216176,227554,193,219494.0
77339,"422 LAUREL SAGE DR, KINGWOOD, TX 77339",30.033877,-95.248452,1400,5001,143732,123199,136888,1637,137916.0
77339,"1300 MAGNOLIA LN, HUMBLE, TX 77339",30.034614,-95.237311,2353,43469,307468,272329,292827,-1181,243362.0
77339,"2138 RIVERLAWN DR, HUMBLE, TX 77339",30.053259999999998,-95.217917,2302,10328,234579,212239,223409,2040,186654.0
77339,"1111 BURNING TREE RD, HUMBLE, TX 77339",30.032302,-95.24484,2177,12602,197061,172663,187677,-3766,162815.0
77339,"2026 RIVERLAWN DR, HUMBLE, TX 77339",30.053015000000002,-95.220849,2554,7954,229805,207919,218862,-1249,199660.0
77339,"3314 RIVERLAWN DR, HUMBLE, TX 77339",30.05053,-95.204989,2380,12672,254521,230281,242401,2187,198843.0
77339,"2002 SEVEN OAKS DR, HUMBLE, TX 77339",30.039602000000002,-95.225054,3214,13068,312866,283070,297968,-6657,299709.0
77339,"11 GREENWAY VIEW TRL, HUMBLE, TX 77339",30.037117,-95.177814,4911,13107,768127,642433,698297,4116,690446.0
77339,"424 MYSTIC GLEN LOOP, KINGWOOD, TX 77339",30.036035,-95.249195,2348,7018,205468,185900,195684,66,179261.0
77339,"410 MYSTIC TRAIL LOOP, KINGWOOD, TX 77339",30.037490999999996,-95.248101,1660,5253,163935,148323,156129,-459,148487.0
77339,"21550 DUKE ALEXANDER DR, HUMBLE, TX 77339",30.063779999999998,-95.230965,1885,5249,209933,189939,199936,-890,177590.0
77339,"3631 CLEAR FALLS DR, HUMBLE, TX 77339",30.062133000000003,-95.198818,2788,11661,262338,235115,247489,268,179165.0
77339,"2502 LAKE GARDENS CT, HUMBLE, TX 77339",30.047995,-95.215451,3843,51170,744726,553420,683235,-8201,654235.0
77339,"1003 LISA LN, HUMBLE, TX 77339",30.029551,-95.228143,2964,42630,846018,467002,676814,6080,867000.0
77339,"2202 WOODFORD GREEN DR, HUMBLE, TX 77339",30.044256,-95.215523,3717,43800,538859,487539,513199,-581,485000.0
77339,"2210 RUNNING SPRINGS DR, HUMBLE, TX 77339",30.046653000000003,-95.21918000000001,3192,11069,277103,245733,261418,-9069,240328.0
77339,"1206 CHESTNUT RIDGE RD, HUMBLE, TX 77339",30.033757,-95.242212,2190,21780,264752,239538,252145,3937,217000.0
77339,"2211 TREE LN, HUMBLE, TX 77339",30.059827000000002,-95.212783,2145,10162,230015,208109,219062,-1559,182265.0
77339,"1720 WALNUT LN, HUMBLE, TX 77339",30.036144,-95.22893499999999,2727,44388,381093,337540,362946,1316,325968.0
77339,"2923 BIG SPRINGS DR, HUMBLE, TX 77339",30.055497999999996,-95.216158,2741,10454,244246,201671,224079,2473,173238.0
77339,"21808 MAIDENS CROSSING DR, HUMBLE, TX 77339",30.057803999999997,-95.237482,2878,6172,241277,216001,229788,610,219110.0
77339,"1730 PALMETTO LN, HUMBLE, TX 77339",30.033079999999998,-95.229161,2896,46652,350688,308475,324711,-9019,310075.0
77339,"21610 ROSE MILL DR, KINGWOOD, TX 77339",30.062343,-95.230641,2904,5500,244778,221466,233122,-431,214680.0
77339,"1718 RUSTIC PARK DR, HUMBLE, TX 77339",30.046393,-95.23009,2195,6050,220120,199156,209638,1398,188747.0
77339,"1402 SUMMER RAIN DR, HUMBLE, TX 77339",30.043103000000002,-95.234863,2676,10486,252828,228750,240789,-2295,227822.0
77339,"1907 LAZY GROVE DR, HUMBLE, TX 77339",30.046525,-95.22589,2094,10642,219262,198380,208821,-1578,192828.0
77339,"2214 SILVER FALLS DR, HUMBLE, TX 77339",30.062040999999997,-95.21298,2450,10124,248351,217603,236525,-2286,154994.0
77339,"2223 MIDDLE CREEK DR, HUMBLE, TX 77339",30.063654999999997,-95.214552,2484,9439,240218,217340,228779,-307,209111.0
77339,"2931 N COTSWOLD MANOR DR, KINGWOOD, TX 77339",30.036737,-95.210336,2880,11901,417327,370524,390025,11571,296027.0
77339,"21114 NORMANDY GLEN ST, KINGWOOD, TX 77339",30.048790000000004,-95.21933,2662,,280146,246110,261819,-3615,236700.0
77339,"3219 VILLAGE PARK DR, HUMBLE, TX 77339",30.062859000000003,-95.191372,1650,8185,178665,159948,170157,-2212,148714.0
77339,"2407 SILVER FALLS DR, HUMBLE, TX 77339",30.062032000000002,-95.20999300000001,2993,14449,300934,272274,286604,-643,230000.0
77339,"2119 LONE ROCK DR, HUMBLE, TX 77339",30.063696999999998,-95.21721,2527,8320,229444,205634,216457,-1310,162297.0
77339,"1521 WALNUT LN, HUMBLE, TX 77339",30.036363,-95.23356899999999,3243,44388,411255,372087,391671,-5423,365790.0
77339,"2832 COTSWOLD MANOR DR S, KINGWOOD, TX 77339",30.034012,-95.211426,4478,10254,541191,489649,515420,-1361,470900.0
77339,"26888 ARMOR OAKS DR, KINGWOOD, TX 77339",30.060370000000002,-95.227802,2439,5915,221249,200177,210713,1841,200784.0
77339,"3406 FAWN CREEK DR, HUMBLE, TX 77339",30.057826000000002,-95.209253,2159,9723,235050,212664,223857,1706,234150.0
77339,"2043 SHADOW ROCK DR, HUMBLE, TX 77339",30.056804999999997,-95.21985500000001,1957,8228,202280,183016,192648,-342,161927.0
77339,"25 ISLAND GREEN CT, HUMBLE, TX 77339",30.032259000000003,-95.182287,4178,16901,603841,524833,564337,-15076,347799.0
77339,"2906 RED MAPLES DR, HUMBLE, TX 77339",30.052984999999996,-95.21109399999999,2512,10616,251809,227827,239818,-1994,231000.0
77339,"2411 BROOKDALE DR, HUMBLE, TX 77339",30.063189,-95.20016899999999,2305,9161,249720,225938,237829,-580,195093.0
77339,"25014 DOVER RIVER OAKS LN, KINGWOOD, TX 77339",30.048790000000004,-95.21933,2980,12196,314021,238223,270708,-4152,
77339,"3615 VILLAGE PINE DR, HUMBLE, TX 77339",30.058465999999996,-95.195411,2764,12275,296605,268357,282481,-2290,224896.0
77339,"21485 PALACE PINES DR, HUMBLE, TX 77339",30.054890999999998,-95.24107,2342,6600,236311,209808,220851,258,185740.0
77339,"2423 PINE BEND DR, HUMBLE, TX 77339",30.041371,-95.198661,4122,15838,476959,417907,454247,37335,271114.0
77339,"2139 LITTLE CEDAR DR, HUMBLE, TX 77339",30.060772999999998,-95.217164,1876,7854,192704,174352,183528,-1796,135196.0
77339,"1419 SUMMER RAIN DR, HUMBLE, TX 77339",30.043381,-95.23467600000001,2385,7475,229983,203947,216965,877,186108.0
77339,"1014 GOLDEN BEAR LN, HUMBLE, TX 77339",30.043415000000003,-95.24167299999999,2390,25200,289646,244472,265730,2193,199027.0
77339,"2314 WILLOW POINT DR, HUMBLE, TX 77339",30.053093,-95.21321999999999,2346,10803,244692,221388,233040,930,197019.0
77339,"1207 MASTERS WAY, HUMBLE, TX 77339",30.045208000000002,-95.238501,3062,33598,446439,365269,405854,-969761,280000.0
77339,"2319 EVEREST WAY, HUMBLE, TX 77339",30.048112,-95.233328,1831,2626,176487,149594,168083,532,160331.0
77339,"3607 FAWN CREEK DR, HUMBLE, TX 77339",30.060787,-95.208093,2653,10319,256831,232371,244601,-1989,222289.0
77339,"3823 OAK GARDENS DR, HUMBLE, TX 77339",30.063855,-95.20203599999999,1976,9026,202707,181471,193054,-2200,183377.0
77339,"2210 LAZY GROVE DR, HUMBLE, TX 77339",30.044971999999998,-95.21946700000001,2579,10440,259245,234555,246900,307,239704.0
77339,"2211 DEER SPRINGS DR, HUMBLE, TX 77339",30.037407,-95.220415,2209,10768,258944,229630,244287,2797,187827.0
77339,"2510 POPLAR PARK DR, HUMBLE, TX 77339",30.062697999999997,-95.209615,2589,9723,249626,225852,237739,-2166,222166.0
77339,"26881 HAILEY'S MNR, KINGWOOD, TX 77339",30.060083000000002,-95.237012,2128,2991,212219,187965,202113,-219,164400.0
77339,"419 LAUREL PINE DR, KINGWOOD, TX 77339",30.035601,-95.24903,1736,5250,179458,162366,170912,2099,139829.0
77339,"2203 WOODFORD GREEN DR, HUMBLE, TX 77339",30.04448,-95.215705,2777,33053,450890,343155,399018,-8433,340557.0
77339,"1731 WILDERNESS PARK CT, HUMBLE, TX 77339",30.045907,-95.22991800000001,2203,6286,220755,199731,210243,373,183097.0
77339,"3202 CEDAR KNOLLS DR, HUMBLE, TX 77339",30.054578999999997,-95.20649399999999,2045,11134,211630,189459,201552,-3299,184695.0
77339,"1330 KINGWOOD DR, HUMBLE, TX 77339",30.049222999999998,-95.235791,2822,11194,249754,225968,237861,-638,243441.0
77339,"2011 SHADY BRANCH DR, HUMBLE, TX 77339",30.035624,-95.225115,3387,11186,308409,279037,293723,-3132,279727.0
77339,"1315 SOUTHERN HILLS RD, HUMBLE, TX 77339",30.047846999999997,-95.236655,3775,58209,475181,411823,452553,-4499,400079.0
77339,"3735 PALMETTO CREEK DR, HUMBLE, TX 77339",30.053671,-95.192327,3479,10668,315632,285572,300602,-1472,257110.0
77339,"26899 ROYAL TIMBERS DR, KINGWOOD, TX 77339",30.055099,-95.23226600000001,2421,7672,227075,205449,216262,977,201106.0
77339,"2103 LAZY GROVE DR, HUMBLE, TX 77339",30.045692,-95.220878,3001,11135,298647,257549,273988,734,273489.0
77339,"52 GREENS EDGE DR, HUMBLE, TX 77339",30.033833,-95.17737,2888,11387,352246,254230,306301,1414,216070.0
77339,"2006 GROVE LAKE DR, HUMBLE, TX 77339",30.040392999999998,-95.224337,2364,10890,252854,228772,240813,-2906,207691.0
77339,"462 MYSTIC GLEN LOOP, HUMBLE, TX 77339",30.037027000000002,-95.24916999999999,2687,5248,205656,186070,195863,-106,186069.0
77339,"26899 MERLOT RIVER DR, HUMBLE, TX 77339",30.056834000000002,-95.230509,2397,6325,241644,207123,230137,2352,228408.0
77339,"3751 GLADE FOREST DR, HUMBLE, TX 77339",30.062623,-95.195349,1380,6726,152769,132400,145494,-319,137648.0
77339,"2190 TREE LN, HUMBLE, TX 77339",30.060162,-95.214136,2115,10829,208626,188756,198691,562,181818.0
77339,"2111 LAUREL SPRINGS LN, HUMBLE, TX 77339",30.047121999999998,-95.245416,2174,17600,203429,167640,188360,4673,137040.0
77339,"21211 LUCKNOW LN, KINGWOOD, TX 77339",30.048790000000004,-95.21933,3846,7150,363598,316024,339811,-1422,307480.0
77339,"1822 CLOVER SPRING DR, HUMBLE, TX 77339",30.055021000000004,-95.225749,2164,9840,224317,202953,213635,3675,182845.0
77339,"1910 GROVE LAKE DR, HUMBLE, TX 77339",30.04048,-95.225994,1930,15583,219700,198776,209238,87,193734.0
77339,"3742 GLADE FOREST DR, HUMBLE, TX 77339",30.061649,-95.196596,1731,7475,193132,174738,183935,-334,144537.0
77339,"1219 EVERSHAM WAY, KINGWOOD, TX 77339",30.034917,-95.210287,4187,7943,486815,440451,463633,-2671,463620.0
77339,"2323 PLATEAU CT, HUMBLE, TX 77339",30.048098,-95.23217199999999,1453,2418,149375,125643,139603,1772,138973.0
77339,"21318 TREBUCHET DR, KINGWOOD, TX 77339",30.048790000000004,-95.21933,3445,5665,358834,306640,326213,-1682,279240.0
77339,"21836 MAIDENS CROSSING DR, HUMBLE, TX 77339",30.057959000000004,-95.236132,2759,6171,233662,211408,222535,910,199900.0
77339,"3715 CLEAR FALLS DR, HUMBLE, TX 77339",30.062946999999998,-95.196249,1430,7736,158844,140690,151280,2199,136062.0
77339,"3219 PARKDALE DR, HUMBLE, TX 77339",30.052278,-95.206664,2431,11556,255197,230893,243045,-2977,220536.0
77339,"22001 STILLBRIDGE LN, KINGWOOD, TX 77339",30.058213000000002,-95.232411,2846,5841,244025,220785,232405,-965,218900.0
77339,"2115 LAUREL SPRINGS LN, HUMBLE, TX 77339",30.047346,-95.245163,1647,17600,172857,142163,161549,-1369,108670.0
77339,"2034 TANGLE LAKE DR, HUMBLE, TX 77339",30.038703,-95.223421,2572,12087,265248,239986,252617,-7986,248323.0
77339,"1102 CASTLE HILL TRL, HUMBLE, TX 77339",30.046213,-95.24065,2974,33598,372909,321116,345286,-7045,270975.0
77339,"1910 FOREST MANOR DR, HUMBLE, TX 77339",30.044557,-95.22587,2051,10581,196583,160512,180351,-12330,172000.0
77339,"2314 EVEREST WAY, HUMBLE, TX 77339",30.048262,-95.232833,1544,4232,161984,140590,152815,3202,142999.0
77339,"2302 MILLS CREEK DR, HUMBLE, TX 77339",30.047153,-95.23033000000001,2220,10045,241837,218805,230321,714,229537.0
77339,"3222 BROOKGREEN DR, HUMBLE, TX 77339",30.063489,-95.19175,2093,8063,215757,195209,205483,-4449,182764.0
77339,"3611 CLEAR FALLS DR, HUMBLE, TX 77339",30.061842,-95.199225,2045,9401,209787,189807,199797,-3648,183000.0
77339,"1906 RIVER FALLS DR, HUMBLE, TX 77339",30.050362,-95.226209,2688,14880,242182,192448,216234,1459,217282.0
77339,"26852 MYSTIC CASTLE LN, HUMBLE, TX 77339",30.06005,-95.232072,2442,5500,223036,199890,210411,884,182210.0
77339,"2211 STONEY PARK CT, HUMBLE, TX 77339",30.046134000000002,-95.232534,2008,17947,235010,212628,223819,920,208457.0
77339,"3715 HICKORY KNOB DR, HUMBLE, TX 77339",30.060694,-95.194974,1785,8364,193063,172838,183870,-1959,152009.0
77339,"1718 RED OAK TER, HUMBLE, TX 77339",30.047704,-95.23384200000001,2330,6050,222603,201403,212003,1406,190536.0
77339,"22012 STILLBRIDGE LN, HUMBLE, TX 77339",30.058377,-95.232672,2635,6972,250047,222005,233689,-2092,212030.0
77339,"2107 COVEWOOD DR, HUMBLE, TX 77339",30.061331,-95.213764,2159,18770,239068,209748,225536,1087,165194.0
77339,"1406 BROOKTRAIL DR, HUMBLE, TX 77339",30.036241999999998,-95.240093,2444,16501,257456,230484,245196,3853,195344.0
77339,"1918 PINE RIVER DR, HUMBLE, TX 77339",30.051709000000002,-95.224499,2227,9360,234969,212591,223780,226,219590.0
77339,"1911 SEVEN OAKS DR, HUMBLE, TX 77339",30.039904999999997,-95.22596800000001,3124,10920,278931,236828,263142,-11852,252295.0
77339,"3402 SYCAMORE SHADOWS DR, HUMBLE, TX 77339",30.059669,-95.201049,2641,13299,258544,233920,246232,-112,190000.0
77339,"3206 EVERGREEN GLADE DR, HUMBLE, TX 77339",30.059209000000003,-95.225982,1848,10080,195442,176828,186135,91,152046.0
77339,"2310 TREE LN, HUMBLE, TX 77339",30.059264000000002,-95.21109799999999,2596,10798,214493,183575,193237,368,212446.0
77339,"3207 VILLAGEDALE DR, HUMBLE, TX 77339",30.060315000000003,-95.193127,1736,9639,191581,173335,182458,-2408,157498.0
77339,"2418 LAKE VILLAGE DR, HUMBLE, TX 77339",30.045121,-95.213154,3083,39200,470037,375205,412313,-2414,160000.0
77339,"3750 GLADE FOREST DR, HUMBLE, TX 77339",30.062396999999997,-95.195171,1641,7488,176814,159974,168394,-105,121081.0
77339,"1718 HIDDEN VILLAS DR, HUMBLE, TX 77339",30.041631,-95.220837,2967,10960,297784,264388,278303,-9392,262211.0
77339,"1830 CLOVER SPRING DR, HUMBLE, TX 77339",30.05503,-95.225617,2459,16125,252104,228094,240099,1904,217562.0
77339,"3333 COTSWOLD MANOR DR S, KINGWOOD, TX 77339",30.035994,-95.202223,4509,10276,500760,453068,476914,1402,405023.0
77339,"3502 SANDY FORKS DR, HUMBLE, TX 77339",30.058489,-95.197786,3075,9086,295013,266917,280965,389,243982.0
77339,"2507 KINGS FOREST DR, HUMBLE, TX 77339",30.048797999999998,-95.21077700000001,4820,37261,585390,524642,552255,-5738,462700.0
77339,"1506 WHITNEY WAY, HUMBLE, TX 77339",30.047809,-95.233135,1907,2810,183575,162595,174833,254,159237.0
77339,"21550 KINGS BEND DR, HUMBLE, TX 77339",30.06305,-95.230339,2098,5250,217511,196795,207153,462,190740.0
77339,"1927 CRYSTAL SPRINGS DR, HUMBLE, TX 77339",30.041553999999998,-95.22567099999999,2034,10799,228132,170585,205524,-4668,200274.0
77339,"1927 TWIN SPRINGS DR, HUMBLE, TX 77339",30.043207000000002,-95.224664,1858,11160,206602,186926,196764,-2688,186957.0
77339,"27105 REGAL GREEN LN, HUMBLE, TX 77339",30.054446999999996,-95.23448,2519,5371,225788,204284,215036,1096,190766.0
77339,"26966 CROWN HAVEN DR, HUMBLE, TX 77339",30.056846000000004,-95.241826,2114,5222,210803,186939,198871,98,164260.0
77339,"2323 PINE BEND DR, HUMBLE, TX 77339",30.040596999999998,-95.199373,3748,14902,453237,364996,401095,14221,219992.0
77339,"2511 VALLEY MANOR DR, HUMBLE, TX 77339",30.045334999999998,-95.197746,3887,34107,531293,470573,505993,11344,502594.0
77339,"2103 WILDERNESS POINT DR, HUMBLE, TX 77339",30.06045,-95.219662,2783,9600,249346,225598,237472,2186,218811.0
77339,"3319 LAUREL CREST DR, HUMBLE, TX 77339",30.060828000000004,-95.224065,2270,9840,245645,222251,233948,3016,192193.0
77339,"2234 ROLLING MEADOWS DR, HUMBLE, TX 77339",30.051240999999997,-95.215476,2055,9718,212264,192048,202156,-2664,166653.0
77339,"21462 ROSE MILL DR, KINGWOOD, TX 77339",30.062308,-95.228468,2592,5697,222751,201537,212144,-2314,194380.0
77339,"26897 ARMOR OAKS DR, HUMBLE, TX 77339",30.0607,-95.22811800000001,2510,6690,223579,202285,212932,891,200455.0
77339,"2410 PARKDALE DR, HUMBLE, TX 77339",30.051939,-95.212561,2631,10681,260065,235297,247681,184,228995.0
77339,"1304 KINGWOOD DR, HUMBLE, TX 77339",30.049203000000002,-95.237075,1005,,241592,126125,177641,597,
77339,"3806 WILDWOOD RIDGE DR, HUMBLE, TX 77339",30.052303000000002,-95.191004,3110,10711,314065,284155,299110,160,262617.0
77339,"3735 WINDY HAVEN DR, HUMBLE, TX 77339",30.061664,-95.195148,1757,8281,194079,175595,184837,-1506,157167.0
77339,"26986 ARMOR SMITH DR, KINGWOOD, TX 77339",30.057443,-95.24180600000001,1681,6389,211063,181475,197255,2049,167510.0
77339,"1627 LAUREL SPRINGS LN, KINGWOOD, TX 77339",30.040172,-95.249217,2348,9901,246902,199766,224456,6876,172112.0
77339,"1623 CHESTNUT RIDGE RD, HUMBLE, TX 77339",30.040087,-95.242584,2012,12750,228653,203009,213694,716,194555.0
77339,"1902 CRYSTAL SPRINGS DR, HUMBLE, TX 77339",30.041292,-95.226063,2125,15994,258260,228745,245962,-833,250107.0
77339,"21072 ALDENS OAK, KINGWOOD, TX 77339",30.060959000000004,-95.234604,1344,2528,173354,136206,154780,2979,133800.0
77339,"33 ISLAND GREEN CT, HUMBLE, TX 77339",30.033316999999997,-95.18199200000001,4243,19428,560348,483236,514081,-10803,375000.0
77339,"2010 SPRUCE GROVE DR, HUMBLE, TX 77339",30.037053000000004,-95.225001,2562,10799,255919,231545,243732,-3278,218000.0
77339,"26883 MERLOT RIVER DR, HUMBLE, TX 77339",30.056977000000003,-95.23056,2414,7061,237187,212338,225892,1195,220707.0
77339,"3719 CLEAR FALLS DR, HUMBLE, TX 77339",30.062881,-95.196364,1785,7670,190616,172462,181539,-690,157888.0
77339,"2127 PINE RIVER DR, HUMBLE, TX 77339",30.051503999999998,-95.22030600000001,2390,9400,233063,208877,219871,887,178959.0
77339,"3411 CAVE SPRINGS DR, HUMBLE, TX 77339",30.062365000000003,-95.223221,2244,9239,219193,196447,206786,3187,181696.0
77339,"1918 MAPLE LAKES DR, HUMBLE, TX 77339",30.042084999999997,-95.22506899999999,2043,10440,230509,198195,215429,-2877,214544.0
77339,"21840 MAIDENS CROSSING DR, HUMBLE, TX 77339",30.057938,-95.235938,1827,6941,212813,183256,197049,2288,164890.0
77339,"3430 CAVE SPRINGS DR, HUMBLE, TX 77339",30.062027,-95.223381,2109,8747,220791,199763,210277,4668,177497.0
77339,"3419 MAPLE PARK DR, HUMBLE, TX 77339",30.053562,-95.190871,2770,9774,283313,253912,267276,-1398,205943.0
77339,"3731 HICKORY KNOB DR, HUMBLE, TX 77339",30.061421000000003,-95.194129,1785,7126,182329,164965,173647,-121,147409.0
77339,"22009 STILLBRIDGE LN, KINGWOOD, TX 77339",30.05818,-95.232452,2215,6020,219334,198446,208890,266,186300.0
77339,"26869 PALACE PINES DR, HUMBLE, TX 77339",30.056665999999996,-95.239298,1675,6268,179052,150063,170526,3239,148460.0
77339,"2207 SILVER FALLS DR, HUMBLE, TX 77339",30.062316999999997,-95.213064,2042,9239,206001,186381,196191,1894,160899.0
77339,"2614 RIVERLAWN DR, HUMBLE, TX 77339",30.050802,-95.209974,2803,11522,273690,247624,260657,-1813,215120.0
77339,"3331 COURTLAND MANOR LN, HUMBLE, TX 77339",30.062621999999998,-95.188612,2551,6281,285278,258108,271693,265,281618.0
77339,"3918 VALLEY HAVEN DR, HUMBLE, TX 77339",30.062582,-95.201607,2756,9270,263539,238441,250990,-783,231500.0
77339,"602 GOLDEN BEAR LN, HUMBLE, TX 77339",30.043313,-95.249075,1868,26880,293887,233535,262399,-2258,303759.0
77339,"21820 WHISPERING FOREST DR, HUMBLE, TX 77339",30.055642,-95.236811,1742,6189,195312,170226,179185,6176,163630.0
77339,"432 MYSTIC TRAIL LOOP, HUMBLE, TX 77339",30.038465000000002,-95.248193,2485,5410,205921,186309,196115,-26,185000.0
77339,"3507 SYCAMORE SHADOWS DR, HUMBLE, TX 77339",30.060108000000003,-95.19757299999999,2535,9744,257227,232729,244978,1490,189000.0
77339,"2111 FAIRWAY GREEN DR, HUMBLE, TX 77339",30.038753999999997,-95.17783,4051,9392,470529,408383,443895,-3112,347400.0
77339,"2803 VALLEY MANOR DR, HUMBLE, TX 77339",30.051665999999997,-95.202021,4200,50094,571782,507052,539417,-568,542706.0
77339,"2110 RIVERLAWN DR, HUMBLE, TX 77339",30.053432,-95.21847700000001,2483,9557,244319,221051,232685,198,190916.0
77339,"1930 RUNNING SPRINGS DR, HUMBLE, TX 77339",30.047927,-95.225992,2818,11042,257146,223184,242591,1005,217274.0
77339,"2202 LAUREL HILL DR, HUMBLE, TX 77339",30.047332,-95.218563,2488,9701,248380,215575,234321,5090,202000.0
77339,"21859 WHISPERING FOREST DR, HUMBLE, TX 77339",30.056575,-95.234831,2770,6507,240341,217451,228896,-319,206180.0
77339,"21366 TREBUCHET DR, KINGWOOD, TX 77339",30.048790000000004,-95.21933,3310,8254,341502,288241,313305,-343,308050.0
77339,"3207 N COTSWOLD MANOR DR, KINGWOOD, TX 77339",30.037284999999997,-95.206816,2857,9801,446818,371652,417587,-652,439481.0
77339,"2911 EVERGREEN GLADE DR, HUMBLE, TX 77339",30.054401000000002,-95.22625,1828,8281,193101,174711,183906,-239,156687.0
77339,"2038 LITTLE CEDAR DR, HUMBLE, TX 77339",30.063434,-95.221096,1811,7919,190882,172702,181792,167,157570.0
77339,"2007 SOUTHERN PINES DR, HUMBLE, TX 77339",30.038161,-95.22559,2803,11273,258786,234140,246463,-896,233042.0
77339,"21566 ROSE MILL DR, KINGWOOD, TX 77339",30.062332,-95.229995,2736,5499,261586,220788,239987,-2272,211360.0
77339,"1815 WILLOW POINT DR, HUMBLE, TX 77339",30.057042,-95.22535,2447,8817,246077,222641,234359,-1545,227202.0
77339,"1626 TRAIL OAKS CT, HUMBLE, TX 77339",30.039607,-95.247242,2799,3964,206173,186537,196355,-241,176589.0
77339,"2014 PLAYERS PATH, HUMBLE, TX 77339",30.045605,-95.244823,1890,30540,206959,187249,197104,-3210,184447.0
77339,"2827 N COTSWOLD MANOR DR, HUMBLE, TX 77339",30.036675,-95.21257800000001,2788,7403,434839,374999,398935,3281,415975.0
77339,"23 FOREST GREEN TRL, HUMBLE, TX 77339",30.03643,-95.179856,3808,18055,540543,489063,514803,-2726,478600.0
77339,"3110 BREEZY PINES CT, HUMBLE, TX 77339",30.042790999999998,-95.20166,2274,6643,233076,198223,217828,-3472,167271.0
77339,"1011 GOLDEN BEAR LN, HUMBLE, TX 77339",30.043688,-95.241725,2746,20800,334064,283357,298271,-1933,201261.0
77339,"2031 SEVEN OAKS DR, HUMBLE, TX 77339",30.039790000000004,-95.223802,2710,13520,264571,239373,251972,-5378,205000.0
77339,"1010 GOLDEN BEAR LN, HUMBLE, TX 77339",30.043414000000002,-95.241722,2312,25200,283100,199129,239915,-1105,160000.0
77339,"2330 MILLS CREEK DR, HUMBLE, TX 77339",30.049034999999996,-95.229019,2230,6655,228280,206540,217410,2717,208309.0
77339,"5 GOLF LINKS CT, KINGWOOD, TX 77339",30.033486,-95.178279,3710,15420,488259,441759,465009,-1526,383298.0
77339,"27022 CROWN ROCK DR, KINGWOOD, TX 77339",30.058425,-95.24228199999999,1869,7185,211740,191574,201657,-1208,173430.0
77339,"26853 HAILEY'S MNR, KINGWOOD, TX 77339",30.060327,-95.237012,2140,3168,202096,177074,192472,-1044,139930.0
77339,"1911 ROUND SPRING DR, HUMBLE, TX 77339",30.058694,-95.223621,1972,8329,195910,177252,186581,365,145840.0
77339,"2110 HICKORY CREEK DR, HUMBLE, TX 77339",30.044240000000002,-95.220029,2253,10799,254086,229888,241987,3704,211714.0
77339,"1611 CHESTNUT RIDGE RD, HUMBLE, TX 77339",30.039919,-95.242648,2511,15651,260889,236043,248466,-174,223348.0
77339,"21523 KINGS BEND DR, KINGWOOD, TX 77339",30.063330999999998,-95.23124,2209,5250,219079,198215,208647,727,197770.0
77339,"1710 PINNACLE DR, HUMBLE, TX 77339",30.047843,-95.231612,1750,2584,180152,152960,169955,867,159036.0
77339,"3138 PARK GARDEN DR, HUMBLE, TX 77339",30.061166999999998,-95.19394,1685,8385,183525,166047,174786,-1792,139970.0
77339,"26918 MERLOT RIVER DR, HUMBLE, TX 77339",30.056579,-95.230086,2446,6710,269531,211594,251898,-2859,246134.0
77339,"21806 PINE RD, HUMBLE, TX 77339",30.02668,-95.22342900000001,1730,7802,173423,140315,157657,-73,121240.0
77339,"2010 SHADOW ROCK DR, HUMBLE, TX 77339",30.056141999999998,-95.221475,3472,7889,280257,233547,259497,1538,208849.0
77339,"2007 LONE ROCK DR, HUMBLE, TX 77339",30.063743,-95.22006,1758,15560,190391,172259,181325,-421,147000.0
77339,"2118 HICKORY CREEK DR, HUMBLE, TX 77339",30.044139,-95.2197,2256,10799,247041,214413,233058,-6310,191373.0
77339,"1002 LISA LN, HUMBLE, TX 77339",30.029549,-95.22782600000001,3247,43469,408092,365742,384992,-2827,307000.0
77339,"1610 SWEET GUM LN, HUMBLE, TX 77339",30.038942,-95.231398,2799,44388,361521,306952,341058,-3693,292745.0
77339,"1206 CHARING CROSS WAY, KINGWOOD, TX 77339",30.035080999999998,-95.207847,3341,9273,369102,287079,341761,5519,350000.0
77339,"3126 TIMBERLARK DR, HUMBLE, TX 77339",30.061784999999997,-95.193127,1617,6960,176979,156752,168551,-1706,140996.0
77339,"21066 ALDENS OAK, KINGWOOD, TX 77339",30.060954,-95.234473,1176,2567,154786,123829,140715,812,117060.0
77339,"1927 THOUSAND PINES DR, HUMBLE, TX 77339",30.047341999999997,-95.225531,2449,11674,255472,231142,243307,-2810,230000.0
77339,"2814 WOODLAND GROVE DR, HUMBLE, TX 77339",30.053590999999997,-95.223733,2300,8712,227873,206171,217022,579,181135.0
77339,"2027 RIVER FALLS DR, HUMBLE, TX 77339",30.049421000000002,-95.221467,2154,10354,225412,203944,214678,2738,172757.0
77339,"4018 VALLEY HAVEN DR, HUMBLE, TX 77339",30.063583,-95.200591,2418,10502,248705,222650,236862,-9666,226637.0
77339,"11 LINKS SIDE CT, HUMBLE, TX 77339",30.032876,-95.175252,3409,8873,438467,381097,409782,171,414668.0
77339,"2015 GROVE LAKE DR, HUMBLE, TX 77339",30.040646000000002,-95.223499,2277,11042,254176,229968,242072,1505,213213.0
77339,"14 SHORELAKE DR, HUMBLE, TX 77339",30.044096000000003,-95.210464,6671,17589,945423,801359,900403,-1096,416820.0
77339,"21615 ROSE MILL DR, KINGWOOD, TX 77339",30.062617,-95.23065600000001,1780,5249,196967,174457,187588,-2294,171780.0
77339,"1710 WOODLAND VISTA DR, HUMBLE, TX 77339",30.040846999999996,-95.221772,3212,14300,308897,279479,294188,-2052,268484.0
77339,"1621 SYCAMORE LN, HUMBLE, TX 77339",30.033526000000002,-95.230182,3632,56549,1018878,755375,878343,-207,700000.0
77339,"3202 PARK GARDEN DR, HUMBLE, TX 77339",30.0609,-95.19309399999999,2233,7309,222392,201212,211802,240,186350.0
77339,"2211 SEVEN OAKS DR, HUMBLE, TX 77339",30.039797999999998,-95.221307,2753,10800,264224,239060,251642,-6067,231683.0
77339,"1420 SYCAMORE LN, HUMBLE, TX 77339",30.033206,-95.23529,2413,43469,344043,298171,327660,-9501,273533.0
77339,"11 FOREST GREEN TRL, HUMBLE, TX 77339",30.03727,-95.180245,3854,20560,628559,509642,566269,13390,567127.0
77339,"2210 PINE BEND DR, HUMBLE, TX 77339",30.039415999999996,-95.200962,4027,13856,478883,419593,456079,23751,323200.0
77339,"21591 ROSE MILL DR, KINGWOOD, TX 77339",30.062610999999997,-95.230293,1725,5250,198511,177715,189058,-2217,170160.0
77339,"2219 LAZY GROVE DR, HUMBLE, TX 77339",30.045194,-95.21924200000001,2975,10999,275880,247251,260264,-1323,213508.0
77339,"2702 WOODLAND GROVE DR, HUMBLE, TX 77339",30.052666,-95.223869,2486,9676,243277,220107,231692,84,189706.0
77339,"810 CASTLE HILL TRL, HUMBLE, TX 77339",30.046819,-95.2453,2523,23313,298003,254259,273397,-1803,195000.0
77339,"3314 LOST HOLLOW DR, HUMBLE, TX 77339",30.059682000000002,-95.22081899999999,2545,7610,233943,211663,222803,-2044,188413.0
77339,"1300 HICKORY LN, HUMBLE, TX 77339",30.029716999999998,-95.237229,2918,36873,343795,311053,327424,-3119,298888.0
77339,"3323 VILLAGE FALLS CT, HUMBLE, TX 77339",30.055585999999998,-95.205337,2128,6599,222398,201218,211808,17,204075.0
77339,"3118 VILLAGE WOODS DR, HUMBLE, TX 77339",30.060610999999998,-95.19452199999999,1433,14850,163581,143328,155791,292,138375.0
77339,"3306 VILLAGE FALLS CT, HUMBLE, TX 77339",30.055327000000002,-95.205349,2440,7000,238793,216051,227422,-164,218918.0
77339,"2110 NORTHSHORE DR, HUMBLE, TX 77339",30.025843,-95.225472,1872,10894,169177,117563,143370,-949,89000.0
77339,"2122 HIDDEN CREEK DR, HUMBLE, TX 77339",30.049489,-95.219633,2434,10559,251523,227569,239546,2706,201895.0
77339,"3731 ROCKY WOODS DR, KINGWOOD, TX 77339",30.054855,-95.192665,3357,9922,317757,287495,302626,318,245378.0
77339,"2211 ROLLING MEADOWS DR, HUMBLE, TX 77339",30.052092,-95.216624,2208,8925,223908,202584,213246,738,171869.0
77339,"1519 SANDY PARK DR, HUMBLE, TX 77339",30.045396999999998,-95.231241,1989,7130,215812,195258,205535,836,197859.0
77339,"1302 SAINT ANDREWS RD, HUMBLE, TX 77339",30.042323,-95.23706999999999,1784,15303,206798,179485,195092,2481,187007.0
77339,"2023 PLAYERS PATH, HUMBLE, TX 77339",30.045453000000002,-95.24556700000001,2720,19201,282584,255672,269128,-312,232424.0
77339,"1626 LAUREL SPRINGS LN, HUMBLE, TX 77339",30.040211,-95.248903,2621,9004,235187,206878,217766,3861,185141.0
77339,"3519 GARDEN LAKE DR, HUMBLE, TX 77339",30.057243,-95.20478100000001,3388,12632,335694,303724,319709,866,293000.0
77339,"2011 SEVEN OAKS DR, HUMBLE, TX 77339",30.03981,-95.224642,2385,11069,255729,231373,243551,-786,224889.0
77339,"26860 MYSTIC CASTLE LN, HUMBLE, TX 77339",30.05991,-95.232072,1797,5500,192708,170684,183531,2104,155010.0
77339,"2511 BROOKDALE DR, HUMBLE, TX 77339",30.063846999999996,-95.19893499999999,2067,11325,236028,203246,218544,-3103,227053.0
77339,"3719 ROCKY WOODS DR, HUMBLE, TX 77339",30.054956,-95.192289,2784,11378,289254,259237,272881,-7848,225000.0
77339,"414 LAUREL TIMBERS DR, HUMBLE, TX 77339",30.034607,-95.249011,2196,5375,191785,169866,182652,1010,145000.0
77339,"4 CLUB OAK CT, HUMBLE, TX 77339",30.034487,-95.182793,4055,16814,543298,477290,507755,-4950,452517.0
77339,"2119 WILDERNESS POINT DR, HUMBLE, TX 77339",30.060152000000002,-95.21883000000001,2353,7735,230544,208588,219566,-1115,194000.0
77339,"27134 KINGS MARCH CT, HUMBLE, TX 77339",30.054321999999996,-95.238435,2064,9892,218291,187401,205935,1031,190650.0
77339,"2107 RIVER VILLAGE DR, HUMBLE, TX 77339",30.062295000000002,-95.218328,1516,7260,177079,160215,168647,-1187,134862.0
77339,"2034 LAKEVILLE DR, HUMBLE, TX 77339",30.052228000000003,-95.222123,1967,8259,201477,182289,191883,-323,166483.0
77339,"4 SHORELAKE DR, HUMBLE, TX 77339",30.043934000000004,-95.212197,5882,25620,1041935,833548,947214,21482,876600.0
77339,"3106 PARKDALE DR, HUMBLE, TX 77339",30.052083000000003,-95.208601,2486,10450,250153,226329,238241,-156,210165.0
77339,"2903 TRAIL LODGE DR, HUMBLE, TX 77339",30.052103000000002,-95.200521,3165,26528,406371,367669,387020,-3170,338000.0
77339,"2402 LAKE VILLAGE DR, HUMBLE, TX 77339",30.044446,-95.213677,3778,31398,493117,436761,469635,-643,424328.0
77339,"3919 FAWN CREEK DR, HUMBLE, TX 77339",30.063096999999996,-95.20557099999999,2344,8999,235213,206366,221899,2229,234900.0
77339,"26882 TREASURES RIDGE DR, KINGWOOD, TX 77339",30.056648,-95.23190799999999,2436,6202,226825,205223,216024,511,202306.0
77339,"26873 ARMOR OAKS DR, HUMBLE, TX 77339",30.05975,-95.22811800000001,2075,5667,212730,192470,202600,-238,180647.0
77339,"2403 POPLAR PARK DR, HUMBLE, TX 77339",30.062882000000002,-95.21019100000001,3090,12855,317821,287553,302687,-3062,241000.0
77339,"2202 RIVERLAWN DR, HUMBLE, TX 77339",30.052769,-95.216677,2341,10197,229579,207715,218647,-3035,192684.0
77339,"2022 LAKEVILLE DR, HUMBLE, TX 77339",30.052333,-95.222865,1967,8590,203084,183742,193413,-2316,167792.0
77339,"2022 MIDLOTHIAN LN, HUMBLE, TX 77339",30.045977,-95.248163,2350,19166,244122,206048,223965,2625,160720.0
77339,"1802 WILLOW POINT DR, HUMBLE, TX 77339",30.056813000000002,-95.225939,2136,8398,219026,198166,208596,779,203089.0
77339,"17 ISLAND GREEN CT, HUMBLE, TX 77339",30.033126,-95.182182,5853,17598,1040450,748092,859876,30189,536046.0
77339,"1922 LAKEVILLE DR, HUMBLE, TX 77339",30.052515000000003,-95.22437,2409,9557,231925,207857,218797,-16,186124.0
77339,"21709 GLENROYAL CT, HUMBLE, TX 77339",30.052406,-95.238848,3628,10502,358359,291761,317132,-4274,210153.0
77339,"3646 CLEAR FALLS DR, HUMBLE, TX 77339",30.062032000000002,-95.198413,2462,13886,275549,249307,262428,103,212115.0
77339,"2139 WILDERNESS POINT DR, HUMBLE, TX 77339",30.059621999999997,-95.21785899999999,2176,7670,207570,187802,197686,-377,175361.0
77339,"26865 PALACE PINES DR, HUMBLE, TX 77339",30.056638,-95.23932099999999,2573,8898,235930,211213,224695,-713,188100.0
77339,"2011 WHITE OAKS HILLS LN, HUMBLE, TX 77339",30.044549,-95.232734,2339,7314,245972,222546,234259,-1757,227000.0
77339,"22218 LAUREL PINE CIR, KINGWOOD, TX 77339",30.035617,-95.24781999999999,1396,5502,141837,121575,135083,2599,136789.0
77339,"2622 ROYAL TRAIL DR, HUMBLE, TX 77339",30.049771999999997,-95.196377,3590,23449,416037,376415,396226,-4164,377895.0
77339,"21816 GRAND LANCELOT DR, KINGWOOD, TX 77339",30.058685999999998,-95.23700500000001,2369,7359,222680,197706,208112,-2644,189850.0
77339,"26932 MERLOT RIVER DR, HUMBLE, TX 77339",30.056358000000003,-95.230006,2795,6708,303163,262742,288727,2413,262368.0
77339,"3307 RIVERLAWN DR, HUMBLE, TX 77339",30.050896999999996,-95.205298,2485,11225,256334,231922,244128,-2508,223691.0
77339,"2714 KINGS FOREST DR, HUMBLE, TX 77339",30.048917,-95.20765899999999,3215,40202,471257,405805,436349,1757,335209.0
77339,"26141 KNIGHTS TOWER DR, HUMBLE, TX 77339",30.062755,-95.22788,2749,5516,243091,219939,231515,1239,221350.0
77339,"2103 LAUREL SPRINGS LN, HUMBLE, TX 77339",30.046714,-95.245918,1828,17860,194848,157650,177135,2428,129260.0
77339,"1211 MUSTANG TRL, HUMBLE, TX 77339",30.040401,-95.238734,2077,14902,223072,201828,212450,648,195454.0
77339,"2239 LAKEVILLE DR, HUMBLE, TX 77339",30.051289,-95.21688,2621,9240,250513,226655,238584,-873,207128.0
77339,"27100 PALACE PINES CT, HUMBLE, TX 77339",30.055457,-95.240117,1742,10000,190200,170462,179434,5517,156170.0
77339,"1934 PINE RIVER DR, HUMBLE, TX 77339",30.051706,-95.224793,2680,10440,242115,209833,230586,-1209,152000.0
77339,"2003 SEVEN OAKS DR, HUMBLE, TX 77339",30.03987,-95.224987,2676,13917,267347,241885,254616,-4233,212838.0
77339,"1706 MILLS CREEK CT, HUMBLE, TX 77339",30.04885,-95.22932,2180,7436,226351,204793,215572,2659,197459.0
77339,"2403 PARKDALE DR, HUMBLE, TX 77339",30.052227000000002,-95.21253,2598,9840,244749,214446,233094,2315,201329.0
77339,"2214 LAZY GROVE DR, HUMBLE, TX 77339",30.044954999999998,-95.21941,2332,10441,247773,224175,235974,262,204249.0
77339,"1819 SPRUCE KNOB DR, HUMBLE, TX 77339",30.054616999999997,-95.224985,2068,9073,208042,188228,198135,-5401,177913.0
77339,"2022 GROVE LAKE DR, HUMBLE, TX 77339",30.040403,-95.223107,2695,11238,257496,232972,245234,-1440,185000.0
77339,"2191 TREE LN, HUMBLE, TX 77339",30.060357,-95.21390799999999,2343,11491,231672,209608,220640,137,209701.0
77339,"2211 HICKORY CREEK DR, HUMBLE, TX 77339",30.044359999999998,-95.219474,2210,10800,236473,213951,225212,437,206836.0
77339,"1935 SHADOW ROCK DR, HUMBLE, TX 77339",30.057897999999998,-95.223902,1855,8259,197593,178775,188184,1368,154859.0
77339,"2806 KINGS FOREST DR, HUMBLE, TX 77339",30.048634999999997,-95.206643,2950,33567,386900,346367,368476,9305,292807.0
77339,"21586 DUKE ALEXANDER DR, HUMBLE, TX 77339",30.063747999999997,-95.229479,2804,5250,245075,221735,233405,760,223100.0
77339,"2922 RED MAPLES DR, HUMBLE, TX 77339",30.053324,-95.210948,2964,10614,290664,262982,276823,-5048,237317.0
77339,"21831 GRAND LANCELOT DR, KINGWOOD, TX 77339",30.058460999999998,-95.236451,2696,6050,235615,209191,220201,2850,207330.0
77339,"3623 HIGHLAND LAKES DR, HUMBLE, TX 77339",30.05456,-95.194644,2963,10119,299730,271184,285457,-714,238544.0
77339,"3315 LOST HOLLOW DR, HUMBLE, TX 77339",30.059702,-95.221135,2694,9361,238714,215980,227347,279,209812.0
77339,"2023 WHITE OAKS HILLS LN, HUMBLE, TX 77339",30.043965000000004,-95.232671,2475,6900,228992,207184,218088,1869,202123.0
77339,"48 GREENS EDGE DR, HUMBLE, TX 77339",30.03383,-95.177352,2429,9409,295236,246924,268396,-1642,207605.0
77339,"1802 FIR CV, HUMBLE, TX 77339",30.061195,-95.225895,2122,13499,212307,192087,202197,2026,169186.0
77339,"21539 KINGS BEND DR, HUMBLE, TX 77339",30.063327,-95.23074,2261,5249,222896,199765,210279,1375,202070.0
77339,"5 DEER RIDGE ESTATES BLVD, KINGWOOD, TX 77339",30.029629999999997,-95.22379699999999,8525,79388,1757415,1340402,1489335,-21488,1580173.0
77339,"2910 ROYAL CIRCLE DR, HUMBLE, TX 77339",30.048439000000002,-95.20424100000001,3216,43510,462582,380709,409365,-2537,343599.0
77339,"3526 MAPLE PARK DR, HUMBLE, TX 77339",30.055206,-95.191515,3358,10206,311533,281863,296698,-2055,256063.0
77339,"3310 LAUREL CREST DR, HUMBLE, TX 77339",30.060901,-95.22353100000001,2178,8638,224885,203467,214176,6389,178384.0
77339,"2215 SEVEN OAKS DR, HUMBLE, TX 77339",30.039802,-95.221294,2185,10920,256108,231716,243912,254,229537.0
77339,"4107 GARDEN LAKE DR, HUMBLE, TX 77339",30.063017,-95.198776,2067,8881,220833,195595,210317,-3473,204855.0
77339,"2419 BROOKDALE DR, HUMBLE, TX 77339",30.063246999999997,-95.20007700000001,2072,8564,220236,199262,209749,-3928,183065.0
77339,"2031 HIDDEN CREEK DR, HUMBLE, TX 77339",30.050415,-95.222312,2154,10920,223689,202385,213037,2188,180360.0
77339,"2907 N COTSWOLD MANOR DR, HUMBLE, TX 77339",30.036815999999998,-95.211285,4405,9457,520699,471109,495904,4352,497023.0
77339,"2122 SOUTHERN PINES DR, HUMBLE, TX 77339",30.037227,-95.22209699999999,2904,12301,277695,251247,264471,-5867,247415.0
77339,"21412 LAMBETH RIDGE LN, KINGWOOD, TX 77339",30.048790000000004,-95.21933,2178,,254843,221808,235966,496,215570.0
77339,"26866 WELLINGTON CT, HUMBLE, TX 77339",30.060434000000004,-95.234189,1412,3206,171634,131791,153245,4453,130170.0
77339,"43 LINKS SIDE CT, HUMBLE, TX 77339",30.033751000000002,-95.175577,4824,10463,552350,495031,521085,1825,601086.0
77339,"2515 RIVERLAWN DR, HUMBLE, TX 77339",30.051078999999998,-95.211554,2463,11038,256961,232489,244725,-1132,256117.0
77339,"26120 QUEENS GLEN DR, KINGWOOD, TX 77339",30.063407,-95.23573499999999,2840,5845,244017,220777,232397,216,224920.0
77339,"2046 PINE RIVER DR, HUMBLE, TX 77339",30.051538,-95.222786,2535,9000,240147,217275,228711,1568,189082.0
77339,"1114 CHESTNUT RIDGE RD, HUMBLE, TX 77339",30.032224,-95.24197099999999,2651,15246,246447,222975,234711,6339,192000.0
77339,"1727 CHESTNUT RIDGE RD, HUMBLE, TX 77339",30.041425,-95.24216,3584,12750,346639,307764,323962,2593,287640.0
77339,"3607 ELM GLEN DR, HUMBLE, TX 77339",30.058625,-95.197174,3159,9431,305228,276158,290693,-203,239000.0
77339,"1723 HIDDEN VILLAS DR, HUMBLE, TX 77339",30.041552000000003,-95.22114599999999,2828,12371,275324,249102,262213,-1486,243510.0
77339,"2006 HICKORY CREEK DR, HUMBLE, TX 77339",30.045409000000003,-95.22454,2576,11160,257992,233422,245707,-8579,246400.0
77339,"2838 COTSWOLD MANOR DR S, KINGWOOD, TX 77339",30.033959999999997,-95.211365,4902,11698,567193,483936,520361,4717,458108.0
77339,"21534 ROSE MILL DR, KINGWOOD, TX 77339",30.062325,-95.229525,2227,5499,217187,196503,206845,443,187990.0
77339,"2014 WILDERNESS POINT DR, HUMBLE, TX 77339",30.062154,-95.22215600000001,2890,10537,250039,226225,238132,1254,218721.0
77339,"3106 CEDAR KNOLLS DR, HUMBLE, TX 77339",30.054463000000002,-95.20849399999999,2474,10788,280942,246487,265040,493,267468.0
77339,"1421 SYCAMORE LN, HUMBLE, TX 77339",30.033481,-95.235292,2203,43469,301475,261278,287119,-7332,241303.0
77339,"2119 RIVER VILLAGE DR, HUMBLE, TX 77339",30.062033000000003,-95.217682,1686,7523,180720,163508,172114,-2338,142054.0
77339,"26867 SQUIRES PARK DR, KINGWOOD, TX 77339",30.056805999999998,-95.23141600000001,2298,5555,219607,198693,209150,-206,197811.0
77339,"21615 KINGS BEND DR, KINGWOOD, TX 77339",30.063308000000003,-95.22836099999999,1861,5249,193783,170017,182814,-1828,182040.0
77339,"3019 ROYAL CIRCLE DR, HUMBLE, TX 77339",30.049220000000002,-95.203512,3856,38220,481863,435971,458917,944,333003.0
77339,"26853 MANOR CREST CT, KINGWOOD, TX 77339",30.060232,-95.236027,1525,3168,173878,144115,156647,1924,136320.0
77339,"58 KINGWOOD GREENS DR, HUMBLE, TX 77339",30.033052,-95.181214,4469,20038,564990,487239,518339,-3395,340000.0
77339,"26869 MYSTIC CASTLE LN, HUMBLE, TX 77339",30.05977,-95.232388,1905,5500,209040,185150,199086,-1013,164190.0
77339,"21510 ROSE MILL DR, KINGWOOD, TX 77339",30.06232,-95.229173,2043,5499,217971,197211,207591,104,188220.0
77339,"3311 COURTLAND MANOR LN, HUMBLE, TX 77339",30.062368,-95.189418,2551,11269,269098,243470,256284,-1893,238000.0
77339,"3514 WILLOW RIDGE DR, HUMBLE, TX 77339",30.057565000000004,-95.19703299999999,4240,10820,488396,433106,460751,757,440401.0
77339,"2118 LAZY GROVE DR, HUMBLE, TX 77339",30.045372999999998,-95.220786,1938,10799,229449,201572,214438,-1531,209825.0
77339,"3438 SANDY FORKS DR, HUMBLE, TX 77339",30.058642,-95.199124,2505,10197,260353,235557,247955,-2954,225723.0
77339,"2134 WILLOW POINT DR, HUMBLE, TX 77339",30.054812,-95.217252,2368,9958,228227,206491,217359,3930,163387.0
77339,"26032 KNIGHTS TOWER DR, KINGWOOD, TX 77339",30.048790000000004,-95.21933,3527,7601,325451,288607,307029,2998,304500.0
77339,"2251 KINGS TRL, HUMBLE, TX 77339",30.04079,-95.17940899999999,4192,14684,510231,461637,485934,3183,434702.0
77339,"3230 VILLAGE FALLS CT, HUMBLE, TX 77339",30.055073999999998,-95.206326,2337,7440,233173,210967,222070,1772,200000.0
77339,"26841 IRON MANOR LN, HUMBLE, TX 77339",30.060259999999996,-95.231527,2282,5949,213429,193103,203266,-900,171700.0
77339,"2815 N COTSWOLD MANOR DR, HUMBLE, TX 77339",30.036592,-95.212733,2967,10964,467105,396599,440665,7041,462477.0
77339,"1103 SOUTHERN HILLS RD, HUMBLE, TX 77339",30.047884999999997,-95.240666,2879,35196,339970,283308,314787,-12438,260950.0
77339,"2807 N COTSWOLD MANOR DR, HUMBLE, TX 77339",30.036524,-95.21283100000001,3155,16657,404566,289999,358023,11076,
77339,"1224 BUTTERCUP LN, HUMBLE, TX 77339",30.034868,-95.227992,2590,46709,338953,297383,319767,2119,256000.0
77339,"4010 GARDEN LAKE DR, HUMBLE, TX 77339",30.06239,-95.199382,3094,9239,260614,235794,248204,1208,213608.0
77339,"26875 REGENCY PINES DR, HUMBLE, TX 77339",30.057052000000002,-95.237339,2542,10001,229875,202205,212847,-4355,193210.0
77339,"3206 VILLA PARK DR, HUMBLE, TX 77339",30.058346999999998,-95.203492,2287,13102,234662,212314,223488,554,226074.0
77339,"4011 BUCKEYE CREEK RD, HUMBLE, TX 77339",30.063564000000003,-95.189614,2317,6765,270721,240073,255397,2148,271147.0
77339,"3231 VILLAGEDALE DR, HUMBLE, TX 77339",30.060270000000003,-95.192798,2010,11631,213387,193065,203226,-3851,158978.0
77339,"2243 DEER COVE TRL, HUMBLE, TX 77339",30.034342,-95.21942,3480,14723,350081,307942,324149,-462,278836.0
77339,"3610 GARDEN LAKE DR, HUMBLE, TX 77339",30.058237,-95.20334,2478,11090,269641,243961,256801,-2919,245436.0
77339,"2415 VILLA CREEK DR, HUMBLE, TX 77339",30.053751000000002,-95.211846,3024,11827,296898,268622,282760,-4682,227063.0
77339,"2510 LAKE GARDENS CT, HUMBLE, TX 77339",30.047959000000002,-95.215435,3823,28501,517930,458738,493267,246,478906.0
77339,"3426 EVERGREEN GLADE DR, HUMBLE, TX 77339",30.062746999999998,-95.22381999999999,2097,9749,220232,199258,209745,5181,179493.0
77339,"21476 PALACE PINES DR, HUMBLE, TX 77339",30.055163,-95.24141,1755,6334,197358,173154,186187,6287,150280.0
77339,"21479 ROSE MILL DR, KINGWOOD, TX 77339",30.062585,-95.228597,2019,5250,217343,196643,206993,410,172200.0
77339,"2302 LAKE VILLAGE DR, HUMBLE, TX 77339",30.042661,-95.218046,3937,30200,535519,479417,510018,1970,445763.0
77339,"2010 WOODFORD GREEN DR, HUMBLE, TX 77339",30.043916999999997,-95.217474,3170,38686,416338,325501,378489,-15270,417326.0
77339,"21800 WHISPERING FOREST DR, HUMBLE, TX 77339",30.056103000000004,-95.236269,2154,7126,207204,187470,197337,-5657,164900.0
77339,"26876 TOWERGUARD DR, HUMBLE, TX 77339",30.05749,-95.239471,2099,7231,224807,201478,212082,-8993,188670.0
77339,"26936 CHATEAU LAKE DR, KINGWOOD, TX 77339",30.056952000000003,-95.227823,2396,7597,239608,212224,228198,569,220195.0
77339,"2125 LAKE VILLAGE DR, HUMBLE, TX 77339",30.043522999999997,-95.221942,2000,2252,177596,160682,169139,1333,116185.0
77339,"2322 KINGS TRL, HUMBLE, TX 77339",30.041063,-95.179574,3831,25745,532506,481792,507149,11983,456165.0
77339,"3530 DEERBROOK DR, HUMBLE, TX 77339",30.056178000000003,-95.193874,3708,11682,349944,316616,333280,1382,328840.0
77339,"3007 EVERGREEN GLADE DR, HUMBLE, TX 77339",30.055559999999996,-95.226268,1903,8281,198919,179975,189447,894,158632.0
77339,"3318 LOST HOLLOW DR, HUMBLE, TX 77339",30.059732,-95.220815,2530,7610,231435,209393,220414,-1834,199336.0
77339,"21848 GRAND LANCELOT DR, KINGWOOD, TX 77339",30.058715000000003,-95.23615699999999,1891,6609,205086,185554,195320,-241,170670.0
77339,"21729 YORK TIMBERS DR, KINGWOOD, TX 77339",30.053290999999998,-95.236547,1846,6368,200446,181356,190901,-1284,159296.0
77339,"2326 EVEREST WAY, HUMBLE, TX 77339",30.048228,-95.232807,1780,3345,183864,162851,175109,2824,159000.0
77339,"21884 MAIDENS CROSSING DR, HUMBLE, TX 77339",30.057782,-95.23419399999999,2946,7016,244423,221145,232784,-659,216080.0
77339,"1930 PINE RIVER DR, HUMBLE, TX 77339",30.051707,-95.224719,2145,9540,222818,201598,212208,1076,156094.0
77339,"3706 SWIFT CREEK DR, HUMBLE, TX 77339",30.058553999999997,-95.192564,3561,10846,331109,299575,315342,3206,264918.0
77339,"1500 MISTLETOE LN, HUMBLE, TX 77339",30.037503000000005,-95.23405799999999,2274,58650,362876,314492,345596,336,308031.0
77339,"21710 SWEET BAY RD, HUMBLE, TX 77339",30.026051000000002,-95.22542299999999,1604,15898,136781,98202,116907,567,36387.0
77339,"6 MAJESTIC FALLS DR, KINGWOOD, TX 77339",30.028713,-95.22623,6194,40737,1312160,1112992,1171571,44467,893307.0
77339,"3 FOREST SHORES DR, HUMBLE, TX 77339",30.044759999999997,-95.207662,3730,36608,507249,435469,478537,-862,400000.0
77339,"3014 W LAKE CRESCENT DR, HUMBLE, TX 77339",30.044271000000002,-95.20524300000001,2697,7400,342274,309676,325975,2518,234022.0
77339,"1923 ROUND SPRING DR, HUMBLE, TX 77339",30.058591999999997,-95.223423,1936,8610,200568,181466,191017,543,166986.0
77339,"1947 SHADOW ROCK DR, HUMBLE, TX 77339",30.057624,-95.223517,1811,7985,190144,172036,181090,-226,147848.0
77339,"1521 MISTLETOE LN, HUMBLE, TX 77339",30.037784000000002,-95.23360500000001,2504,44390,307891,272704,293230,-6226,235321.0
77339,"3022 W LAKE CRESCENT DR, HUMBLE, TX 77339",30.044055,-95.205139,2431,7950,279969,241441,256852,-3849,151938.0
77339,"2326 BROOKDALE DR, HUMBLE, TX 77339",30.062509999999996,-95.200468,2295,9117,254314,230094,242204,2182,209802.0
77339,"4007 BUCKEYE CREEK RD, HUMBLE, TX 77339",30.063494,-95.189603,2551,6765,266616,241224,253920,1527,242000.0
77339,"22118 RUSTIC BRIDGE LN, HUMBLE, TX 77339",30.032796,-95.245651,1621,18600,192397,152168,174906,175,137451.0
77339,"3610 EVERGREEN GLADE DR, HUMBLE, TX 77339",30.063028000000003,-95.222351,2003,9100,208852,188962,198907,-2560,190000.0
77339,"6 TWIN GREENS CT, HUMBLE, TX 77339",30.035631,-95.17665500000001,8945,18080,1307014,1116903,1188195,31035,851499.0
77339,"23 LINKS SIDE CT, HUMBLE, TX 77339",30.033334999999997,-95.175273,5504,12418,675010,482934,548789,4491,808365.0
77339,"3615 SHADY GREEN DR, HUMBLE, TX 77339",30.058707000000002,-95.196283,2679,16296,291435,263679,277557,3353,226014.0
77339,"21010 ALDENS OAK, KINGWOOD, TX 77339",30.060966999999998,-95.237041,1152,3253,155978,130963,147149,843,116380.0
77339,"2078 SHADOW ROCK DR, HUMBLE, TX 77339",30.057888000000002,-95.218595,1988,8172,183470,155512,174733,610,122650.0
77339,"1210 MUSTANG TRL, HUMBLE, TX 77339",30.040126,-95.238731,2080,14901,217404,196698,207051,-618,171862.0
77339,"1902 LAUREL HILL DR, HUMBLE, TX 77339",30.048703000000003,-95.225914,3195,10558,304340,275356,289848,-4401,280161.0
77339,"2006 RIDGEWAY PARK DR, HUMBLE, TX 77339",30.044468,-95.227527,1757,6216,191058,155009,180243,1022,168640.0
77339,"1611 SUNRISE TRL, KINGWOOD, TX 77339",30.026195,-95.231134,1752,30536,165222,115655,137685,709,73420.0
77339,"2406 BROOKDALE DR, HUMBLE, TX 77339",30.062928000000003,-95.200046,2087,10164,222025,200879,211452,-3159,199925.0
77339,"1811 SPRUCE KNOB DR, HUMBLE, TX 77339",30.054506,-95.22545,1900,8999,201524,182332,191928,-2860,168128.0
77339,"26867 TREASURES RIDGE DR, KINGWOOD, TX 77339",30.056334999999997,-95.232132,1908,5662,213315,192999,203157,7910,173413.0
77339,"2318 TWIN GROVE DR, HUMBLE, TX 77339",30.044679,-95.20025799999999,4115,25277,429557,306258,397738,-12717,463159.0
77339,"3703 PALMETTO CREEK DR, HUMBLE, TX 77339",30.053643,-95.191139,3235,14122,313761,283879,298820,-1007,292978.0
77339,"26899 CASTLECLIFF LN, KINGWOOD, TX 77339",30.056720000000002,-95.238297,2721,5241,244008,220770,232389,-433,196240.0
77339,"26950 ARMOR SMITH DR, KINGWOOD, TX 77339",30.057177000000003,-95.242695,2062,18460,217607,196883,207245,-412,188100.0
77339,"2018 PARKDALE DR, HUMBLE, TX 77339",30.054160999999997,-95.222792,2046,8024,215326,194818,205072,-749,196270.0
77339,"22112 LANCELOT OAKS DR, HUMBLE, TX 77339",30.057282,-95.229039,1766,6466,221686,196351,211130,3679,194987.0
77339,"3410 WILLOW RIDGE DR, HUMBLE, TX 77339",30.057807,-95.20011099999999,2894,9958,280596,248830,264713,-1383,220000.0
77339,"2031 SOUTHERN PINES DR, HUMBLE, TX 77339",30.038131,-95.224866,2370,12256,277446,243095,264234,347,271969.0
