zip,address,lat,lng,house area,lot area,high,low,estimate,month value change,property tax
77379,"7762 CHAMPION PINES DR, SPRING, TX 77379",30.019327,-95.532158,1164,,110198,96810,102989,-147,96705.0
77379,"16727 GROVE MESA TRL, SPRING, TX 77379",30.004713,-95.55693199999999,2000,6189,211429,191293,201361,2835,191865.0
77379,"9818 ORANGEVALE DR, SPRING, TX 77379",30.006773,-95.559291,1511,8847,170654,152776,162528,-1872,142433.0
77379,"17539 METHIL DR, SPRING, TX 77379",30.022196,-95.56922,1591,6600,167939,148746,159942,1760,130907.0
77379,"16006 WINCHMORE HILL DR, SPRING, TX 77379",30.005065000000002,-95.538149,3379,8276,335246,303318,319282,269,283176.0
77379,"17807 SHADY ARBOR LN, SPRING, TX 77379",30.022894,-95.503073,3771,10000,393020,355590,374305,-885,386502.0
77379,"16014 WINCHMORE HILL DR, SPRING, TX 77379",30.004959000000003,-95.538081,3062,7865,331247,299699,315473,2662,288343.0
77379,"17835 SURREYWEST LN, SPRING, TX 77379",30.025078999999998,-95.50065699999999,3180,14815,310686,281096,295891,1597,257000.0
77379,"17718 DOVE TREE LN, SPRING, TX 77379",30.023388,-95.545746,3297,9840,308075,278735,293405,2315,250000.0
77379,"10006 ORANGEVALE DR, SPRING, TX 77379",30.008142,-95.561008,1877,8750,194493,175969,185231,1123,138000.0
77379,"16018 GORE GRASS CT, SPRING, TX 77379",30.018559999999997,-95.503846,3337,10080,352616,313071,329548,-3930,245343.0
77379,"17803 ENGLISH IVY LN, SPRING, TX 77379",30.022997999999998,-95.502054,2734,10511,293023,265117,279070,-1784,252000.0
77379,"9727 JOHN BANK DR, SPRING, TX 77379",30.018151,-95.565855,2264,8028,210139,190125,200132,4598,146900.0
77379,"8607 HERTS RD, SPRING, TX 77379",30.006101,-95.53804699999999,3024,8960,311241,281599,296420,352,250000.0
77379,"9122 MEMORIAL HILLS DR, SPRING, TX 77379",30.026175,-95.558196,2482,8812,262360,215772,245196,-3418,230510.0
77379,"17014 VINTAGE WOOD LN, SPRING, TX 77379",30.014964000000003,-95.541948,2532,11966,240484,213000,229032,2538,201831.0
77379,"9403 TAIDSWOOD DR, SPRING, TX 77379",30.004575,-95.548364,2497,10977,246629,220792,234885,-2473,239825.0
77379,"8014 ROYAL CREST CT, SPRING, TX 77379",30.022871000000002,-95.53965699999999,4338,10402,394741,357147,375944,-863,350723.0
77379,"8802 VISTA SPRINGS DR, SPRING, TX 77379",30.012203000000003,-95.548723,2241,11016,233578,209339,220357,-1490,197100.0
77379,"7919 OAK MOSS DR, SPRING, TX 77379",30.017996000000004,-95.535471,2563,10030,220392,193105,209897,-2911,176520.0
77379,"16523 MANNINGTREE LN, SPRING, TX 77379",30.007284999999996,-95.53564899999999,2087,4813,239164,207576,225626,-358,217336.0
77379,"17802 SHADY ARBOR LN, SPRING, TX 77379",30.022776,-95.502679,4458,10515,400069,358553,377424,-2663,330000.0
77379,"17010 BANCHORY AVE, SPRING, TX 77379",30.015853000000003,-95.558878,1599,8448,177011,160153,168582,-1681,152074.0
77379,"8614 DELACHASE CIR, SPRING, TX 77379",30.007015999999997,-95.53882,3639,12201,340317,307905,324111,1212,252160.0
77379,"17319 HILL VIEW LN, SPRING, TX 77379",30.019996999999996,-95.544187,3378,11700,291896,256098,275374,-784,173000.0
77379,"17818 SPLIT CREEK DR, SPRING, TX 77379",30.021753999999998,-95.554096,2897,8939,298807,267798,281893,98,260506.0
77379,"6307 WIMBLEDON VILLAS DR, SPRING, TX 77379",30.026053000000005,-95.50929000000001,3160,13551,333940,302136,318038,6327,260451.0
77379,"17215 HILL VIEW LN, SPRING, TX 77379",30.018615999999998,-95.54278599999999,3391,11269,296645,268393,282519,-264,247953.0
77379,"9103 WALLINGHAM CT, SPRING, TX 77379",30.011377000000003,-95.55738199999999,1808,8829,194966,176398,185682,10,166672.0
77379,"16114 CHAMPION DR, SPRING, TX 77379",30.001393,-95.544821,4951,15600,493076,446116,469596,-11638,424592.0
77379,"16303 COCHET SPRING DR, SPRING, TX 77379",30.019672999999997,-95.507521,3507,12004,382385,342325,364176,3384,183393.0
77379,"7602 NOAH LN, SPRING, TX 77379",30.022567,-95.532889,4892,10500,595085,527717,561401,7324,604478.0
77379,"16314 KLEINWOOD DR, SPRING, TX 77379",30.011785999999997,-95.52399799999999,2285,8760,207904,186124,198004,1113,166181.0
77379,"8007 NORTHBRIDGE CIR, SPRING, TX 77379",30.022443,-95.541772,7315,20376,696177,629875,663026,4736,502049.0
77379,"9118 JAN GLEN LN, SPRING, TX 77379",30.023139,-95.560168,1494,15398,186771,168983,177877,681,148218.0
77379,"8107 ABBY LANE CIR, SPRING, TX 77379",30.020173,-95.542427,3400,14570,291607,263835,277721,-3336,234783.0
77379,"9718 ORANGEVALE DR, SPRING, TX 77379",30.006666,-95.557789,1530,6421,176167,159389,167778,1426,141203.0
77379,"16813 KETTLE CREEK DR, SPRING, TX 77379",30.006488,-95.554829,2405,13809,227158,203585,214300,-1621,170492.0
77379,"16418 HEIDEN CIR, SPRING, TX 77379",30.009388,-95.53173199999999,1794,7937,194668,176128,185398,-424,152673.0
77379,"6306 LAVER LOVE DR, SPRING, TX 77379",30.018089,-95.505502,3775,10001,398515,360561,379538,1730,246401.0
77379,"9426 HALKIRK ST, SPRING, TX 77379",30.015074,-95.559836,2356,7292,210548,190496,200522,2343,174242.0
77379,"7622 HEATHROW LN, SPRING, TX 77379",30.009299,-95.525862,2176,8050,209668,185932,197800,-260,138101.0
77379,"6714 WIMBLEDON ESTATES DR, SPRING, TX 77379",30.018859000000003,-95.51500300000001,3361,12001,298264,269858,284061,-1226,230615.0
77379,"8142 VINTAGE CREEK DR, SPRING, TX 77379",30.018902,-95.54090500000001,3042,12000,300527,271905,286216,14748,232803.0
77379,"8223 TURNMILL CT, SPRING, TX 77379",30.007531,-95.53299399999999,3283,9347,320605,290071,305338,4551,249000.0
77379,"9211 MEMORIAL PINES WAY, SPRING, TX 77379",30.025192999999998,-95.557662,3273,8477,288302,258384,271983,-350,232078.0
77379,"9123 HERTS RD, SPRING, TX 77379",30.002029999999998,-95.543451,2463,7803,278808,252254,265531,-734,225716.0
77379,"9207 BAYOU BLUFF DR, SPRING, TX 77379",30.01097,-95.55309799999999,1899,6194,195693,177055,186374,1008,147831.0
77379,"16115 SOUTHAMPTON DR, SPRING, TX 77379",30.013429,-95.51508000000001,2762,9600,231061,207083,217982,-156,195769.0
77379,"9111 WOODHOUSE DR, SPRING, TX 77379",30.010989000000002,-95.55019200000001,1837,7548,194152,175662,184907,169,158485.0
77379,"9215 TAIDSWOOD DR, SPRING, TX 77379",30.003106,-95.550157,2268,9480,237268,214672,225970,2024,212740.0
77379,"7102 SANDY KNOLLS DR, SPRING, TX 77379",30.025928000000004,-95.525474,1854,10001,191638,173386,182512,-117,143954.0
77379,"16022 GORE GRASS CT, SPRING, TX 77379",30.018518,-95.503819,3782,10110,380140,343936,362038,72,311834.0
77379,"7906 NORTHBRIDGE DR, SPRING, TX 77379",30.022893,-95.54231999999999,4362,11702,389126,348745,367100,-4019,324853.0
77379,"9102 COLONY COVE DR, SPRING, TX 77379",30.015206,-95.556386,1923,7379,205392,185830,195611,1337,185228.0
77379,"9102 WOODHOUSE DR, SPRING, TX 77379",30.011186,-95.55041700000001,1899,10912,202848,183530,193189,871,156990.0
77379,"9518 STOCKPORT DR, SPRING, TX 77379",29.999583,-95.551589,3461,9718,341714,309170,325442,410,291412.0
77379,"31 LAKE STERLING GATE DR, SPRING, TX 77379",30.008967,-95.542721,4664,8960,634366,503118,546867,11884,644107.0
77379,"16406 FARNELL CT, SPRING, TX 77379",30.008509000000004,-95.534278,3259,9104,331886,300278,316082,7079,295229.0
77379,"8014 FONTHILL DR, SPRING, TX 77379",30.008288,-95.53184399999999,4255,8999,424462,379995,404250,-555,348000.0
77379,"16410 KRAYOLA LN, SPRING, TX 77379",30.011499,-95.529721,2096,11150,203600,182271,193905,-2950,172022.0
77379,"16706 GROVE MESA TRL, SPRING, TX 77379",30.004483,-95.556639,2697,5458,243353,217859,231765,-3351,218839.0
77379,"16419 WOLVERTON DR, SPRING, TX 77379",30.019362,-95.51601099999999,2558,10001,246420,215911,234686,1071,213063.0
77379,"16311 KNIGHTRIDER DR, SPRING, TX 77379",30.005614,-95.533938,2514,5174,268574,242996,255785,512,244684.0
77379,"9630 CRAIL DR, SPRING, TX 77379",30.011816999999997,-95.56039399999999,1550,7261,163368,147810,155589,-23,132389.0
77379,"7927 LITCHFIELD LN, SPRING, TX 77379",30.010386999999998,-95.529724,2262,7928,203272,183912,193592,-1028,153000.0
77379,"8922 SUNNY POINT DR, SPRING, TX 77379",30.017636,-95.55252,2376,6743,213913,191503,203727,-1456,190129.0
77379,"8911 SUNNY POINT DR, SPRING, TX 77379",30.017525,-95.552132,1983,6563,199706,180686,190196,490,168097.0
77379,"7735 CHAMPION PINES DR, SPRING, TX 77379",30.018932,-95.532271,1860,592943,203510,159650,175440,2340,128607.0
77379,"16114 MAPLEHURST DR, SPRING, TX 77379",30.001941,-95.541234,3596,8540,343286,310592,326939,51,283895.0
77379,"17823 BURNT LEAF LN, SPRING, TX 77379",30.024506,-95.501685,3384,8620,336678,301407,320646,3580,339255.0
77379,"17019 VINTAGE WOOD LN, SPRING, TX 77379",30.014764000000003,-95.542176,3043,9374,260427,235625,248026,-3169,221887.0
77379,"8514 CANYON PINE DR, SPRING, TX 77379",30.013222,-95.544735,2463,8163,229434,203213,218509,-4957,201401.0
77379,"9111 HARMONY HILL CT, SPRING, TX 77379",30.013116999999998,-95.55250799999999,1899,6438,197029,178265,187647,528,158459.0
77379,"8910 KILRENNY DR, SPRING, TX 77379",30.019683,-95.553963,3396,8568,317733,287473,302603,-4557,260516.0
77379,"17835 SPLIT CREEK DR, SPRING, TX 77379",30.022539000000002,-95.555038,2653,9600,264618,236896,252017,2916,232808.0
77379,"8011 DUTCH OAK CIR, SPRING, TX 77379",30.023936,-95.542801,4361,10018,361569,321019,337915,7160,302955.0
77379,"7124 DEER CREEK CT, SPRING, TX 77379",30.023257,-95.522235,1484,1825,126076,96277,114615,-326,98693.0
77379,"6107 GLENMERE LN, SPRING, TX 77379",30.022665000000003,-95.502199,5299,15542,479598,433922,456760,1334,406405.0
77379,"16302 GRAVEN HILL DR, SPRING, TX 77379",30.007820000000002,-95.532696,3820,9992,389198,352132,370665,-3516,346038.0
77379,"9622 REX CREEK CT, SPRING, TX 77379",30.005602000000003,-95.55739100000001,1940,6138,207001,187287,197144,752,187789.0
77379,"17110 LAPEER CT, SPRING, TX 77379",30.022132,-95.531681,4780,9960,647010,541136,588191,-2057,625000.0
77379,"7902 LITCHFIELD LN, SPRING, TX 77379",30.010842999999998,-95.52946800000001,2589,8799,247373,221702,233371,2692,190273.0
77379,"17822 SHADOW VALLEY DR, SPRING, TX 77379",30.023397999999997,-95.551415,2823,10711,263097,235535,250569,1715,221031.0
77379,"17711 SURREYWEST LN, SPRING, TX 77379",30.022253999999997,-95.499326,3105,9415,289716,262124,275920,352,254590.0
77379,"16847 ASHBRIDGE CT, SPRING, TX 77379",30.009140999999996,-95.55283299999999,2120,7122,202771,183459,193115,-171,165577.0
77379,"16331 KNIGHTRIDER DR, SPRING, TX 77379",30.005436,-95.534812,2166,4500,256086,231696,243891,981,227504.0
77379,"8902 TWEEDBROOK DR, SPRING, TX 77379",30.01652,-95.54859,2899,8032,243518,220326,231922,809,217715.0
77379,"9330 BAYOU BLUFF DR, SPRING, TX 77379",30.008398,-95.55516,1954,6032,199026,180072,189549,-133,163964.0
77379,"17414 COURTNEY PINE CIR, SPRING, TX 77379",30.023728000000002,-95.563539,4939,13300,485466,439232,462349,393,427037.0
77379,"16003 WINCHMORE HILL DR, SPRING, TX 77379",30.004975,-95.538453,3752,19445,416033,354399,385216,4450,302418.0
77379,"17007 FENNY BRIDGE LN, SPRING, TX 77379",30.017765,-95.556979,1852,6403,178730,153197,170219,4744,157901.0
77379,"16206 YORK MINSTER DR, SPRING, TX 77379",30.015113,-95.51396899999999,2749,10000,249257,218397,237388,-347,187123.0
77379,"5818 SPRINGTON LN, SPRING, TX 77379",30.022353000000003,-95.49560699999999,2936,11387,296233,268021,282127,706,261829.0
77379,"16818 MARKRIDGE DR, SPRING, TX 77379",30.007386999999998,-95.556848,1709,6887,189025,171023,180024,2855,147312.0
77379,"17431 MEMORIAL MILLS DR, SPRING, TX 77379",30.025437,-95.56234599999999,3781,8891,332027,294439,313233,-2403,279756.0
77379,"17811 MAHOGANY FOREST DR, SPRING, TX 77379",30.023215000000004,-95.54940500000001,3105,10454,261369,225728,237608,-102,242122.0
77379,"8319 EVERLEAF DR, SPRING, TX 77379",30.016790999999998,-95.544317,3336,10306,300191,271601,285896,-1556,242516.0
77379,"17114 VALLEY PALMS DR, SPRING, TX 77379",30.015832,-95.54736,2262,6765,236812,214258,225535,-1838,208251.0
77379,"8322 VINTAGE CREEK DR, SPRING, TX 77379",30.01538,-95.543178,3036,11887,281265,254477,267871,342,232848.0
77379,"8015 TWINING OAKS LN, SPRING, TX 77379",30.015856,-95.537572,3708,10441,318656,271448,295052,5554,215132.0
77379,"17918 SHADOW VALLEY DR, SPRING, TX 77379",30.024065000000004,-95.551896,3683,10201,331792,291854,307215,-1193,264183.0
77379,"17210 SILVERTHORNE LN, SPRING, TX 77379",30.021133000000003,-95.53864300000001,4133,10093,389702,352588,371145,-6315,349389.0
77379,"9723 JOHN BANK DR, SPRING, TX 77379",30.018174,-95.565814,2967,7479,237032,201916,219474,4870,193593.0
77379,"16803 SPRUCE RUN DR, SPRING, TX 77379",30.006003000000003,-95.555712,1430,7166,171060,151694,161377,1831,126612.0
77379,"16610 MANNINGTREE LN, SPRING, TX 77379",30.008008,-95.53578,3300,4948,328470,294383,309877,-2036,300000.0
77379,"17511 COLONY STREAM DR, SPRING, TX 77379",30.014226,-95.558817,1530,6652,181071,156929,172449,2051,162192.0
77379,"7707 THEISSETTA DR, SPRING, TX 77379",30.017851,-95.53186600000001,1436,,137029,114191,126879,1335,110000.0
77379,"9322 JAN GLEN LN, SPRING, TX 77379",30.021468,-95.56309399999999,1494,13198,188138,166636,179179,-46,174764.0
77379,"8723 KENNET VALLEY RD, SPRING, TX 77379",30.001894,-95.53888,4246,10860,430899,389861,410380,1288,396758.0
77379,"17123 WUNDER HILL DR, SPRING, TX 77379",30.020419,-95.537249,5483,14288,472404,427414,449909,16516,369000.0
77379,"8319 LICHEN LN, SPRING, TX 77379",30.013501,-95.540048,2702,16000,255262,228772,240813,-2401,184722.0
77379,"17207 ATHERINGTON PL, SPRING, TX 77379",30.023232,-95.532774,4845,12223,434177,385484,405773,5172,325840.0
77379,"17422 LARGS CIR, SPRING, TX 77379",30.020390999999996,-95.567226,1542,7048,164181,142290,156363,-674,132224.0
77379,"16807 ORANGEVALE CT, SPRING, TX 77379",30.006521999999997,-95.557689,1548,8625,175516,157129,167158,-150,137284.0
77379,"16964 CHAPEL PINES DR, SPRING, TX 77379",30.018179999999997,-95.533002,1046,,111514,97708,106204,-254,82896.0
77379,"17515 COLONY CREEK DR, SPRING, TX 77379",30.014535,-95.557653,2552,8656,241247,215973,229759,5659,209730.0
77379,"6915 FARNABY CT, SPRING, TX 77379",30.015804,-95.51558,2970,10036,266366,240998,253682,-4621,225184.0
77379,"16802 ORANGEVALE CT, SPRING, TX 77379",30.006525,-95.557372,1615,7941,183142,165700,174421,1403,145544.0
77379,"9719 DALMALLY ST, SPRING, TX 77379",30.018829999999998,-95.566257,1801,6599,181158,163904,172531,1660,134197.0
77379,"9607 LARGS DR, SPRING, TX 77379",30.020534,-95.566449,1542,6710,166642,149185,158707,-1538,130895.0
77379,"7715 KLEINGREEN LN, SPRING, TX 77379",30.011601000000002,-95.52538100000001,1973,8638,278038,200935,233645,-657,139280.0
77379,"18019 MAHOGANY FOREST DR, SPRING, TX 77379",30.025789000000003,-95.551299,4517,21601,464743,400196,430318,-19759,410000.0
77379,"8823 CREEK WATER DR, SPRING, TX 77379",30.021023,-95.55366,3774,8400,332567,292161,310810,-6462,277052.0
77379,"16030 CHAMPION DR, SPRING, TX 77379",29.999261999999998,-95.544078,3950,14353,415453,375887,395670,2788,342000.0
77379,"17235 HARMONY HILL DR, SPRING, TX 77379",30.012711,-95.55319300000001,1638,6599,197836,178994,188415,-262,144528.0
77379,"9714 BALLIN DAVID DR, SPRING, TX 77379",30.017929,-95.565127,1752,7370,173281,153478,165030,-426,131132.0
77379,"8907 VILLAGE HILLS DR, SPRING, TX 77379",30.016734999999997,-95.55064499999999,2456,6299,225042,201689,212304,2504,194765.0
77379,"9214 JAN GLEN LN, SPRING, TX 77379",30.023069,-95.560299,2184,13199,212492,192254,202373,3069,179211.0
77379,"17303 BONNARD CIR, SPRING, TX 77379",30.025273,-95.53095,4837,8869,382723,346273,364498,732,322502.0
77379,"17411 HARMONY HILL DR, SPRING, TX 77379",30.014127000000002,-95.55537700000001,3172,7982,266641,229608,246890,1840,215000.0
77379,"9646 REX CREEK CT, SPRING, TX 77379",30.005633000000003,-95.55778199999999,1875,6141,204637,185147,194892,1973,186162.0
77379,"7507 NAREMORE DR, SPRING, TX 77379",30.026425,-95.532765,6980,16026,523832,438114,476211,-3348,399000.0
77379,"17111 HARMONY HILL DR, SPRING, TX 77379",30.011415000000003,-95.55117299999999,1631,6708,186801,169011,177906,2764,146373.0
77379,"16603 SIR WILLIAM DR, SPRING, TX 77379",30.021017999999998,-95.515527,2634,14166,260287,235497,247892,-1772,222727.0
77379,"6602 CHANCELLOR DR, SPRING, TX 77379",30.01703,-95.51101,2842,5998,257968,233400,245684,2841,210246.0
77379,"17819 ENGLISH IVY LN, SPRING, TX 77379",30.023887,-95.50247399999999,3608,10000,370179,331764,349225,11088,310000.0
77379,"7911 ANNOLA LN, SPRING, TX 77379",30.010707,-95.530842,2234,7645,204076,184640,194358,-1068,154000.0
77379,"8827 W VALLEY PALMS DR, SPRING, TX 77379",30.022692,-95.55449,2308,8960,249080,190737,224396,-7778,223801.0
77379,"9911 ORANGEVALE DR, SPRING, TX 77379",30.006964,-95.56068,1743,6820,187502,169644,178573,1305,144268.0
77379,"8139 THEISSWOOD RD, SPRING, TX 77379",30.026159000000003,-95.544124,3234,10193,269661,243979,256820,244,224517.0
77379,"9303 WINDRUSH DR, SPRING, TX 77379",29.997652000000002,-95.54432800000001,5203,24925,526274,476152,501213,-2418,492424.0
77379,"16833 AMIDON DR, SPRING, TX 77379",30.024138,-95.520657,1276,6490,153557,138933,146245,1032,108607.0
77379,"7126 DEER CREEK CT, SPRING, TX 77379",30.023263,-95.522224,1410,3372,132869,105338,119702,123,95568.0
77379,"9726 BIRSAY ST, SPRING, TX 77379",30.011028000000003,-95.56053100000001,1805,6708,185453,167791,176622,665,137000.0
77379,"8903 SPOON CREEK LN, SPRING, TX 77379",30.022616999999997,-95.55677299999999,2674,9725,263171,238107,250639,-202,228765.0
77379,"7906 LITCHFIELD LN, SPRING, TX 77379",30.010808,-95.529535,2202,8250,207388,187636,197512,-907,182449.0
77379,"16722 GROVE MESA TRL, SPRING, TX 77379",30.004642999999998,-95.55662199999999,2344,6225,215378,190763,205122,111,196423.0
77379,"8006 HERTFORDSHIRE CIR, SPRING, TX 77379",30.025407,-95.538595,4479,43560,449617,383618,412493,5720,303000.0
77379,"16502 CHAMPIONS COVE CIR, SPRING, TX 77379",30.003556,-95.552116,4180,15585,456307,412849,434578,-3024,385336.0
77379,"15918 CHILTREN CIR, SPRING, TX 77379",29.995965999999996,-95.54379300000001,5558,40197,724214,655242,689728,-1529,700000.0
77379,"17127 KIRKCHAPEL ST, SPRING, TX 77379",30.019016999999998,-95.559351,2425,6599,209975,189977,199976,712,174005.0
77379,"17803 BURNT LEAF LN, SPRING, TX 77379",30.023307,-95.501166,4733,10515,421495,381353,401424,4118,358000.0
77379,"5215 BROWNLEE LN, SPRING, TX 77379",30.026507000000002,-95.48814200000001,2616,8999,225734,204236,214985,-1084,190277.0
77379,"7122 DEER CREEK CT, SPRING, TX 77379",30.023251000000002,-95.522245,1161,1826,105645,80900,95176,-1130,88369.0
77379,"8303 HIDDEN TRAIL LN, SPRING, TX 77379",30.022203,-95.545574,2941,9011,293028,265120,279074,-471,265339.0
77379,"16506 EMILIA CT, SPRING, TX 77379",30.00295,-95.553861,5213,15111,521574,471900,496737,798,465229.0
77379,"6318 CASH OAKS DR, SPRING, TX 77379",30.01515,-95.501735,3411,7436,315107,279095,300102,-2534,295988.0
77379,"17222 SHADOW VALLEY DR, SPRING, TX 77379",30.016161999999998,-95.545643,2576,9030,248136,222141,236320,-4910,211000.0
77379,"8911 SPOON CREEK LN, SPRING, TX 77379",30.022592,-95.556732,2691,13003,274842,248666,261754,-2535,241004.0
77379,"17627 OAKSHAM LN, SPRING, TX 77379",30.022353000000003,-95.495841,3401,10681,293896,265906,279901,-1939,249686.0
77379,"6911 FARNABY CT, SPRING, TX 77379",30.015788,-95.51561099999999,2721,9149,242452,214744,230907,-2388,184000.0
77379,"17310 CHAPEL PINE ST, SPRING, TX 77379",30.020749,-95.562439,1327,6300,159759,139979,152151,-17,136818.0
77379,"17310 THORHILL ST, SPRING, TX 77379",30.022096,-95.55935699999999,1513,6300,175937,159181,167559,-868,139254.0
77379,"6610 CAMPDEN DR, SPRING, TX 77379",30.015520000000002,-95.510087,2445,11399,244456,221174,232815,4828,115055.0
77379,"17830 WINDTREE LN, SPRING, TX 77379",30.025746,-95.497775,2829,13608,281260,254474,267867,62,239473.0
77379,"17326 CHAPEL PINE ST, SPRING, TX 77379",30.020891,-95.562549,1498,6508,174758,158114,166436,-1600,143840.0
77379,"9627 ORANGEVALE DR, SPRING, TX 77379",30.006327000000002,-95.556699,2108,6708,203594,184204,193899,604,152947.0
77379,"17626 SURREYWEST LN, SPRING, TX 77379",30.021094,-95.498441,2616,9361,264543,239349,251946,-4661,222288.0
77379,"9606 GALSTON LN, SPRING, TX 77379",30.012199,-95.563338,2273,6708,206764,187072,196918,3308,145914.0
77379,"17010 SHADOW VALLEY DR, SPRING, TX 77379",30.013146999999996,-95.542578,2335,8295,228110,202041,217248,-4790,208223.0
77379,"9210 TOWERSTONE DR, SPRING, TX 77379",30.012134000000003,-95.555775,1470,7854,161317,145953,153635,1663,138592.0
77379,"17535 COLONY STREAM DR, SPRING, TX 77379",30.013994,-95.558637,1838,7118,197050,178284,187667,2056,181800.0
77379,"17722 SURREYWEST LN, SPRING, TX 77379",30.022553000000002,-95.499125,2747,9361,257668,233128,245398,-7660,195000.0
77379,"9210 COLONYWAY CT, SPRING, TX 77379",30.013021000000002,-95.55749899999999,2113,7792,213018,190702,202874,324,193175.0
77379,"7918 LICHEN LN, SPRING, TX 77379",30.016775,-95.534751,3786,10798,324988,276842,300915,2219,230546.0
77379,"9219 SOUTHLEIGH DR, SPRING, TX 77379",30.017145000000003,-95.55726899999999,1968,6599,196566,177846,187206,907,152147.0
77379,"17902 SHADOW VALLEY DR, SPRING, TX 77379",30.023962,-95.551823,2382,12140,228853,205104,215899,-737,199941.0
77379,"16218 FRIAR CIR, SPRING, TX 77379",30.007329,-95.529894,3090,13037,403771,365317,384544,4544,345060.0
77379,"7915 OAK MOSS DR, SPRING, TX 77379",30.017961,-95.535533,3082,10028,256881,229970,244649,1430,216565.0
77379,"16226 HEDEN RD, SPRING, TX 77379",30.006388,-95.54049300000001,3019,8160,328965,297635,313300,1606,301729.0
77379,"16211 CHIPSTEAD DR, SPRING, TX 77379",29.998631,-95.552554,3305,9701,324325,293437,308881,982,287441.0
77379,"16302 WIMBLEDON FOREST DR, SPRING, TX 77379",30.018334000000003,-95.50743100000001,4584,10759,427653,386925,407289,908,171145.0
77379,"8910 DRIFTSTONE DR, SPRING, TX 77379",30.017021000000003,-95.54920899999999,1510,6299,181676,164374,173025,2194,157127.0
77379,"6607 SUMNER ISLE CT, SPRING, TX 77379",30.022427,-95.513276,3191,10502,301396,270119,284336,692,247034.0
77379,"16235 CRYSTAL CREEK CT, SPRING, TX 77379",30.005502000000003,-95.532444,3324,19537,348755,312563,329014,5528,320925.0
77379,"5915 SLASHWOOD LN, SPRING, TX 77379",30.026291999999998,-95.50005999999999,3236,14658,303742,274814,289278,4441,259855.0
77379,"16514 SQUYRES RD, SPRING, TX 77379",30.013333000000003,-95.529098,3015,8050,244455,221173,232814,-4470,193352.0
77379,"16119 CHAMPION DR, SPRING, TX 77379",30.001434000000003,-95.545158,3592,13769,375854,340058,357956,-4262,315125.0
77379,"16246 MORNINGBROOK DR, SPRING, TX 77379",30.006394,-95.53178,3274,17672,337043,304943,320993,4832,316329.0
77379,"6511 KODES CLAY CT, SPRING, TX 77379",30.013138,-95.504776,4685,9713,433747,388735,409195,-1152,327967.0
77379,"5326 BROWNLEE LN, SPRING, TX 77379",30.025175,-95.491023,2389,9875,217727,196991,207359,-401,176921.0
77379,"8826 VISTA SPRINGS DR, SPRING, TX 77379",30.012646999999998,-95.54768,2554,7784,236274,200943,220817,-7359,201391.0
77379,"9214 TOWNE TERRACE DR, SPRING, TX 77379",30.010263000000002,-95.55193100000001,1789,8045,200839,181711,191275,-168,156324.0
77379,"9615 DUNDALK ST, SPRING, TX 77379",30.015735999999997,-95.563161,1805,7558,180643,163439,172041,-1123,140379.0
77379,"8815 TWEEDBROOK DR, SPRING, TX 77379",30.01496,-95.55064499999999,2397,7875,223568,202276,212922,139,192000.0
77379,"6818 ENNS LN, SPRING, TX 77379",30.025557,-95.51983800000001,1360,8425,154329,133752,146980,147,126307.0
77379,"16003 WIMBLEDON CHAMPIONS DR, SPRING, TX 77379",30.018791999999998,-95.503136,3968,12741,415626,376042,395834,2443,278720.0
77379,"8315 VINTAGE CREEK DR, SPRING, TX 77379",30.016268,-95.54228,2089,11400,233147,189972,215877,-2104,232607.0
77379,"17510 METHIL DR, SPRING, TX 77379",30.022809999999996,-95.569056,1805,16080,189691,160786,180658,737,154758.0
77379,"16702 GROVETRAIL LN, SPRING, TX 77379",30.004506,-95.55753,1926,6190,207437,187681,197559,2115,186373.0
77379,"16307 RADLEY CT, SPRING, TX 77379",30.018410999999997,-95.511477,2881,9901,281039,254273,267656,-588,242034.0
77379,"9206 TOWERSTONE DR, SPRING, TX 77379",30.012156,-95.555787,1808,7854,191923,173645,182784,1010,154400.0
77379,"18110 SHADOW VALLEY DR, SPRING, TX 77379",30.026187,-95.553472,2372,8400,221122,200062,210592,114,187000.0
77379,"7602 FRIARS COURT LN, SPRING, TX 77379",30.00978,-95.526656,1965,10258,200905,181771,191338,134,161353.0
77379,"16630 LAFONE DR, SPRING, TX 77379",30.024234999999997,-95.512821,4658,13566,490614,443888,467251,6840,431769.0
77379,"16902 CANYON RIDGE DR, SPRING, TX 77379",30.011319,-95.545925,2596,9143,254538,210572,231398,-4996,210632.0
77379,"9707 APPIN FALLS DR, SPRING, TX 77379",30.000721000000002,-95.552481,4976,43560,547650,481113,511822,-6289,475500.0
77379,"16215 LOBO LN, SPRING, TX 77379",30.007075,-95.531374,2780,10557,380800,330505,359245,12198,330195.0
77379,"9003 NAPFIELD DR, SPRING, TX 77379",30.002997999999998,-95.543267,2723,11914,282003,252739,266041,-70,220100.0
77379,"17621 SHADOW VALLEY DR, SPRING, TX 77379",30.019709000000002,-95.54924799999999,4081,11421,408535,369627,389081,-1139,388817.0
77379,"6830 JASMINE PLACE ST, SPRING, TX 77379",30.013264000000003,-95.513571,2131,3314,195963,171930,184871,2638,165985.0
77379,"7915 SUNSET FALLS CT, SPRING, TX 77379",30.01235,-95.530597,3594,11522,529947,479475,504711,-1057,535000.0
77379,"16018 STRATTON PARK DR, SPRING, TX 77379",29.998151,-95.54049499999999,3174,9383,332045,300421,316233,-2364,309571.0
77379,"17135 CANYON RIDGE DR, SPRING, TX 77379",30.014431,-95.548731,3300,6324,286135,258885,272510,-86,247309.0
77379,"9631 BIRSAY ST, SPRING, TX 77379",30.010745,-95.562189,1476,7200,188532,156816,176198,1051,153848.0
77379,"16151 PARISH HALL DR, SPRING, TX 77379",30.000659000000002,-95.546977,2622,11443,282987,256035,269511,-427,244985.0
77379,"9718 OXTED LN, SPRING, TX 77379",29.998898999999998,-95.550919,4416,9840,423523,383187,403355,-1702,405000.0
77379,"8210 REDCHURCH DR, SPRING, TX 77379",30.006707000000002,-95.53322800000001,3108,6930,330473,298999,314736,2570,293654.0
77379,"17123 COLONY CREEK DR, SPRING, TX 77379",30.010477,-95.552017,1899,7174,195993,177327,186660,-172,140860.0
77379,"17826 SURREYWEST LN, SPRING, TX 77379",30.024993,-95.50027299999999,2732,8999,264361,239183,251772,-1834,223780.0
77379,"8114 MARSHALL FLS, SPRING, TX 77379",30.01316,-95.53443100000001,4352,15939,677883,613323,645603,-2092,656300.0
77379,"6511 CENTRE PLACE CIR, SPRING, TX 77379",30.020544,-95.509693,5602,18644,545142,493224,519183,338,576741.0
77379,"8603 DELACHASE CIR, SPRING, TX 77379",30.006809000000004,-95.53858100000001,3725,9653,368741,333623,351182,-1683,330298.0
77379,"9319 NEW FOREST RD, SPRING, TX 77379",30.005096,-95.54919100000001,2531,9413,240207,217331,228769,-2145,205534.0
77379,"16327 CLOVERWICK LN, SPRING, TX 77379",30.017405,-95.513936,3512,10389,311214,281574,296394,995,238356.0
77379,"17214 OAKWOOD CHASE DR, SPRING, TX 77379",30.025890000000004,-95.525902,1490,2940,145440,108442,127579,1228,114261.0
77379,"5311 SPRINGTON LN, SPRING, TX 77379",30.025496,-95.491653,2242,9375,212547,192305,202426,-605,174538.0
77379,"8215 REDCHURCH DR, SPRING, TX 77379",30.006467999999998,-95.533061,3993,8938,387449,350549,368999,-4176,338539.0
77379,"17910 VINTAGE WOOD LN, SPRING, TX 77379",30.024017999999998,-95.550768,3826,9600,322456,288994,304204,442,260000.0
77379,"16214 RUTLEY CIR, SPRING, TX 77379",30.004631,-95.542556,2363,7937,260819,214934,241499,-4028,213104.0
77379,"16007 WIMBLEDON CHAMPIONS DR, SPRING, TX 77379",30.018764,-95.503016,4092,13155,411282,368195,391697,159,217225.0
77379,"8923 SUNNY POINT DR, SPRING, TX 77379",30.017394,-95.552369,2011,6563,203548,184162,193855,-324,179839.0
77379,"9606 KILRENNY DR, SPRING, TX 77379",30.014390999999996,-95.562713,1855,7244,185795,168101,176948,899,131000.0
77379,"16134 HEXHAM DR, SPRING, TX 77379",29.9996,-95.547309,3228,9805,308218,278864,293541,549,286813.0
77379,"7615 WILTON PARK DR, SPRING, TX 77379",30.02487,-95.533711,6322,10739,457616,409675,435825,199,413682.0
77379,"9702 CHIPSTEAD CT, SPRING, TX 77379",30.001062,-95.553811,4211,9552,446783,404233,425508,1803,427000.0
77379,"16011 CAMPDEN CT, SPRING, TX 77379",30.016226,-95.50874,3156,11901,276154,249854,263004,-2752,170771.0
77379,"9702 OXTED LN, SPRING, TX 77379",29.998965000000002,-95.550802,2633,9470,277081,250693,263887,-1110,246835.0
77379,"9706 JOHN BANK DR, SPRING, TX 77379",30.018504999999998,-95.565804,1708,7039,173410,155243,165152,54,132924.0
77379,"16110 SOUTHAMPTON DR, SPRING, TX 77379",30.013503999999998,-95.51476600000001,2638,9601,244444,221164,232804,3005,190000.0
77379,"9001 LOUETTA RD, SPRING, TX 77379",30.007875,-95.54732,3333,9365,356362,303568,329965,-1964,357673.0
77379,"17815 MAHOGANY FOREST DR, SPRING, TX 77379",30.023262,-95.549441,2874,10201,266083,240741,253412,5786,201480.0
77379,"15914 FIVE ASHES DR, SPRING, TX 77379",30.000954999999998,-95.536801,5089,15289,523896,469012,498949,-20812,495311.0
77379,"8707 CYPRESS SQUARE CT, SPRING, TX 77379",30.014065999999996,-95.547288,2056,13730,221021,197866,210496,1777,191962.0
77379,"16115 SIR WILLIAM DR, SPRING, TX 77379",30.014946000000002,-95.511266,2752,11870,290713,247645,269179,1709,190767.0
77379,"16425 SQUYRES RD, SPRING, TX 77379",30.011638,-95.528237,2161,6896,197886,179040,188463,4168,150361.0
77379,"8319 HIDDEN TRAIL LN, SPRING, TX 77379",30.022206,-95.546449,3284,9601,306141,268238,291563,1032,280000.0
77379,"16014 WIMBLEDON CHAMPIONS DR, SPRING, TX 77379",30.019238,-95.503562,3209,8860,354668,257665,303135,2869,291015.0
77379,"8719 TRANQUIL PARK DR, SPRING, TX 77379",29.999303,-95.536739,4424,15930,465592,421250,443421,-5111,408438.0
77379,"17315 NEVELSON CIR, SPRING, TX 77379",30.02242,-95.535297,4650,11010,402867,364499,383683,-5418,314374.0
77379,"9202 WANDSWORTH DR, SPRING, TX 77379",30.009187,-95.555444,2396,7348,215430,192861,205171,-671,178237.0
77379,"17218 E STRACK DR, SPRING, TX 77379",30.024341999999997,-95.48201,2334,30753,212325,186286,200307,3941,87000.0
77379,"17118 VALLEY PALMS DR, SPRING, TX 77379",30.015909000000004,-95.54741800000001,2936,6765,273195,247177,260186,-627,231417.0
77379,"9310 NEW FOREST RD, SPRING, TX 77379",30.005266,-95.549467,2563,11779,250819,220345,234410,848,181000.0
77379,"6914 BILLINGHAM CT, SPRING, TX 77379",30.016748,-95.51624699999999,2694,9640,232757,206407,219582,-2537,195231.0
77379,"17019 BOYTON LN, SPRING, TX 77379",30.018726,-95.556725,1852,6560,181812,155839,173154,3572,157961.0
77379,"9723 KEPLER MCVEY CT, SPRING, TX 77379",30.002104,-95.554666,5065,10969,490026,443356,466691,531,502500.0
77379,"8719 CHELMSFORD LN, SPRING, TX 77379",29.999755,-95.53840600000001,3562,17089,418679,370830,398742,-3538,402039.0
77379,"17430 MEMORIAL MILLS DR, SPRING, TX 77379",30.025601,-95.562092,3866,8683,359603,319274,336078,-4478,302352.0
77379,"5502 BROWNLEE LN, SPRING, TX 77379",30.024595,-95.492579,4200,15222,339657,289799,311612,1595,277610.0
77379,"17306 MEGAN SPRINGS DR, SPRING, TX 77379",30.016127,-95.552914,2643,7218,234171,205720,218851,-1712,217035.0
77379,"16227 SALMON LN, SPRING, TX 77379",30.005239000000003,-95.54213,3203,7775,328195,296939,312567,-5359,278000.0
77379,"17411 COLONY STREAM DR, SPRING, TX 77379",30.013035,-95.5579,1953,6625,199314,180332,189823,1234,190887.0
77379,"16232 LOBO LN, SPRING, TX 77379",30.007490999999998,-95.531304,3181,12453,389996,352854,371425,-2851,344908.0
77379,"7903 LICHEN LN, SPRING, TX 77379",30.016378999999997,-95.534878,2904,13299,265006,239768,252387,645,203300.0
77379,"8139 VINTAGE CREEK DR, SPRING, TX 77379",30.018468,-95.54081500000001,3519,12672,303261,274379,288820,4975,246323.0
77379,"9411 CHAPEL PINE CT, SPRING, TX 77379",30.020622999999997,-95.562559,1505,7497,178885,161849,170367,-2794,140217.0
77379,"9211 NEW FOREST RD, SPRING, TX 77379",30.003994,-95.550504,2637,9478,250367,226523,238445,680,213000.0
77379,"18106 VINTAGE WOOD LN, SPRING, TX 77379",30.026117,-95.55228199999999,2800,9362,273691,247625,260658,-1705,234485.0
77379,"6510 WIMBLEDON TRAIL RD, SPRING, TX 77379",30.022878000000002,-95.510812,3951,10079,382803,336294,357760,4593,295201.0
77379,"17714 ABBY LN, SPRING, TX 77379",30.022651,-95.544292,2589,10210,268383,242823,255603,-2541,243360.0
77379,"16811 FONDNESS PARK DR, SPRING, TX 77379",30.018851,-95.52978900000001,3493,22064,424002,371506,403811,3871,373380.0
77379,"9219 GODSTONE LN, SPRING, TX 77379",30.001745,-95.548976,2934,9844,266282,236136,251209,6423,205627.0
77379,"8019 FOREST BREEZE LN, SPRING, TX 77379",30.025637,-95.54335400000001,3128,8873,288985,261463,275224,-1609,238120.0
77379,"9130 NEWKAY LN, SPRING, TX 77379",30.019519,-95.557659,1512,8250,171440,150214,163276,-344,154046.0
77379,"9203 COLONYWAY CT, SPRING, TX 77379",30.012739,-95.557491,3195,8729,275002,248812,261907,34,249494.0
77379,"17106 LAPEER CT, SPRING, TX 77379",30.022159999999996,-95.531688,4762,9962,592248,516180,543347,11053,614640.0
77379,"6415 WIMBLEDON TRAIL RD, SPRING, TX 77379",30.023405,-95.50985,4523,17300,461321,417385,439353,-162,340000.0
77379,"17122 MOUNTAIN CREST DR, SPRING, TX 77379",30.013887,-95.549048,2759,6325,252981,224069,240934,-1151,219454.0
77379,"17906 SHADOW VALLEY DR, SPRING, TX 77379",30.023988,-95.55184100000001,3726,10202,330693,290887,306197,-1426,259000.0
77379,"17218 VALLEY PALMS DR, SPRING, TX 77379",30.016809000000002,-95.547979,2456,8258,223869,202549,213209,732,198423.0
77379,"8122 TEAKWOOD FOREST DR, SPRING, TX 77379",30.020827,-95.543315,5643,10624,417740,377956,397848,-1029,389310.0
77379,"8811 EDENBRIDGE ST, SPRING, TX 77379",30.024046999999996,-95.555829,3410,8964,313926,284028,298977,-4150,262108.0
77379,"8527 CANYON PINE DR, SPRING, TX 77379",30.013129,-95.544399,2662,7649,240059,200049,222277,-8255,214182.0
77379,"7414 DAYHILL DR, SPRING, TX 77379",30.022387,-95.531088,4764,9962,732791,611779,672285,-4345,686563.0
77379,"16119 SOUTHAMPTON DR, SPRING, TX 77379",30.013463,-95.515101,2688,9600,257424,232908,245166,3671,116156.0
77379,"17306 MODBURY ST, SPRING, TX 77379",30.020940999999997,-95.561583,1564,6300,174444,152846,166137,-1503,149503.0
77379,"17130 CARRIAGE DALE CT, SPRING, TX 77379",30.019947,-95.54007800000001,3738,14313,334886,288374,310080,995,280107.0
77379,"7706 FRIARS COURT LN, SPRING, TX 77379",30.010838,-95.525357,2115,8525,201218,182054,191636,471,166391.0
77379,"16602 MANNINGTREE LN, SPRING, TX 77379",30.007956,-95.535744,2615,4948,274079,247977,261028,-621,250176.0
77379,"17818 SURREYWEST LN, SPRING, TX 77379",30.024599,-95.50008299999999,2878,9000,269614,243936,256775,1165,219000.0
77379,"16806 SPRUCE RUN DR, SPRING, TX 77379",30.006214,-95.555399,2630,9431,224284,202924,213604,-714,188693.0
77379,"17818 VALLEY PALMS DR, SPRING, TX 77379",30.022765999999997,-95.552633,3414,7928,324177,293303,308740,-3178,282852.0
77379,"8006 NORTHBRIDGE DR, SPRING, TX 77379",30.021509000000002,-95.541218,4200,12000,364027,323201,340212,4751,296669.0
77379,"17110 BAYOU BLUFF CT, SPRING, TX 77379",30.010157,-95.553692,1958,7919,202071,182827,192449,-531,168871.0
77379,"9203 MEMORIAL VALLEY DR, SPRING, TX 77379",30.026049,-95.559634,3761,8937,306895,268899,292281,-5702,271994.0
77379,"16614 MANNINGTREE LN, SPRING, TX 77379",30.008022999999998,-95.53579,2694,4948,280688,253956,267322,366,256411.0
77379,"8303 DOMER DR, SPRING, TX 77379",30.008591,-95.53811,2449,9600,260257,230514,247864,-2638,212942.0
77379,"9719 CHAMPIONS COVE DR, SPRING, TX 77379",30.003196000000003,-95.554482,3955,14928,511271,452840,486925,3093,514239.0
77379,"17039 VALLEY PALMS DR, SPRING, TX 77379",30.014344,-95.546563,2519,6909,247195,206373,226784,-531,201132.0
77379,"16226 RUTLEY CIR, SPRING, TX 77379",30.004573999999998,-95.541859,2764,7935,303788,269069,289322,877,281815.0
77379,"7518 WANING STAR CT, SPRING, TX 77379",30.019575,-95.52896199999999,2769,12943,388392,326103,366408,-2077,385000.0
77379,"17626 SHADOW VALLEY DR, SPRING, TX 77379",30.020159000000003,-95.549215,3671,9374,344224,311440,327832,456,311582.0
77379,"9602 FENCHURCH DR, SPRING, TX 77379",29.997079,-95.54800999999999,3560,9252,354987,321179,338083,1580,356107.0
77379,"17426 MEMORIAL MILLS DR, SPRING, TX 77379",30.025640000000003,-95.562122,2937,8682,303962,275014,289488,4530,263256.0
77379,"8306 CHAMPION FOREST CIR, SPRING, TX 77379",30.016212,-95.541533,2691,11439,255129,230831,242980,-3443,205852.0
77379,"8222 PHEASANT GLEN DR, SPRING, TX 77379",30.020312,-95.54606,3198,8999,300216,271624,285920,-79,251000.0
77379,"18311 THEISS MAIL ROUTE RD, SPRING, TX 77379",30.026582,-95.549245,4344,16801,384666,334802,356172,-7421,316210.0
77379,"9014 KELSEY SPRINGS CT, SPRING, TX 77379",30.016253999999996,-95.553402,2281,6778,217264,192434,206918,-3205,213691.0
77379,"17407 ATHERINGTON PL, SPRING, TX 77379",30.025235,-95.534249,5168,9600,363298,328698,345998,7417,325000.0
77379,"16410 GRAVEN HILL DR, SPRING, TX 77379",30.008375,-95.533139,3285,8511,325880,294844,310362,15583,278529.0
77379,"7606 FELICIANA LN, SPRING, TX 77379",30.01137,-95.527734,2232,7819,202689,181455,193037,-602,162737.0
77379,"9526 ARCADE DR, SPRING, TX 77379",29.999015999999997,-95.548571,2748,9649,280396,253692,267044,-795,235000.0
77379,"17007 RIVER WILLOW DR, SPRING, TX 77379",30.013937,-95.543127,2688,7601,271882,245988,258935,-3653,253508.0
77379,"17703 ASPHODEL LN, SPRING, TX 77379",30.024597999999997,-95.493686,2934,10746,273139,247125,260132,-2696,230114.0
77379,"9723 FENCHURCH DR, SPRING, TX 77379",29.997644,-95.550165,3053,9601,319789,289333,304561,442,312833.0
77379,"8815 EDENBRIDGE ST, SPRING, TX 77379",30.024038,-95.555847,3676,8965,311054,278467,296242,-5116,268655.0
77379,"16311 SOUTHAMPTON DR, SPRING, TX 77379",30.015371000000002,-95.516439,2706,9601,233314,211094,222204,-3316,188342.0
77379,"16123 COCHET SPRING DR, SPRING, TX 77379",30.018213,-95.50648000000001,4737,10108,427919,387165,407542,5618,236441.0
77379,"8918 TWEEDBROOK DR, SPRING, TX 77379",30.016758000000003,-95.548191,2560,8032,236842,212030,225564,10679,209178.0
77379,"16906 TIMBERWORK RD, SPRING, TX 77379",30.018541,-95.530902,1436,592938,187098,135036,162694,3907,119065.0
77379,"17018 LAZY HILL LN, SPRING, TX 77379",30.017234000000002,-95.541549,4581,11187,381506,345172,363339,-2899,347229.0
77379,"114 LAKE STERLING GATE DR, SPRING, TX 77379",30.007503999999997,-95.541333,6862,22020,1074958,914217,1004634,-33449,927200.0
77379,"15827 CONNERS ACE DR, SPRING, TX 77379",30.015103000000003,-95.50403399999999,3972,25648,413644,345336,379490,2486,244209.0
77379,"9634 LANDRY BLVD, SPRING, TX 77379",30.017478999999998,-95.564358,1566,9574,173889,150704,165609,-570,137849.0
77379,"16422 AGUSTA CT, SPRING, TX 77379",30.002212,-95.55083499999999,4134,21545,485785,439519,462652,-1887,443900.0
77379,"6822 CLEE LN, SPRING, TX 77379",30.026258000000002,-95.520067,1589,6525,161715,143233,154014,2678,125000.0
77379,"16811 ASHBRIDGE CT, SPRING, TX 77379",30.008632000000002,-95.552386,1944,6638,199566,180560,190063,126,151000.0
77379,"6649 TREBECK LN, SPRING, TX 77379",30.019252,-95.511896,2058,3150,189605,171547,180576,637,142899.0
77379,"16014 KEMPTON PARK DR, SPRING, TX 77379",30.000295,-95.541423,3399,7855,321150,290564,305857,-2569,255000.0
77379,"8519 DELACHASE CIR, SPRING, TX 77379",30.006331,-95.539136,3698,12462,386233,338865,364371,-3316,351310.0
77379,"9206 GRANDVIEW PARK DR, SPRING, TX 77379",30.009442,-95.552019,2537,6360,212317,190075,202207,-1775,188484.0
77379,"9619 BIRSAY ST, SPRING, TX 77379",30.010744,-95.56239599999999,1550,7200,163831,146668,156030,-243,116000.0
77379,"8302 LICHEN LN, SPRING, TX 77379",30.013669,-95.54033100000001,3266,9601,271234,245402,258318,3303,188500.0
77379,"7930 ASTLEY LN, SPRING, TX 77379",30.019572999999998,-95.536681,3928,8050,353011,295766,318028,2738,260000.0
77379,"16503 CHAMPIONS COVE CIR, SPRING, TX 77379",30.003658,-95.55241,4763,10576,456851,413341,435096,2154,404609.0
77379,"8302 HERTS RD, SPRING, TX 77379",30.008715000000002,-95.537221,2418,7802,223740,198170,213086,-4480,192109.0
77379,"9714 STOCKPORT DR, SPRING, TX 77379",30.001176,-95.548715,3381,19380,369326,334152,351739,-4573,323461.0
77379,"16103 CRANWOOD DR, SPRING, TX 77379",30.016527000000004,-95.508903,2779,13800,265610,235822,248234,13722,158988.0
77379,"16018 CONNERS ACE DR, SPRING, TX 77379",30.017757,-95.50446,4210,8755,379921,343739,361830,2381,267292.0
77379,"17607 TERRAWREN LN, SPRING, TX 77379",30.021425,-95.496429,3302,11160,293370,265430,279400,-689,262174.0
77379,"9103 LONGCROFT DR, SPRING, TX 77379",30.012690999999997,-95.55047900000001,1940,7790,198994,180042,189518,548,160700.0
77379,"7907 OAK MOSS DR, SPRING, TX 77379",30.017892,-95.535659,2601,10030,213608,189652,199634,-2836,198522.0
77379,"17715 TERRAWREN LN, SPRING, TX 77379",30.023109,-95.497309,2556,10062,265777,240465,253121,-1300,222339.0
77379,"9418 CYPRESSWOOD DR, SPRING, TX 77379",29.99395,-95.546071,9575,42001,1972563,1574431,1809691,141639,1488700.0
77379,"17406 BONNIE SEAN DR, SPRING, TX 77379",30.020379,-95.56604399999999,2264,9600,206407,186749,196578,3369,162280.0
77379,"7511 WANING STAR CT, SPRING, TX 77379",30.019865000000003,-95.529005,2501,7061,301515,256847,279181,-1700,294701.0
77379,"7002 WORCESTER DR, SPRING, TX 77379",30.018814000000003,-95.520084,3231,11509,276751,250393,263572,-4098,225101.0
77379,"16122 MEYRICK CT, SPRING, TX 77379",30.003443,-95.539622,5177,13699,570930,516556,543743,3352,440000.0
77379,"17414 MEMORIAL BLOSSOM DR, SPRING, TX 77379",30.0249,-95.560486,3872,8891,339236,300832,320034,-1130,280640.0
77379,"17923 VINTAGE WOOD LN, SPRING, TX 77379",30.023946999999996,-95.551091,4339,13198,359457,281314,312571,-3427,252054.0
77379,"8106 HIDDEN TRAIL LN, SPRING, TX 77379",30.022428,-95.54435600000001,3470,10240,313353,280525,298431,5785,232800.0
77379,"9106 KENNET VALLEY RD, SPRING, TX 77379",29.998528999999998,-95.54368199999999,4720,17498,522018,467330,497160,-1672,442954.0
77379,"5806 ASHMERE LN, SPRING, TX 77379",30.026127000000002,-95.499314,3227,8999,284986,257844,271415,2483,236806.0
77379,"17126 KIRKCHAPEL ST, SPRING, TX 77379",30.019171999999998,-95.559089,1658,5510,181684,164380,173032,785,151442.0
77379,"17619 GROVE CREEK DR, SPRING, TX 77379",30.019307,-95.55333900000001,2765,10394,274184,248072,261128,-2247,245911.0
77379,"9114 GRANDVIEW PARK DR, SPRING, TX 77379",30.010215999999996,-95.550589,1764,4400,186452,168694,177573,719,149335.0
77379,"17410 COLONY CREEK DR, SPRING, TX 77379",30.014134000000002,-95.556579,2800,9589,263077,233011,250550,777,231374.0
77379,"5507 GLENMERE LN, SPRING, TX 77379",30.025928999999998,-95.493708,2547,9422,238768,206932,227398,12836,165000.0
77379,"17015 FORDINGBRIDGE DR, SPRING, TX 77379",30.016780999999998,-95.558501,2096,6534,203265,183907,193586,1253,160904.0
77379,"17731 GREEN ELM LN, SPRING, TX 77379",30.022251,-95.503822,3735,15002,382900,346434,364667,1250,309640.0
77379,"17418 LARGS CIR, SPRING, TX 77379",30.020374,-95.567214,1908,8124,189343,171311,180327,1549,136339.0
77379,"17018 COLONY CREEK DR, SPRING, TX 77379",30.009683000000003,-95.55125100000001,1679,7150,186312,168568,177440,2475,146320.0
77379,"17802 ENGLISH IVY LN, SPRING, TX 77379",30.023118,-95.501769,4388,10576,409787,370759,390273,-887,370000.0
77379,"17106 VALLEY PALMS DR, SPRING, TX 77379",30.015678,-95.54724399999999,2743,7156,258685,226959,244042,686,212886.0
77379,"9819 ORANGEVALE DR, SPRING, TX 77379",30.006498999999998,-95.559314,1615,9426,166175,148766,158262,262,143027.0
77379,"5810 ASHMERE LN, SPRING, TX 77379",30.026161,-95.499253,3035,8999,289863,262257,276060,4599,254450.0
77379,"8202 TURNMILL CT, SPRING, TX 77379",30.007890000000003,-95.53302,4243,7758,381693,345341,363517,-4581,348670.0
77379,"6503 HOADS DEUCE CT, SPRING, TX 77379",30.011871999999997,-95.503089,4551,8856,418402,378554,398478,-14317,370350.0
77379,"6619 SEATON VALLEY DR, SPRING, TX 77379",30.014546999999997,-95.509465,2403,9169,221619,200513,211066,-834,189783.0
77379,"16127 STUEBNER AIRLINE RD, SPRING, TX 77379",30.01365,-95.517349,1744,43560,371645,278734,331826,23862,284027.0
77379,"8102 ROYAL CREST CT, SPRING, TX 77379",30.022156,-95.540497,4489,14227,420244,380220,400232,3437,362870.0
77379,"7914 KLEINGREEN LN, SPRING, TX 77379",30.010379999999998,-95.527202,1996,8403,203932,184510,194221,641,166373.0
77379,"9331 PALM SHORES DR, SPRING, TX 77379",30.011352000000002,-95.554767,1958,7558,199475,180477,189976,-676,164531.0
77379,"17611 MOSS POINT DR, SPRING, TX 77379",30.023433,-95.493942,2278,9361,229127,207305,218216,1030,192994.0
77379,"17122 STUEBNER AIRLINE RD, SPRING, TX 77379",30.024637,-95.527828,1686,75838,925992,512959,666181,16184,588207.0
77379,"16015 STEWARTS GROVE DR, SPRING, TX 77379",30.001327000000003,-95.54034399999999,5484,16618,550893,493725,519710,-1543,477000.0
77379,"9703 DALMALLY ST, SPRING, TX 77379",30.018909999999998,-95.566117,1587,6600,174777,150276,163343,-1406,125049.0
77379,"9306 WINDRUSH DR, SPRING, TX 77379",29.997798,-95.544609,3647,11099,388854,351820,370337,-3328,365120.0
77379,"16014 STEWARTS GROVE DR, SPRING, TX 77379",30.001510999999997,-95.54010799999999,4207,14606,461535,417579,439557,-5242,410351.0
77379,"6914 LOUETTA RD, SPRING, TX 77379",30.023647999999998,-95.519271,1781,10938,194489,175967,185228,-863,128699.0
77379,"17730 DOVE TREE LN, SPRING, TX 77379",30.023901000000002,-95.546102,3096,10768,302666,273840,288253,1444,258000.0
77379,"7907 VICKRIDGE LN, SPRING, TX 77379",30.018556,-95.536197,3176,14397,274810,248638,261724,-2707,226639.0
77379,"17818 WOODLODE LN, SPRING, TX 77379",30.024943,-95.49923299999999,3053,10014,290469,262805,276637,293,249851.0
77379,"9103 TOWERSTONE CT, SPRING, TX 77379",30.011943,-95.555612,1843,9718,200337,181257,190797,528,146235.0
77379,"9606 RANNOCK WAY, SPRING, TX 77379",30.016299,-95.56443,1746,7475,175157,156807,166816,-154,136731.0
77379,"17323 THORHILL ST, SPRING, TX 77379",30.021824,-95.559525,1494,6298,164547,147471,155233,-264,143828.0
77379,"9510 JOHN BANK DR, SPRING, TX 77379",30.019403999999998,-95.564228,1796,5828,186412,168658,177535,-698,159515.0
77379,"17118 BANCHORY AVE, SPRING, TX 77379",30.017604,-95.561378,1484,10489,182193,164841,173517,-2806,129972.0
77379,"17030 HIGHWORTH DR, SPRING, TX 77379",30.019005,-95.555555,2251,6508,201577,180459,191978,357,177531.0
77379,"17418 MEMORIAL TRACE DR, SPRING, TX 77379",30.026472,-95.555363,2535,12510,271321,245481,258401,464,236952.0
77379,"9707 BALLIN DAVID DR, SPRING, TX 77379",30.017643,-95.565051,1830,7148,184158,166620,175389,979,138211.0
77379,"6419 SAFFRON HILLS DR, SPRING, TX 77379",30.025909000000002,-95.511813,3134,10528,300139,271555,285847,3743,220000.0
77379,"16919 SUMMIT OAKS LN, SPRING, TX 77379",30.0153,-95.53887399999999,1848,8999,203952,173167,192408,257,177245.0
77379,"15919 MAPLEHURST DR, SPRING, TX 77379",29.998995,-95.53940300000001,3819,9534,362545,328017,345281,4972,271603.0
77379,"9411 TAIDSWOOD DR, SPRING, TX 77379",30.004628999999998,-95.548265,2770,9737,257411,230444,245153,-2438,241752.0
77379,"17307 CHAPEL PINE ST, SPRING, TX 77379",30.020523999999998,-95.56264399999999,1392,10019,170707,151198,162578,-2325,138978.0
77379,"6819 CYPRESSWOOD MANOR ST, SPRING, TX 77379",30.012317,-95.512507,2044,3624,193922,175454,184688,-403,171485.0
77379,"16714 BONNIE SEAN DR, SPRING, TX 77379",30.011052000000003,-95.559139,1500,7100,169834,152210,160221,-2332,136522.0
77379,"16115 CHASEMORE DR, SPRING, TX 77379",29.995995,-95.552782,4723,19293,538530,487242,512886,-1476,490115.0
77379,"7815 HEATHROW LN, SPRING, TX 77379",30.006930999999998,-95.52831,2368,8510,212987,192703,202845,-1778,178061.0
77379,"8923 TWEEDBROOK DR, SPRING, TX 77379",30.016468,-95.548119,2592,7876,226026,204500,215263,1349,200193.0
77379,"7807 SUNSET FALLS CT, SPRING, TX 77379",30.013857,-95.530198,4263,13795,678368,587919,646065,789,682744.0
77379,"8110 TWINING OAKS LN, SPRING, TX 77379",30.016753,-95.536562,2824,10267,247759,224163,235961,1007,170000.0
77379,"6202 GRAFF NET CT, SPRING, TX 77379",30.020522999999997,-95.506752,4387,13308,465488,417183,439140,3292,338701.0
77379,"16914 SPRUCE RUN DR, SPRING, TX 77379",30.00787,-95.556218,2637,6747,217028,196358,206693,-241,187944.0
77379,"16314 KEMPTON PARK DR, SPRING, TX 77379",30.001503999999997,-95.543385,2936,8995,292743,264863,278803,-989,243800.0
77379,"7619 KLEINGREEN LN, SPRING, TX 77379",30.010709999999996,-95.526356,2070,8050,199839,178904,190323,335,162763.0
77379,"15914 STRATTON PARK DR, SPRING, TX 77379",29.997459000000003,-95.54014699999999,4396,12817,462747,418675,440711,-7117,405801.0
77379,"6318 SAMPRAS ACE CT, SPRING, TX 77379",30.016855,-95.502239,2827,8881,272475,246525,259500,-1021,147409.0
77379,"8822 KILRENNY DR, SPRING, TX 77379",30.020343,-95.551939,3354,8159,301711,272977,287344,-404,257765.0
77379,"8424 HIDDEN TRAIL LN, SPRING, TX 77379",30.020753999999997,-95.549787,4404,10271,376405,327155,351780,5948,281525.0
77379,"17819 SPLIT CREEK DR, SPRING, TX 77379",30.021593,-95.554353,3776,8398,326605,292712,308118,-2518,270932.0
77379,"17810 WINDTREE LN, SPRING, TX 77379",30.025153000000003,-95.497509,3231,9644,281256,254470,267863,-3165,244712.0
77379,"17715 OAKSHAM LN, SPRING, TX 77379",30.02328,-95.49641700000001,2414,18826,276589,250247,263418,-2163,224500.0
77379,"17223 SHADOW VALLEY DR, SPRING, TX 77379",30.015991999999997,-95.545891,2576,8651,256876,222626,244644,-3875,231000.0
77379,"9107 BENWICK ST, SPRING, TX 77379",30.021596999999996,-95.55802,1801,5262,202196,177398,190751,777,175447.0
77379,"7715 LITCHFIELD LN, SPRING, TX 77379",30.013023999999998,-95.52669300000001,2281,8625,203695,184295,193995,-294,150200.0
77379,"9310 STEAM SPRINGS DR, SPRING, TX 77379",30.026183000000003,-95.56161999999999,3760,9200,352932,316307,332955,-1635,291296.0
77379,"17418 NAREMORE CT, SPRING, TX 77379",30.026339,-95.533598,6199,12049,461190,389916,419264,7122,358000.0
77379,"7803 THEISSETTA DR, SPRING, TX 77379",30.017428000000002,-95.532628,1436,,154402,139698,147050,2025,119065.0
77379,"6306 BORG BREAKPOINT DR, SPRING, TX 77379",30.016343,-95.501325,2633,7183,267020,241590,254305,-234,151521.0
77379,"17702 WOODLODE LN, SPRING, TX 77379",30.022793,-95.49825,2195,10868,229734,199392,216730,-966,175000.0
77379,"8219 TURNMILL CT, SPRING, TX 77379",30.007561,-95.532958,3783,9326,369912,331159,352297,8842,312000.0
77379,"17143 OAKWOOD CHASE DR, SPRING, TX 77379",30.024959999999997,-95.525399,1696,2940,162252,115146,130848,-134,112326.0
77379,"16627 WIMBLEDON FOREST DR, SPRING, TX 77379",30.024494,-95.509661,3474,10200,343432,310724,327078,222,279856.0
77379,"6523 WIMBLEDON TRAIL RD, SPRING, TX 77379",30.021919,-95.512095,4188,10400,380917,344639,362778,4021,321448.0
77379,"16802 GOODFIELD CT, SPRING, TX 77379",30.007272999999998,-95.55282199999999,2363,9326,218686,197858,208272,-1017,182040.0
77379,"9214 SILVER TIP DR, SPRING, TX 77379",30.012596999999996,-95.556719,1808,6599,190742,172576,181659,1889,155915.0
77379,"17415 COURTNEY PINE CIR, SPRING, TX 77379",30.023481,-95.563734,4248,14000,483531,437481,460506,-29,427668.0
77379,"7922 OAK MOSS DR, SPRING, TX 77379",30.018271000000002,-95.535561,5800,14375,443997,379416,403634,1531,362487.0
77379,"9519 STOCKPORT DR, SPRING, TX 77379",29.99935,-95.551423,3374,9566,327702,296492,312097,3714,288657.0
77379,"6207 BECKER LINE DR, SPRING, TX 77379",30.018922999999997,-95.506721,3842,11813,438100,396376,417238,8987,398863.0
77379,"9118 MEMORIAL PINES WAY, SPRING, TX 77379",30.025806,-95.557146,3786,11238,354637,291309,316640,-4858,260935.0
77379,"7815 OAK MOSS DR, SPRING, TX 77379",30.020358,-95.531424,2525,8194,303593,271788,289136,-757,298655.0
77379,"16203 LANDAU PARK CT, SPRING, TX 77379",30.004842,-95.533342,3145,8342,327501,293192,311906,1203,307100.0
77379,"7306 DAYHILL DR, SPRING, TX 77379",30.021728000000003,-95.53096,5453,13604,700912,634158,667535,9321,632700.0
77379,"7923 LICHEN LN, SPRING, TX 77379",30.016572999999998,-95.534527,4115,18761,350847,275233,302454,1102,200000.0
77379,"9302 CYPRESSWOOD DR, SPRING, TX 77379",29.99503,-95.54276899999999,7523,41574,1365407,1223714,1288120,69158,931300.0
77379,"9522 CHAMPIONS COVE DR, SPRING, TX 77379",30.004171999999997,-95.553373,3760,10224,381307,341738,359724,-4589,321420.0
77379,"16806 SPRING RIVER CIR, SPRING, TX 77379",30.006645000000002,-95.55354,2254,6460,205847,186243,196045,1667,180849.0
77379,"7514 NOAH LN, SPRING, TX 77379",30.022986,-95.532085,5361,12196,728923,495440,569471,-10847,690756.0
77379,"8803 EDENBRIDGE ST, SPRING, TX 77379",30.024282,-95.55536,3778,11278,360413,295473,324696,-1512,265808.0
77379,"9626 DUNDALK ST, SPRING, TX 77379",30.015673,-95.563861,1543,7440,163718,140330,155922,-352,123169.0
77379,"8503 SHADOW VALLEY LN, SPRING, TX 77379",30.013028000000002,-95.543755,2551,9165,234947,210333,223759,-6907,214075.0
77379,"16915 SPRUCE RUN DR, SPRING, TX 77379",30.00767,-95.556434,1639,6665,188217,170291,179254,-1382,135681.0
77379,"16407 OLD LOUETTA RD, SPRING, TX 77379",30.007234000000004,-95.561714,3355,133991,474165,424491,451586,68,415675.0
77379,"9110 TOWERSTONE CT, SPRING, TX 77379",30.0123,-95.555181,1958,7235,198458,179558,189008,-225,162561.0
77379,"16911 SHADOW VALLEY DR, SPRING, TX 77379",30.012684000000004,-95.542836,3206,9087,295142,267034,281088,672,254667.0
77379,"16511 HEXHAM DR, SPRING, TX 77379",30.003086,-95.550566,3377,9997,308680,279282,293981,2452,288318.0
77379,"9706 GODSTONE LN, SPRING, TX 77379",30.001126,-95.550459,3168,10000,321295,290695,305995,-1322,290835.0
77379,"7607 FRIARS COURT LN, SPRING, TX 77379",30.009596999999996,-95.52641700000001,2082,8050,199818,178885,190303,197,163097.0
77379,"17911 MAHOGANY FOREST DR, SPRING, TX 77379",30.024327000000003,-95.55024399999999,2547,11343,252448,228406,240427,169,216422.0
77379,"9603 ENSTONE CIR, SPRING, TX 77379",29.997674,-95.54855400000001,3452,9331,320924,290360,305642,-132,297111.0
77379,"6814 CHANCELLOR DR, SPRING, TX 77379",30.016709999999996,-95.513065,2922,9359,270445,244689,257567,-1367,200000.0
77379,"17210 SHADOW VALLEY DR, SPRING, TX 77379",30.016284000000002,-95.54574000000001,2452,7850,227655,203805,216814,-5281,201911.0
77379,"5907 DELEON TRAIL DR, SPRING, TX 77379",30.026484000000004,-95.504791,2106,6046,222374,201196,211785,-341,202484.0
77379,"8718 STERLING GATE CIR, SPRING, TX 77379",30.004853000000004,-95.54521,5436,15377,718189,649791,683990,8621,662067.0
77379,"17435 MEMORIAL MILLS DR, SPRING, TX 77379",30.025396999999998,-95.56231700000001,3760,8725,357455,320361,337222,-3318,302433.0
77379,"17222 CHASELOCH ST, SPRING, TX 77379",30.020653999999997,-95.564072,1327,6299,159623,139860,152022,-1640,142584.0
77379,"17427 MEMORIAL BLOSSOM DR, SPRING, TX 77379",30.02492,-95.560875,3876,8712,339409,303852,323247,-665,288000.0
77379,"6719 WIMBLEDON TRAIL RD, SPRING, TX 77379",30.021564,-95.515574,3827,23200,385226,348538,366882,-1049,331328.0
77379,"8802 CYPRESSWOOD DR, SPRING, TX 77379",29.997483000000003,-95.537605,8670,42331,1326612,1073924,1263440,3079,869700.0
77379,"8819 KILRENNY DR, SPRING, TX 77379",30.020155,-95.55169000000001,3734,8041,324940,291220,306547,-2863,272083.0
77379,"8310 MENTMORE DR, SPRING, TX 77379",30.01125,-95.539061,2580,7701,257266,215613,245015,-5134,225425.0
77379,"9110 CYPRESS SQUARE DR, SPRING, TX 77379",30.012334999999997,-95.550211,1977,6952,201272,182104,191688,1876,158397.0
77379,"15706 CONNERS ACE DR, SPRING, TX 77379",30.012821999999996,-95.503573,5208,9500,521277,466667,496454,4609,520922.0
77379,"16015 ALGRAVE LN, SPRING, TX 77379",29.999598,-95.542346,3638,12528,385314,348618,366966,-7201,320944.0
77379,"17130 CARROLL LAKE DR, SPRING, TX 77379",30.013745,-95.550004,2743,6325,252040,215043,231229,-2123,195298.0
77379,"16202 KEMPTON PARK DR, SPRING, TX 77379",30.001824,-95.54239100000001,3666,15733,444401,394091,419246,-2193,405615.0
77379,"8319 NORTHBRIDGE DR, SPRING, TX 77379",30.016678999999996,-95.543318,3493,13948,298798,267791,281885,-3085,223573.0
77379,"9615 GODSTONE LN, SPRING, TX 77379",30.000252000000003,-95.551501,2756,9670,280565,253845,267205,-1625,238336.0
77379,"17426 VICTORIA LAKES CIR, SPRING, TX 77379",30.022764000000002,-95.564674,4012,15842,455436,412062,433749,-98,380754.0
77379,"9311 MEMORIAL MANOR DR, SPRING, TX 77379",30.02409,-95.561066,3544,8847,352135,318599,335367,-727,325442.0
77379,"17106 MOUNTAIN CREST DR, SPRING, TX 77379",30.013338,-95.548637,2910,6325,260360,235564,247962,-560,221597.0
77379,"17710 FOREST PARK LN, SPRING, TX 77379",30.023144,-95.546758,3305,9749,305388,273395,290846,6086,245000.0
77379,"17503 COMORO LN, SPRING, TX 77379",30.025789000000003,-95.53769399999999,6554,10288,431859,390729,411294,5395,403306.0
77379,"9210 WALLINGHAM DR, SPRING, TX 77379",30.01185,-95.556676,2452,7810,217838,197092,207465,199,183908.0
77379,"16815 RIVER WILLOW DR, SPRING, TX 77379",30.012247,-95.541495,2576,11525,247177,218929,235407,-3400,202000.0
77379,"16402 AGUSTA CT, SPRING, TX 77379",30.002008,-95.550694,4819,14935,510891,462235,486563,-7096,472636.0
77379,"7907 KLEINGREEN LN, SPRING, TX 77379",30.010113,-95.527069,1944,8050,195998,173598,186665,-1601,163033.0
77379,"16019 SOUTHAMPTON DR, SPRING, TX 77379",30.011685999999997,-95.51387700000001,2291,9653,208878,188984,198931,2322,126161.0
77379,"8918 SUNNY POINT DR, SPRING, TX 77379",30.017677000000003,-95.55244300000001,1964,6747,203466,184088,193777,-855,175141.0
77379,"16622 LAFONE DR, SPRING, TX 77379",30.023732,-95.512458,4242,12982,457668,414080,435874,3546,383712.0
77379,"17803 VALLEY PALMS DR, SPRING, TX 77379",30.021927,-95.552419,2653,8930,254154,210996,239768,-3100,215547.0
77379,"16614 VICTORIA FALLS DR, SPRING, TX 77379",30.013003,-95.53198,4177,12253,646056,542443,609487,3289,622500.0
77379,"6526 WILDING WIMBLEDON CT, SPRING, TX 77379",30.010362,-95.50298199999999,5733,16018,718185,649787,683986,323,657365.0
77379,"7926 HEATHROW LN, SPRING, TX 77379",30.00832,-95.527067,2258,11077,217902,197150,207526,901,173154.0
77379,"8103 NORTHBRIDGE DR, SPRING, TX 77379",30.022578999999997,-95.541701,3332,16958,313777,277917,298835,745,256871.0
77379,"9127 LANDRY BLVD, SPRING, TX 77379",30.019928000000004,-95.559384,1822,6298,196410,177704,187057,-410,170260.0
77379,"9514 ARCADE DR, SPRING, TX 77379",29.998759000000003,-95.548062,2940,9761,302732,268134,288316,340,284994.0
77379,"17135 CARROLL LAKE DR, SPRING, TX 77379",30.013771999999996,-95.55040100000001,2707,6764,252271,223440,240258,1708,209322.0
77379,"5918 ASHMERE LN, SPRING, TX 77379",30.02556,-95.500455,2770,8865,269758,244066,256912,-1455,240077.0
77379,"16202 LANDAU PARK CT, SPRING, TX 77379",30.004782000000002,-95.53303299999999,3036,8424,289387,261827,275607,904,203465.0
77379,"7603 NAREMORE DR, SPRING, TX 77379",30.026017,-95.533496,7962,10140,588467,494729,520767,-1766,515321.0
77379,"6811 ENNS LN, SPRING, TX 77379",30.025284999999997,-95.51975,1360,5693,148348,131394,141284,520,112000.0
77379,"9215 COLONYWAY CT, SPRING, TX 77379",30.012779,-95.557358,2630,6824,237087,212249,225797,4825,210133.0
77379,"17303 CHAGALL LN, SPRING, TX 77379",30.024531,-95.531494,3575,10101,333434,301678,317556,2841,270867.0
77379,"6226 SAMPRAS ACE CT, SPRING, TX 77379",30.017633,-95.500423,2592,6721,257888,233328,245608,-219,106200.0
