zip,address,lat,lng,house area,lot area,high,low,estimate,month value change,property tax
77449,"3315 CONRAD LN, KATY, TX 77449",29.818016999999998,-95.726597,,5101,207978,188170,198074,1567,6575.0
77449,"22111 MANOR ESTATES DR, KATY, TX 77449",29.819153000000004,-95.754372,1528,6730,159381,136612,151791,-9693,135676.0
77449,"2819 MORTON COVE LN, KATY, TX 77449",29.816303,-95.749016,3123,4948,229876,207984,218930,-346,206050.0
77449,"2015 ANTHONY HAY LN, KATY, TX 77449",29.803088,-95.76839100000001,1635,6600,170621,152915,160963,2,137806.0
77449,"22102 WESTLAND CRK, KATY, TX 77449",29.818747,-95.754246,1110,6299,135852,122914,129383,-7533,118849.0
77449,"22203 BUCKTROUT LN, KATY, TX 77449",29.79502,-95.756286,3510,11051,319521,289091,304306,3024,317846.0
77449,"1804 SNAKE RIVER RD, KATY, TX 77449",29.792207,-95.72375,,,339946,167765,220744,8457,
77449,"1727 CROSSCOACH LN, KATY, TX 77449",29.792018,-95.733853,1263,6303,160935,145607,153271,68,126202.0
77449,"22522 DABNEY MANOR LN, KATY, TX 77449",29.808578000000004,-95.764842,1282,6826,160494,145208,152851,-328,128446.0
77449,"22422 ALBEE DR, KATY, TX 77449",29.816146999999997,-95.759446,1968,5998,221480,200386,210933,112,182474.0
77449,"20138 BEECHVIEW LN, KATY, TX 77449",29.800637,-95.72849000000001,2098,6710,199621,180609,190115,-622,167473.0
77449,"22810 STRATFORD HOUSE LN, KATY, TX 77449",29.811498999999998,-95.76865,1240,6826,151646,126372,140413,5143,126264.0
77449,"1606 WESTFORK DR, KATY, TX 77449",29.791453000000004,-95.734895,1210,6303,158223,143155,150689,1142,120555.0
77449,"2807 FROST GATE CT, KATY, TX 77449",29.814528999999997,-95.759843,1601,6146,203978,184552,194265,5087,177929.0
77449,"20018 BEECHVIEW LN, KATY, TX 77449",29.800637,-95.73029,2052,7662,200753,181633,191193,-999,145635.0
77449,"3030 SUNCHASE CT, KATY, TX 77449",29.81322,-95.722658,2895,11006,228172,206442,217307,-3938,190130.0
77449,"20927 BARBONS HEATH CT, KATY, TX 77449",29.794728999999997,-95.74089000000001,2016,6512,203747,184343,194045,-393,181672.0
77449,"20219 RAINGATE LN, KATY, TX 77449",29.799609000000004,-95.73180500000001,1090,6303,131785,119235,125510,-2090,107669.0
77449,"1703 HOYT LN, KATY, TX 77449",29.798087,-95.759762,2060,10298,225213,203765,214489,1785,195000.0
77449,"1703 OAKWELL LN, KATY, TX 77449",29.791619,-95.734798,1190,6264,155310,137560,147914,439,123248.0
77449,"3123 DRENNANBURG CT, KATY, TX 77449",29.815715,-95.715153,1514,6303,155462,139175,148059,-297,139991.0
77449,"1814 ABBY ALDRICH LN, KATY, TX 77449",29.799084999999998,-95.75468000000001,2707,8238,260082,235312,247697,3320,225337.0
77449,"22702 LEEDSTOWN LN, KATY, TX 77449",29.805577000000003,-95.768259,1590,6717,171286,154974,163130,-1480,143000.0
77449,"3002 N MASON RD, KATY, TX 77449",29.81761,-95.752022,1738,8163,193305,174895,184100,-2932,167459.0
77449,"3103 OXBRIDGE CT, KATY, TX 77449",29.820382000000002,-95.749223,2608,7405,216659,196025,206342,114,175000.0
77449,"20426 CHERRY HAVEN CIR, KATY, TX 77449",29.805103000000003,-95.73785600000001,2014,7374,201181,182021,191601,-551,172722.0
77449,"2711 DEFOE DR, KATY, TX 77449",29.815886,-95.76074399999999,2714,5998,244583,221289,232936,-312,222922.0
77449,"20118 ROLLING HILLS LN, KATY, TX 77449",29.810407,-95.722883,1534,5131,398248,183194,199124,3441,142664.0
77449,"3139 SILVER CEDAR TRL, KATY, TX 77449",29.816843,-95.730209,2164,8398,202305,183037,192671,-663,158117.0
77449,"20427 BLUE JUNIPER DR, KATY, TX 77449",29.802065000000002,-95.73713000000001,1988,7278,192884,174514,183699,-234,146979.0
77449,"21403 ROARING HILL CT, KATY, TX 77449",29.816406,-95.743922,3654,6534,266052,240714,253383,-951,229144.0
77449,"21319 SLATE CROSSING LN, KATY, TX 77449",29.814263,-95.74123900000001,2891,5275,227553,205881,216717,-2809,219219.0
77449,"20230 BLACK HICKORY CT, KATY, TX 77449",29.804591,-95.733763,2169,14427,208110,188290,198200,-465,167112.0
77449,"2035 OAKWELL LN, KATY, TX 77449",29.797164000000002,-95.734806,1723,7413,186716,168934,177825,26,147468.0
77449,"20218 SUNFLOWER CHASE, KATY, TX 77449",29.814346999999998,-95.724042,2251,6316,210849,190769,200809,1488,183827.0
77449,"22210 OCEANIC DR, KATY, TX 77449",29.810877,-95.757839,1750,5502,206755,187065,196910,1711,164000.0
77449,"20022 CRAZY HORSE CIR, KATY, TX 77449",29.796540999999998,-95.725992,2029,6240,190857,172681,181769,2037,168668.0
77449,"2522 KNOLL SHADOWS LN, KATY, TX 77449",29.811134000000003,-95.748866,3492,5915,241647,218633,230140,-734,195000.0
77449,"2634 CYRUS HILL DR, KATY, TX 77449",29.81209,-95.742029,1914,4400,200663,181553,191108,614,169692.0
77449,"2947 GREENVALLEY TRAIL DR, KATY, TX 77449",29.809521999999998,-95.723548,1577,7035,167160,137477,156224,-1578,150709.0
77449,"20434 CHERRY HAVEN CIR, KATY, TX 77449",29.805196999999996,-95.73794000000001,1958,6362,194142,175652,184897,559,159786.0
77449,"1751 BRICKARBOR DR, KATY, TX 77449",29.791771,-95.73599499999999,972,4099,123232,104454,117364,-5865,105879.0
77449,"20106 BEECHVIEW LN, KATY, TX 77449",29.800637,-95.72896999999999,2079,6930,199653,180639,190146,-836,158552.0
77449,"20719 REDBAY RD, KATY, TX 77449",29.811760999999997,-95.733168,1779,7736,189418,171378,180398,1430,154000.0
77449,"20131 HAZY LN, KATY, TX 77449",29.796963,-95.73040300000001,1218,6408,138614,121614,130768,-555,129989.0
77449,"3122 BALCH SPRINGS LN, KATY, TX 77449",29.818310999999998,-95.76456800000001,2972,6181,251557,227599,239578,-5061,259435.0
77449,"22322 GUSTON HALL LN, KATY, TX 77449",29.813127,-95.75972,2293,5502,235122,210722,221813,-953,213280.0
77449,"22019 GUSTON HALL LN, KATY, TX 77449",29.812856,-95.756847,2354,5501,226557,204981,215769,797,191213.0
77449,"20611 CEDAR RAIN DR, KATY, TX 77449",29.818168,-95.731243,1480,6490,164881,137401,152668,-256,150772.0
77449,"20238 APACHE GARDENS LN, KATY, TX 77449",29.796063,-95.731589,1160,5249,132191,119601,125896,-2137,117265.0
77449,"20227 LINDEN TREE DR, KATY, TX 77449",29.805044,-95.73483399999999,1420,6599,165692,149912,157802,14,127159.0
77449,"20234 LINDEN TREE DR, KATY, TX 77449",29.805319,-95.73461999999999,1150,5401,134040,118866,126453,-6095,115622.0
77449,"2666 ANTHONY HAY LN, KATY, TX 77449",29.811828000000002,-95.76473100000001,1512,7270,172086,150780,163891,244,133103.0
77449,"3022 SILVER SPUR DR, KATY, TX 77449",29.811121999999997,-95.725226,2456,5929,221927,200791,211359,2606,184320.0
77449,"22218 GUSTON HALL LN, KATY, TX 77449",29.813046999999997,-95.75349200000001,1556,5502,181435,152060,172795,-5249,160705.0
77449,"2214 FORT LARAMIE DR, KATY, TX 77449",29.800075,-95.725269,1559,6242,167198,144905,159236,-619,139520.0
77449,"3130 DRENNANBURG CT, KATY, TX 77449",29.815824,-95.714838,1514,12602,164911,147635,157058,1123,145073.0
77449,"20327 EAGLE NEST FLS, KATY, TX 77449",29.813511,-95.728368,2141,6098,191729,167991,182599,-681,172055.0
77449,"3403 W RAINMILL DR, KATY, TX 77449",29.819981,-95.732738,2110,5575,199770,180744,190257,233,172401.0
77449,"2823 CRESTBROOK BEND LN, KATY, TX 77449",29.818146000000002,-95.746848,2155,5757,202272,183008,192640,-94,176275.0
77449,"21623 WHITE FALLS LN, KATY, TX 77449",29.819159999999997,-95.747033,3005,10515,230197,208273,219235,-5392,206436.0
77449,"3042 VALLEY SPRING TRL, KATY, TX 77449",29.812577,-95.724351,2280,8570,202531,179385,192887,-1556,194372.0
77449,"20015 EASTMAN PL, KATY, TX 77449",29.818727000000003,-95.71856700000001,2153,6686,195072,176494,185783,98,165039.0
77449,"3427 E RAINMILL DR, KATY, TX 77449",29.819138,-95.732001,1637,4726,138964,121116,127490,468,150240.0
77449,"22602 OLD CHURCH LN, KATY, TX 77449",29.81485,-95.764599,1955,7209,199282,180302,189792,-1121,159894.0
77449,"2003 POWDER MIST LN, KATY, TX 77449",29.798075,-95.73232800000001,1352,8777,158903,143769,151336,1752,118179.0
77449,"3103 PAINTED MEADOW CIR, KATY, TX 77449",29.819592,-95.71361800000001,2607,5710,214417,191955,204207,-461,181887.0
77449,"2107 WHEAT SNOW CT, KATY, TX 77449",29.798213,-95.731142,1507,10528,171897,139080,156270,-634,137148.0
77449,"1911 W NAVAHO TRL, KATY, TX 77449",29.793073,-95.726775,1462,9723,176872,160028,168450,1489,129363.0
77449,"19811 EDENSBOROUGH DR, KATY, TX 77449",29.815293,-95.715008,1895,7625,183406,158952,174672,2288,177519.0
77449,"3318 RANDY LN, KATY, TX 77449",29.818710999999997,-95.727096,,5763,227480,184827,203107,394,3500.0
77449,"3031 RAINMONT LN, KATY, TX 77449",29.813469,-95.733249,2659,7070,227106,205476,216291,926,189145.0
77449,"3211 SUNNY MEADOWS LN, KATY, TX 77449",29.817709000000004,-95.71307,1978,5750,185925,164676,177071,-1623,165930.0
77449,"22831 JOHN ROLFE LN, KATY, TX 77449",29.806048999999998,-95.766261,1450,7349,170084,152266,161985,-335,142977.0
77449,"1507 EARL OF DUNMORE LN, KATY, TX 77449",29.795561,-95.757379,2705,8694,293129,230871,259406,6101,
77449,"2011 PINECREEK PASS LN, KATY, TX 77449",29.79624,-95.73610699999999,1670,6798,185954,168244,177099,1121,143000.0
77449,"3314 PAINTED MEADOW CIR, KATY, TX 77449",29.819810999999998,-95.713303,1986,6896,200232,181162,190697,2229,169942.0
77449,"22718 WILLHANNA DR, KATY, TX 77449",29.813767,-95.767477,1765,6242,165164,149434,157299,-380,163855.0
77449,"22731 PANTEGO LN, KATY, TX 77449",29.819568,-95.766624,2807,5998,250845,226955,238900,-24393,225000.0
77449,"22515 LEEDSTOWN LN, KATY, TX 77449",29.805309,-95.764964,1370,7070,150646,124821,143472,7828,135771.0
77449,"21310 SLATE CROSSING LN, KATY, TX 77449",29.814272999999996,-95.74152,2504,4813,229914,208018,218966,-1680,203959.0
77449,"20002 RICEWOOD WAY, KATY, TX 77449",29.817557,-95.71942800000001,2308,8586,209859,189873,199866,268,178502.0
77449,"22338 UNICORNS HORN LN, KATY, TX 77449",29.799944,-95.758323,3129,8640,247337,223781,235559,7416,225245.0
77449,"20431 WHITE POPLAR DR, KATY, TX 77449",29.80278,-95.737915,1585,6817,178001,161049,169525,8094,138287.0
77449,"22402 VOBE CT, KATY, TX 77449",29.800727000000002,-95.761825,2370,9361,257809,233255,245532,5883,211507.0
77449,"1919 W NAVAHO TRL, KATY, TX 77449",29.793128999999997,-95.726782,1230,8176,156745,141817,149281,877,117776.0
77449,"3122 DRENNANBURG CT, KATY, TX 77449",29.815719,-95.714836,1712,6303,166006,143872,158101,1145,137000.0
77449,"20614 VALLEY WELLS DR, KATY, TX 77449",29.812058,-95.73066800000001,2262,6935,204364,184900,194632,-659,174005.0
77449,"2606 ASH HAVEN LN, KATY, TX 77449",29.812459999999998,-95.747373,1758,7226,204682,185188,194935,343,166041.0
77449,"21650 GARDEN HEATH LN, KATY, TX 77449",29.816596999999998,-95.749439,3383,7693,236634,214098,225366,-799,182387.0
77449,"22603 WILLHANNA DR, KATY, TX 77449",29.813568,-95.764758,2625,6973,234393,212069,223231,-927,204169.0
77449,"20235 BLUE JUNIPER DR, KATY, TX 77449",29.802075,-95.734894,952,7474,133489,119636,125933,-3392,105475.0
77449,"20606 BROUGHWOOD CIR, KATY, TX 77449",29.793126,-95.737148,1003,5249,124936,105898,118987,-3022,104397.0
77449,"21614 GARDEN HEATH LN, KATY, TX 77449",29.81662,-95.748442,1838,5175,198088,179222,188655,875,150318.0
77449,"22807 CARTER MOIR LN, KATY, TX 77449",29.804608,-95.76673000000001,2288,7148,209214,187296,199251,-417,145392.0
77449,"2703 FROST GATE CT, KATY, TX 77449",29.813793,-95.759838,2782,6787,242185,219119,230652,-2270,227011.0
77449,"20927 DOVER MIST LN, KATY, TX 77449",29.800102000000003,-95.741896,1709,6098,200428,181340,190884,2077,161000.0
77449,"2031 MONARCH HOLLOW LN, KATY, TX 77449",29.796568,-95.738078,2997,7283,259427,234719,247073,503,229575.0
77449,"1531 DURFEY LN, KATY, TX 77449",29.795731,-95.756336,2162,8851,237126,214542,225834,-677,201100.0
77449,"19406 HAYSTREAM DR, KATY, TX 77449",29.8192,-95.709314,1870,6717,182161,164813,173487,890,154122.0
77449,"22734 BRAFFERTON LN, KATY, TX 77449",29.812984999999998,-95.766999,1104,6660,135084,118517,127438,-2983,128767.0
77449,"20214 TELEGRAPH SQUARE LN, KATY, TX 77449",29.795361,-95.73411,1162,5776,131772,119222,125497,-658,119775.0
77449,"19218 INDIAN GRASS DR, KATY, TX 77449",29.819225,-95.706232,1386,6299,152227,133380,144978,1298,134480.0
77449,"2110 TOWNHALL LN, KATY, TX 77449",29.804481,-95.761578,1827,7705,187155,169331,178243,612,165711.0
77449,"22207 HESSE CT, KATY, TX 77449",29.814453000000004,-95.757902,2481,11404,244809,221493,233151,-1624,226158.0
77449,"3342 PURSLANE DR, KATY, TX 77449",29.816969,-95.708789,1543,4726,143537,125766,136702,1056,115838.0
77449,"3334 PURSLANE DR, KATY, TX 77449",29.816806,-95.708786,1379,4726,137766,117356,127561,3035,108851.0
77449,"22706 PANTEGO LN, KATY, TX 77449",29.819266,-95.765028,2699,6486,237944,215282,226613,-5801,210841.0
77449,"20210 SANDWITH DR, KATY, TX 77449",29.791024,-95.729964,2612,6050,235636,207008,220221,79,189682.0
77449,"2231 FORT LARAMIE DR, KATY, TX 77449",29.800016999999997,-95.725651,1935,6175,193444,175020,184232,-236,175730.0
77449,"3075 SILVER CEDAR TRL, KATY, TX 77449",29.813993,-95.729902,2114,7571,201535,182341,191938,-27,163826.0
77449,"3226 SUNNY MEADOWS LN, KATY, TX 77449",29.818716,-95.711995,2496,5749,213670,193320,203495,817,176844.0
77449,"20607 CEDAR RAIN DR, KATY, TX 77449",29.818199,-95.73128299999999,1969,7588,196144,173728,186804,-810,174223.0
77449,"20210 SILVER CYPRESS CT, KATY, TX 77449",29.803941,-95.734887,1780,6299,184053,166525,175289,1320,140268.0
77449,"1823 OAKWELL LN, KATY, TX 77449",29.793376000000002,-95.734804,1,6900,178473,161475,169974,-955,139391.0
77449,"2010 PINECREEK PASS LN, KATY, TX 77449",29.796243,-95.735791,2331,6599,214457,194033,204245,1584,169000.0
77449,"20111 ROLLING HILLS LN, KATY, TX 77449",29.810133,-95.722937,1888,4511,199896,180858,190377,-1137,157086.0
77449,"22406 N REBECCA BURWELL LN, KATY, TX 77449",29.7971,-95.759878,2311,8760,249227,225491,237359,6311,210383.0
77449,"22726 ELKANA DEANE LN, KATY, TX 77449",29.807069,-95.76790799999999,1646,6299,186807,169015,177911,424,154546.0
77449,"20206 BLUE JUNIPER DR, KATY, TX 77449",29.802357,-95.733301,1175,7148,140825,122399,131612,-7308,117913.0
77449,"21335 SLATE CROSSING LN, KATY, TX 77449",29.814161,-95.74266999999999,2088,5275,213792,193430,203611,596,179441.0
77449,"19514 MUNSEY CT, KATY, TX 77449",29.818156,-95.710567,1404,4456,131457,116433,125197,1286,109933.0
77449,"1734 VANDERWILT LN, KATY, TX 77449",29.79257,-95.738826,1775,6922,194655,176117,185386,4222,178881.0
77449,"20511 CEDAR RAIN DR, KATY, TX 77449",29.817959000000002,-95.729951,1736,6003,175765,140289,161252,-1910,142000.0
77449,"20606 CAT SPRINGS CT, KATY, TX 77449",29.811446000000004,-95.731041,1560,7239,173305,150197,165052,-1509,139294.0
77449,"22715 BRAKEN MANOR LN, KATY, TX 77449",29.809520000000003,-95.76719399999999,1252,6300,151922,131857,143323,-841,129375.0
77449,"20203 TELEGRAPH SQUARE LN, KATY, TX 77449",29.795083,-95.734511,1162,6826,141139,127697,134418,-100,119279.0
77449,"3202 RAINTREE VILLAGE DR, KATY, TX 77449",29.816435,-95.733439,1748,6630,198656,179736,189196,-414,167861.0
77449,"3107 DRENNANBURG CT, KATY, TX 77449",29.815506,-95.715149,1588,6300,154917,137212,147540,-2964,142424.0
77449,"2314 SAND PLUM DR, KATY, TX 77449",29.802169,-95.732653,1256,6900,149974,124069,136340,-2057,123897.0
77449,"20931 DOVER MIST LN, KATY, TX 77449",29.800117999999998,-95.741895,1458,5885,178013,155973,169536,1636,162922.0
77449,"22614 WILLHANNA DR, KATY, TX 77449",29.814066999999998,-95.764372,1944,6085,196285,177591,186938,-1043,156075.0
77449,"20202 SMITHFIELD CROSSING LN, KATY, TX 77449",29.794627000000002,-95.734548,1805,7218,187375,160607,178452,3184,165172.0
77449,"20167 NEWMINT CT, KATY, TX 77449",29.796453000000003,-95.731347,2142,6403,195872,177218,186545,-1019,158464.0
77449,"20503 BROADSKY DR, KATY, TX 77449",29.788473,-95.737243,1714,8063,191650,173398,182524,278,144514.0
77449,"22611 LEEDSTOWN LN, KATY, TX 77449",29.805565,-95.763238,1282,6077,149389,125202,142275,8511,129769.0
77449,"19230 HAYSTREAM DR, KATY, TX 77449",29.818645,-95.707369,1582,6299,151356,127082,142789,-1211,137000.0
77449,"19418 INDIAN GRASS DR, KATY, TX 77449",29.81945,-95.707791,1582,6434,155796,135023,148377,1478,140354.0
77449,"3342 BRACKENFERN RD, KATY, TX 77449",29.82023,-95.710903,2068,5750,200861,181731,191296,-19,166682.0
77449,"20618 BIG WELLS DR, KATY, TX 77449",29.812879,-95.730886,1829,6495,193301,174891,184096,1924,160939.0
77449,"22403 UNICORNS HORN LN, KATY, TX 77449",29.799643,-95.761744,2228,9361,241230,213920,227575,7062,180000.0
77449,"19222 LAZY VALLEY DR, KATY, TX 77449",29.815573999999998,-95.705864,1308,4726,128695,116439,122567,641,102345.0
77449,"2915 BRIGHTSPRING CT, KATY, TX 77449",29.816340000000004,-95.74819000000001,2915,4950,224869,203453,214161,-3214,196871.0
77449,"1806 WESTFORK DR, KATY, TX 77449",29.793385999999998,-95.73154,1470,6599,168643,152581,160612,-593,127800.0
77449,"20207 TELEGRAPH SQUARE LN, KATY, TX 77449",29.795084999999997,-95.734377,1114,6303,137488,121775,130941,-743,119746.0
77449,"20210 POMEGRANATE LN, KATY, TX 77449",29.808829,-95.735761,1534,6064,174953,154958,166622,1833,146509.0
77449,"21602 IVORY GATE LN, KATY, TX 77449",29.812804999999997,-95.74701,2589,7309,226890,205282,216086,-1189,190658.0
77449,"2718 BRONZE LOQUATE CT, KATY, TX 77449",29.807661,-95.737262,2299,6325,209350,189412,199381,-1306,175000.0
77449,"2727 INDIGO STONE LN, KATY, TX 77449",29.81438,-95.74667,3079,5502,228917,207115,218016,-990,209709.0
77449,"20819 LAVENDERWOOD DR, KATY, TX 77449",29.814911,-95.735411,1628,7146,188382,170440,179411,-249,144774.0
77449,"2927 GREENVALLEY TRAIL DR, KATY, TX 77449",29.809234000000004,-95.723548,2077,4275,192263,173953,183108,-1768,158155.0
77449,"2106 WHEAT SNOW CT, KATY, TX 77449",29.798378999999997,-95.73115899999999,1270,10389,142851,127886,136049,1521,115000.0
77449,"19327 LAZY VALLEY DR, KATY, TX 77449",29.815284000000002,-95.707194,1308,5406,130821,118361,124591,-845,101509.0
77449,"22503 GANADO CREEK CT, KATY, TX 77449",29.820315,-95.761252,1979,7000,221475,200383,210929,-1614,207397.0
77449,"2111 CROSSCOACH LN, KATY, TX 77449",29.798188,-95.73397800000001,1446,6303,156907,138975,149435,-1339,117262.0
77449,"2530 SEAHORSE BEND DR, KATY, TX 77449",29.810901,-95.756472,2711,5506,242215,219147,230681,-585,229843.0
77449,"2923 FORT STOCKTON DR, KATY, TX 77449",29.81079,-95.732258,2200,6482,200430,181342,190886,-5511,154408.0
77449,"1614 CALVERYMAN LN, KATY, TX 77449",29.796983,-95.76235,2876,8759,296671,268417,282544,6100,299007.0
77449,"1915 MONARCH HOLLOW LN, KATY, TX 77449",29.795438,-95.737524,1814,6325,191590,173344,182467,3452,177091.0
77449,"3010 SUN GLEN CT, KATY, TX 77449",29.811546000000003,-95.721763,1850,6195,188592,170630,179611,1269,167044.0
77449,"22815 STRATFORD HOUSE LN, KATY, TX 77449",29.811226,-95.768585,1490,6298,168723,152655,160689,-3234,136408.0
77449,"21358 SLATE CROSSING LN, KATY, TX 77449",29.814374,-95.742902,2690,5249,226398,204836,215617,-1548,211130.0
77449,"20211 SUNCOAST DR, KATY, TX 77449",29.812941,-95.724277,2924,5784,220987,199941,210464,-310,209358.0
77449,"22019 WESTLAND CRK, KATY, TX 77449",29.818472999999997,-95.75336800000001,1202,6403,144254,125202,136089,-2475,123232.0
77449,"22110 BREEZY HILL DR, KATY, TX 77449",29.818006,-95.754476,1474,6721,160509,145223,152866,-1701,129132.0
77449,"22506 HOLBROOK SPRINGS CT, KATY, TX 77449",29.819946999999996,-95.76153000000001,1938,6939,222908,201678,212293,-880,204068.0
77449,"1718 PRINCE GEORGE CT, KATY, TX 77449",29.798191,-95.7614,3124,9600,277415,245711,264205,-1442,258000.0
77449,"21314 BEACON SPRINGS LN, KATY, TX 77449",29.816052000000003,-95.741394,2424,5279,221156,200094,210625,-189,195484.0
77449,"2015 WHEATHALL CAMP LN, KATY, TX 77449",29.796821,-95.733138,1352,6303,159120,142450,151543,-546,120600.0
77449,"3042 SILVER SPUR DR, KATY, TX 77449",29.81144,-95.72523100000001,2125,11613,203802,184392,194097,807,166187.0
77449,"22611 POWELL HOUSE LN, KATY, TX 77449",29.810154999999998,-95.764628,1365,6612,160752,144070,151653,-384,132318.0
77449,"22603 DABNEY MANOR LN, KATY, TX 77449",29.808542,-95.76341,1427,6826,154498,135370,147141,3308,124600.0
77449,"22522 MARKET SQUARE LN, KATY, TX 77449",29.802661999999998,-95.765625,1226,6299,156452,138572,149002,8698,133548.0
77449,"3102 SNUG HARBOUR CT, KATY, TX 77449",29.819867,-95.750162,2310,7928,209214,189288,199251,522,163282.0
77449,"2119 OAKWELL LN, KATY, TX 77449",29.798313,-95.734832,1507,6325,167749,145801,156775,-1316,152623.0
77449,"22523 BRAKEN MANOR LN, KATY, TX 77449",29.809036,-95.764831,1663,6510,175325,150278,166976,-5016,147656.0
77449,"3411 W RAINMILL DR, KATY, TX 77449",29.819805,-95.732828,1270,4726,154958,130567,143480,1074,127000.0
77449,"3003 FRESCO WELLS DR, KATY, TX 77449",29.810814,-95.723788,2543,6861,221471,200379,210925,394,204182.0
77449,"21731 MANITOU FALLS LN, KATY, TX 77449",29.817749,-95.74781899999999,2225,6050,207046,187328,197187,192,178508.0
77449,"2106 WHEATHALL CAMP LN, KATY, TX 77449",29.798139000000003,-95.732821,1152,5776,130601,118163,124382,-2507,119728.0
77449,"20322 LINDEN TREE DR, KATY, TX 77449",29.805317,-95.73510999999999,1560,6050,174463,157847,166155,2256,145304.0
77449,"22210 BELLOW GLEN DR, KATY, TX 77449",29.813918,-95.75784399999999,1621,6009,186258,168520,177389,-1986,168345.0
77449,"21523 STONECROSS TERRACE LN, KATY, TX 77449",29.810496999999998,-95.745926,2279,7644,215363,194853,205108,962,177632.0
77449,"20143 TELEGRAPH SQUARE LN, KATY, TX 77449",29.795118,-95.730213,1159,6599,140604,125874,133909,-218,128477.0
77449,"20018 MOONFLOWER LN, KATY, TX 77449",29.797925,-95.72921,1782,6499,189060,171054,180057,1423,150520.0
77449,"20139 TELEGRAPH SQUARE LN, KATY, TX 77449",29.795306,-95.72994200000001,1266,6050,156887,141945,149416,2250,121236.0
77449,"22542 MARKET SQUARE LN, KATY, TX 77449",29.802667,-95.765136,1480,6299,165158,146460,155809,215,147689.0
77449,"20707 ROCK HARBOR CT, KATY, TX 77449",29.796711,-95.737953,2367,6882,216745,196103,206424,6396,196082.0
77449,"20527 BROUGHWOOD CIR, KATY, TX 77449",29.792844,-95.73750600000001,1183,7596,148172,127204,139785,-1518,117830.0
77449,"22507 BLAIR MANOR LN, KATY, TX 77449",29.810287,-95.76270600000001,1365,6403,160408,145132,152770,840,132112.0
77449,"22731 TARA WAY DR, KATY, TX 77449",29.815687,-95.76831999999999,1506,6242,182607,153321,172271,-655,146627.0
77449,"2523 TOWNHALL LN, KATY, TX 77449",29.810489,-95.761859,2090,6615,209997,189997,199997,952,173363.0
77449,"20122 TELEGRAPH SQUARE LN, KATY, TX 77449",29.796171,-95.72964,1404,6303,154758,128478,145998,634,136700.0
77449,"22326 GUSTON HALL LN, KATY, TX 77449",29.813127,-95.759681,1750,5502,198257,179375,188816,67,163000.0
77449,"20710 ROCK HARBOR CT, KATY, TX 77449",29.796988,-95.737961,2784,6710,239200,216420,227810,-857,216404.0
77449,"1730 VANDERWILT LN, KATY, TX 77449",29.792506,-95.73884,1627,6247,181649,164349,172999,5278,166220.0
77449,"20535 BLUE BEECH DR, KATY, TX 77449",29.803493,-95.74089000000001,832,5550,109465,91873,97737,-172,77123.0
77449,"2022 POWDER MIST LN, KATY, TX 77449",29.797924,-95.732012,1464,6826,165254,149516,157385,-403,129442.0
77449,"2915 GREENVALLEY TRAIL DR, KATY, TX 77449",29.809061,-95.723548,1514,4273,168783,143779,156281,-544,140269.0
77449,"20011 GOLDEN MESA DR, KATY, TX 77449",29.808695,-95.721523,1834,4978,189898,171812,180855,-373,158356.0
77449,"22619 BLAIR MANOR LN, KATY, TX 77449",29.809921999999997,-95.764362,1365,6300,166049,150235,158142,5881,125774.0
77449,"20030 S PECOS VALLEY TRL, KATY, TX 77449",29.795234999999998,-95.723097,2143,6660,193303,174893,184098,-59,159404.0
77449,"2835 PLUM TRAILS LN, KATY, TX 77449",29.808331,-95.733549,2547,7636,229871,207979,218925,-2129,186419.0
77449,"3046 TEXAS OAK DR, KATY, TX 77449",29.813892,-95.73549200000001,2741,6969,227791,206097,216944,-230,183800.0
77449,"3011 TEXAS OAK DR, KATY, TX 77449",29.813111,-95.73524,2399,6599,218488,197680,208084,3856,175707.0
77449,"2015 POWDER MIST LN, KATY, TX 77449",29.797984000000003,-95.73232800000001,1203,5667,135619,120265,127942,-2645,117405.0
77449,"22303 LAVACA RANCH LN, KATY, TX 77449",29.817840000000004,-95.759822,1842,5811,226017,204491,215254,356,197375.0
77449,"3419 W RAINMILL DR, KATY, TX 77449",29.81972,-95.732825,1491,4726,156199,129922,145980,401,144000.0
77449,"22407 WETHERBURN LN, KATY, TX 77449",29.801292999999998,-95.76045699999999,2612,8638,253387,226842,241321,7596,205000.0
77449,"21007 MORGAN KNOLL LN, KATY, TX 77449",29.799544,-95.742459,2232,4761,215214,194718,204966,1005,196548.0
77449,"20055 N PECOS VALLEY TRL, KATY, TX 77449",29.795001,-95.725081,1340,6303,163372,146256,155592,-846,131071.0
77449,"2907 COPPER CLIFF DR, KATY, TX 77449",29.808909999999997,-95.72501899999999,1534,4478,165656,140651,156279,211,147971.0
77449,"1607 CARTERS GROVE LN, KATY, TX 77449",29.796309,-95.754547,3804,8882,281278,254490,267884,3539,237277.0
77449,"20210 SMITHFIELD CROSSING LN, KATY, TX 77449",29.794625,-95.73414,1628,6303,168537,152485,160511,-628,120042.0
77449,"3222 COLDWATER CANYON LN, KATY, TX 77449",29.819069,-95.750702,2109,6490,215760,195212,205486,959,160395.0
77449,"22710 POWELL HOUSE LN, KATY, TX 77449",29.812671,-95.768204,1700,6403,192974,174596,183785,-497,142847.0
77449,"20231 BLUE JUNIPER DR, KATY, TX 77449",29.802075,-95.734971,1706,7475,177611,160695,169153,1526,139396.0
77449,"22703 STRATFORD HOUSE LN, KATY, TX 77449",29.811243,-95.76729399999999,1624,8912,191275,173059,182167,-185,136500.0
77449,"2607 MAVERICK PARK LN, KATY, TX 77449",29.812444,-95.745798,2679,6599,228658,206882,217770,-3044,198361.0
77449,"2714 BRONZE LOQUATE CT, KATY, TX 77449",29.80769,-95.737262,1569,6220,178496,161496,169996,1463,152748.0
77449,"2126 GRAY HAWK LN, KATY, TX 77449",29.79774,-95.723135,1935,7074,193418,174998,184208,-519,156442.0
77449,"3231 AMBER MEADOW DR, KATY, TX 77449",29.81805,-95.713817,2532,5248,201525,174655,191929,-1052,185364.0
77449,"2623 ARCADIA RIDGE LN, KATY, TX 77449",29.811575,-95.750015,3748,8620,265179,239923,252551,-259,229275.0
77449,"20714 N RAINMILL DR, KATY, TX 77449",29.819996000000003,-95.73195799999999,1235,4961,152848,131218,144196,1835,124906.0
77449,"22614 GUARDSMAN LN, KATY, TX 77449",29.812367,-95.76293000000001,1320,6300,162084,145264,152909,1208,126906.0
77449,"1922 VANDERWILT LN, KATY, TX 77449",29.794192,-95.740408,2664,5639,233881,209610,220642,2889,189694.0
77449,"2103 PINECREEK PASS LN, KATY, TX 77449",29.797139,-95.736118,2768,6643,244869,221549,233209,1251,226581.0
77449,"20834 OAK RAIN CT, KATY, TX 77449",29.817207,-95.734038,2199,7161,200925,179876,191357,-296,185263.0
77449,"22518 OLD CHURCH LN, KATY, TX 77449",29.815582,-95.763885,2630,8102,237842,213160,224379,-2746,180000.0
77449,"20075 N PECOS VALLEY TRL, KATY, TX 77449",29.794976000000002,-95.725764,1326,6242,158825,143699,151262,1142,124792.0
77449,"20619 APACHE LAKE DR, KATY, TX 77449",29.814262,-95.73143,1615,7505,189865,171783,180824,677,163703.0
77449,"19930 GATLING CT, KATY, TX 77449",29.800023,-95.72114499999999,1848,6612,191211,173001,182106,250,152292.0
77449,"3010 BRIDGEWATER MANOR LN, KATY, TX 77449",29.818540999999996,-95.750249,3564,8773,241607,218597,230102,-2150,222839.0
77449,"3027 SUNSET LNDG, KATY, TX 77449",29.813563000000002,-95.72415699999999,2251,6604,200656,177724,191101,2176,185569.0
77449,"2911 SINTON CT, KATY, TX 77449",29.809693,-95.730609,1849,6242,191470,173234,182352,2370,159831.0
77449,"2007 WILDBROOK CANYON LN, KATY, TX 77449",29.794866,-95.742728,1648,5175,185521,167853,176687,8179,170544.0
77449,"22603 ELKANA DEANE LN, KATY, TX 77449",29.807039000000003,-95.763374,1433,6826,143933,116776,135786,1281,137302.0
77449,"21827 MANITOU FALLS LN, KATY, TX 77449",29.817751,-95.750407,3064,6050,229666,207794,218730,-1524,205688.0
77449,"3310 DOVESHIRE CT, KATY, TX 77449",29.819656,-95.71571,2308,9666,213437,193109,203273,-963,184018.0
77449,"2918 BRIGHTSPRING CT, KATY, TX 77449",29.816330999999998,-95.747872,2702,5175,221197,200131,210664,-2170,181850.0
77449,"2527 BLUE REEF DR, KATY, TX 77449",29.810043,-95.75811999999999,1494,5750,207781,187993,197887,-399,170339.0
77449,"22806 WILLHANNA DR, KATY, TX 77449",29.813786999999998,-95.76621800000001,1992,6240,202552,183262,192907,-1007,160028.0
77449,"20015 FORT CUSTER CT, KATY, TX 77449",29.79958,-95.72388000000001,1935,8337,194195,175701,184948,-347,157536.0
77449,"21410 DORAL ROSE LN, KATY, TX 77449",29.813022999999998,-95.743687,1716,5245,192019,173731,182875,1458,148880.0
77449,"20510 NAPLES TERRACE LN, KATY, TX 77449",29.794728000000003,-95.736121,1698,6325,187361,167733,178439,2744,171141.0
77449,"2023 W PECOS VALLEY TRL, KATY, TX 77449",29.794584000000004,-95.726773,1152,8281,149194,133565,142090,-897,121055.0
77449,"22515 WILLIAMSCHASE DR, KATY, TX 77449",29.813572999999998,-95.761317,2094,7023,204287,184831,194559,1825,164151.0
77449,"20919 BALMORAL GLEN LN, KATY, TX 77449",29.793183000000003,-95.74221899999999,2472,5419,218040,197274,207657,3912,206520.0
77449,"20810 GOLDEN RAINTREE DR, KATY, TX 77449",29.811195,-95.733336,2772,9126,228010,206294,217152,-831,196103.0
77449,"20526 APACHE LAKE DR, KATY, TX 77449",29.814403999999996,-95.730361,1562,8146,180557,156483,171959,7828,156178.0
77449,"2827 ORCHID TREE LN, KATY, TX 77449",29.809659000000003,-95.735101,1668,11082,192712,174358,183535,1169,156337.0
77449,"22726 BRAFFERTON LN, KATY, TX 77449",29.812981,-95.767165,1624,6660,190005,171909,180957,88,136500.0
77449,"2459 ANTHONY HAY LN, KATY, TX 77449",29.809820000000002,-95.767318,1411,6599,167670,148688,158179,3889,128623.0
77449,"1906 WESTFORK DR, KATY, TX 77449",29.794633,-95.73112900000001,1184,7845,153785,137674,146462,1159,129804.0
77449,"21031 CREEK EDGE CT, KATY, TX 77449",29.818851000000002,-95.741398,2432,6556,213736,193380,203558,1362,178560.0
77449,"20814 SILK OAK CT, KATY, TX 77449",29.814109000000002,-95.734272,2389,11975,223203,201945,212574,-698,178826.0
77449,"2907 GREENVALLEY TRAIL DR, KATY, TX 77449",29.808946000000002,-95.723548,1562,4273,166511,142724,158582,-102,145963.0
77449,"19107 PLANTAIN DR, KATY, TX 77449",29.816021999999997,-95.704189,1800,4683,184351,166793,175572,-264,154886.0
77449,"2814 FROST GATE CT, KATY, TX 77449",29.814587,-95.759528,3016,9598,262567,237561,250064,-1719,240603.0
77449,"2950 CARRIZO SPRINGS CT, KATY, TX 77449",29.809876000000003,-95.726927,2596,5250,219035,198175,208605,2336,191735.0
77449,"20410 LINDEN TREE DR, KATY, TX 77449",29.804536,-95.737247,2050,6695,197147,178371,187759,-208,158000.0
77449,"20246 TELEGRAPH SQUARE LN, KATY, TX 77449",29.795371000000003,-95.733032,1210,5776,144379,126504,137504,-2806,121141.0
77449,"22443 STAMFORD BROOK CT, KATY, TX 77449",29.818490999999998,-95.760308,2281,5415,227858,206158,217008,-742,194955.0
77449,"3115 BIRCHLEAF DR, KATY, TX 77449",29.815246000000002,-95.729434,1692,6630,175544,143036,162541,-1637,140000.0
77449,"22731 WILLHANNA DR, KATY, TX 77449",29.813496,-95.7673,1604,6098,184452,166886,175669,788,148382.0
77449,"2506 DESERT SAGE DR, KATY, TX 77449",29.803721999999997,-95.738096,1958,6460,199143,180177,189660,-125,158000.0
77449,"22739 BRAFFERTON LN, KATY, TX 77449",29.812713000000002,-95.766908,1604,6298,187299,169461,178380,-725,141590.0
77449,"2214 GRAY HAWK LN, KATY, TX 77449",29.799043,-95.723524,1597,6656,136243,118744,124994,1636,148968.0
77449,"3036 WALNUT SPRINGS DR, KATY, TX 77449",29.81157,-95.728612,1497,5397,154650,134030,147286,2213,139479.0
77449,"19935 FORT STANTON DR, KATY, TX 77449",29.796740999999997,-95.721913,1679,6240,186404,168652,177528,-600,129722.0
77449,"20907 DOVER MIST LN, KATY, TX 77449",29.800021,-95.741905,2232,4813,217496,196782,207139,755,196576.0
77449,"19519 HOLLOWLOG DR, KATY, TX 77449",29.816993,-95.710433,1416,6130,150633,136287,143460,2570,110051.0
77449,"22718 LEEDSTOWN LN, KATY, TX 77449",29.805577000000003,-95.768011,1384,6300,145538,121281,134757,-1817,139418.0
77449,"2834 BRISTLECONE DR, KATY, TX 77449",29.807671999999997,-95.734326,1999,8377,200688,181574,191131,-1118,172847.0
77449,"2518 MARBLE MANOR LN, KATY, TX 77449",29.810671000000003,-95.750535,2160,5540,210568,190514,200541,981,162117.0
77449,"2026 PINECREEK PASS LN, KATY, TX 77449",29.796398999999997,-95.735793,1847,6599,188642,159897,179659,2268,178886.0
77449,"3315 BRACKENFERN RD, KATY, TX 77449",29.819416999999998,-95.71185,1473,7383,147792,125692,138123,4054,147518.0
77449,"2803 MORTON COVE LN, KATY, TX 77449",29.816440999999998,-95.749018,2944,6939,237717,215077,226397,392,202985.0
77449,"2726 DEFOE DR, KATY, TX 77449",29.815695,-95.760432,1746,6251,210458,190414,200436,166,181539.0
77449,"20078 CRAZY HORSE CIR, KATY, TX 77449",29.796955,-95.724166,1775,6761,182449,159860,173761,3912,143315.0
77449,"2730 JEANENE CT, KATY, TX 77449",29.814066999999998,-95.762334,1634,7954,179378,157169,170836,100,141796.0
77449,"2011 SHERBROOK PARK LN, KATY, TX 77449",29.797995,-95.737047,2933,7828,261225,236347,248786,1385,226571.0
77449,"21423 SLATE CROSSING LN, KATY, TX 77449",29.813593,-95.74459399999999,2678,5955,227815,206119,216967,-1045,190333.0
77449,"3202 RANDY LN, KATY, TX 77449",29.817031,-95.727089,,5101,230185,187025,205522,902,3500.0
77449,"19903 RICEWOOD WAY, KATY, TX 77449",29.817256,-95.71735600000001,1554,6825,160077,138935,151016,-2394,141000.0
77449,"2031 PROSPECT GLEN LN, KATY, TX 77449",29.798026,-95.730278,1410,5665,159282,142595,151697,286,124000.0
77449,"20215 LINDEN TREE DR, KATY, TX 77449",29.805042999999998,-95.735109,1388,7732,165583,149813,157698,-110,130689.0
77449,"21747 STONEY BLUFF LN, KATY, TX 77449",29.810301000000003,-95.750408,1858,11081,214910,194442,204676,12,170752.0
77449,"3130 ROCKY CREST DR, KATY, TX 77449",29.819437,-95.753075,1110,6242,135741,122813,129277,-8197,119577.0
77449,"22402 UNICORNS HORN LN, KATY, TX 77449",29.799917999999998,-95.761747,2216,9361,241120,218156,229638,5345,213864.0
77449,"20215 SMITHFIELD CROSSING LN, KATY, TX 77449",29.794351000000002,-95.733958,1637,5776,173305,156799,165052,-1716,131301.0
77449,"22819 BRAFFERTON LN, KATY, TX 77449",29.812675,-95.768304,2837,6825,240214,217336,228775,-2698,235807.0
77449,"22814 TARA WAY DR, KATY, TX 77449",29.815998999999998,-95.766856,2040,6242,211661,191503,201582,350,178052.0
77449,"19906 JASPERWOOD CIR, KATY, TX 77449",29.818267,-95.71759399999999,1924,6303,195256,176660,185958,1051,158157.0
77449,"19954 FORT STANTON DR, KATY, TX 77449",29.797110999999997,-95.720827,1607,7200,179609,162503,171056,-533,152844.0
77449,"21326 DORAL ROSE LN, KATY, TX 77449",29.813083000000002,-95.74369,1816,4731,203037,183701,193369,259,166967.0
77449,"3227 TYNEMEADOW CT, KATY, TX 77449",29.817795,-95.71599599999999,1869,6425,190587,172435,181511,162,156599.0
77449,"20027 BEECHVIEW LN, KATY, TX 77449",29.800363,-95.73017,1352,5775,155409,136168,148009,3302,125885.0
77449,"20506 RED SUN DR, KATY, TX 77449",29.813365,-95.729712,2125,7438,198725,179799,189262,1584,169891.0
77449,"3110 DRENNANBURG CT, KATY, TX 77449",29.815563,-95.714834,1588,6303,155167,137434,147778,-1703,142424.0
77449,"22534 HEATHER WAY CT, KATY, TX 77449",29.815977,-95.763258,2072,6240,212224,192012,202118,167,170999.0
77449,"3103 DRENNANBURG CT, KATY, TX 77449",29.815454,-95.715148,1869,6930,178497,149597,169997,-2865,165668.0
77449,"19523 LAZY VALLEY DR, KATY, TX 77449",29.815254,-95.710454,1230,5406,134746,120763,127119,-471,95177.0
77449,"22014 WESTLAND CRK, KATY, TX 77449",29.818747,-95.753326,1202,6403,144373,126498,137498,-2452,126209.0
77449,"22102 UNICORNS HORN LN, KATY, TX 77449",29.80002,-95.75518100000001,1888,8219,214740,186378,202585,5022,196913.0
77449,"2011 WHEATHALL CAMP LN, KATY, TX 77449",29.796761,-95.733138,1186,5776,135856,119194,128166,-5769,120337.0
77449,"2919 KATYBRIAR LN, KATY, TX 77449",29.815548,-95.749865,1579,4948,175992,155878,167611,-505,132788.0
77449,"22211 BLACKTIP DR, KATY, TX 77449",29.809829999999998,-95.757737,2740,6599,251485,227535,239510,4708,232126.0
77449,"2826 PLUM TRAILS LN, KATY, TX 77449",29.808294,-95.733232,1815,7200,193121,174729,183925,-549,137511.0
77449,"20242 SUNCOAST DR, KATY, TX 77449",29.813183000000002,-95.725599,2924,7697,212005,185757,201910,-7313,206555.0
77449,"20922 DOVER MIST LN, KATY, TX 77449",29.799798,-95.74159300000001,2229,5162,215428,194912,205170,1720,196782.0
77449,"21519 STONECROSS TERRACE LN, KATY, TX 77449",29.810523,-95.745889,2092,8107,211533,191387,201460,590,181449.0
77449,"20147 BEECHVIEW LN, KATY, TX 77449",29.800363,-95.72837,996,5780,127511,114153,121439,-84,112799.0
77449,"2019 WHEATHALL CAMP LN, KATY, TX 77449",29.796882,-95.733138,1186,5776,136144,119447,128438,-5484,119794.0
77449,"20407 BLUE JUNIPER DR, KATY, TX 77449",29.802063,-95.73733399999999,1205,7057,143387,123097,135271,-3925,119458.0
77449,"22511 MARKET SQUARE LN, KATY, TX 77449",29.802384999999997,-95.765914,1264,10681,155655,140831,148243,6557,120000.0
77449,"2814 MORTON COVE LN, KATY, TX 77449",29.816342,-95.7487,2682,6303,227676,205992,216834,-1560,193374.0
77449,"22823 JOHN ROLFE LN, KATY, TX 77449",29.806048999999998,-95.766386,1377,6299,163514,147942,155728,1870,139449.0
77449,"2619 MAVERICK PARK LN, KATY, TX 77449",29.812372999999997,-95.745798,1758,6599,203114,183770,193442,381,165727.0
77449,"21626 DALTON SPRING LN, KATY, TX 77449",29.819587,-95.74809599999999,2225,9474,208958,189058,199008,-310,180676.0
77449,"22843 POWELL HOUSE LN, KATY, TX 77449",29.811981,-95.766835,2069,12497,211530,191384,201457,727,174611.0
77449,"22342 N REBECCA BURWELL LN, KATY, TX 77449",29.797321000000004,-95.758478,2231,9361,250444,224455,236268,8094,221905.0
77449,"2126 CROSSCOACH LN, KATY, TX 77449",29.798377000000002,-95.733662,1108,5776,136234,122097,128523,-1682,113995.0
77449,"20018 FORT BOWIE CT, KATY, TX 77449",29.798447999999997,-95.72386800000001,1848,6120,191112,172910,182011,427,152987.0
77449,"2710 DEFOE DR, KATY, TX 77449",29.815860999999998,-95.76043,2504,9522,244490,221206,232848,149,206700.0
77449,"2822 INDIGO STONE LN, KATY, TX 77449",29.815302000000003,-95.746376,3774,7815,258099,231060,245809,264,200889.0
77449,"20615 CAT SPRINGS CT, KATY, TX 77449",29.811162,-95.731073,2825,7043,228964,201146,213985,7944,155463.0
77449,"2823 KATYBRIAR LN, KATY, TX 77449",29.814553999999998,-95.75004200000001,3056,5166,230063,208153,219108,-1478,202820.0
77449,"3007 BALCH SPRINGS LN, KATY, TX 77449",29.819246000000003,-95.764346,1794,6459,211577,191427,201502,-58,187000.0
77449,"22742 PANTEGO LN, KATY, TX 77449",29.819693,-95.766265,1698,5749,209519,189565,199542,76,192366.0
77449,"2603 MAVERICK PARK LN, KATY, TX 77449",29.812466999999998,-95.745798,1524,6599,192230,173922,183076,3062,150000.0
77449,"22426 N REBECCA BURWELL LN, KATY, TX 77449",29.797131,-95.76100799999999,3014,8760,283223,256249,269736,-250,249000.0
77449,"2030 PROSPECT GLEN LN, KATY, TX 77449",29.7982,-95.73003,1102,10010,140455,127079,133767,480,118868.0
77449,"22714 BRAFFERTON LN, KATY, TX 77449",29.812975,-95.767414,1240,6660,139457,121379,129127,-2488,120000.0
77449,"22702 CARTER MOIR LN, KATY, TX 77449",29.804877,-95.768212,1593,8708,185607,167931,176769,2947,138794.0
77449,"20611 RAINSTONE CT, KATY, TX 77449",29.817188,-95.73066899999999,1560,6050,188228,170302,179265,1408,150306.0
77449,"20022 FORT BRIDGER DR, KATY, TX 77449",29.799204,-95.724757,1510,6159,169429,148452,161361,848,140562.0
77449,"2614 PLANTERS HOUSE LN, KATY, TX 77449",29.811929,-95.76616800000001,1624,6930,185501,167835,176668,-182,128422.0
77449,"22030 GUSTON HALL LN, KATY, TX 77449",29.813133,-95.756656,1547,5501,193157,174761,183959,-2384,171479.0
77449,"22314 VOBE CT, KATY, TX 77449",29.800765000000002,-95.757725,2425,8637,257557,233027,245292,10085,213696.0
77449,"20139 GOLDEN MESA DR, KATY, TX 77449",29.808719,-95.724724,1526,4356,175560,158840,167200,651,134168.0
77449,"2015 WILDBROOK CANYON LN, KATY, TX 77449",29.794793,-95.742727,1756,5528,191918,173640,182779,2932,169000.0
77449,"3238 SUNNY MEADOWS LN, KATY, TX 77449",29.818506,-95.712124,1849,5750,178198,146257,168111,-4164,164417.0
77449,"20162 NEWMINT CT, KATY, TX 77449",29.796877000000002,-95.73123100000001,1218,10454,123675,104386,113463,952,125927.0
77449,"2510 GREYTIP CT, KATY, TX 77449",29.809695,-95.753613,2786,6739,242719,219603,231161,-1063,208820.0
77449,"3314 RAINPORT DR, KATY, TX 77449",29.818255999999998,-95.729072,1958,6325,194257,170206,185007,-2043,172650.0
77449,"3111 PAINTED MEADOW CIR, KATY, TX 77449",29.819531,-95.713617,1832,5249,181146,153543,172520,-668,163044.0
77449,"20307 EAGLE NEST FLS, KATY, TX 77449",29.813512,-95.728716,2090,5754,195715,177075,186395,446,158000.0
77449,"3331 RAINSHORE DR, KATY, TX 77449",29.818806,-95.73364699999999,2598,4948,209096,189182,199139,-2615,184000.0
77449,"21342 DORAL ROSE LN, KATY, TX 77449",29.813263,-95.743001,1208,4731,158407,137286,150864,-886,132944.0
77449,"22803 BRAKEN CARTER LN, KATY, TX 77449",29.803869,-95.766964,1635,6825,180439,161536,171847,2435,138658.0
77449,"20131 BEECHVIEW LN, KATY, TX 77449",29.800363,-95.72861,1295,5775,140784,122013,134080,423,115581.0
77449,"20727 RAINMILL DR, KATY, TX 77449",29.818742999999998,-95.73349,1491,4726,158087,134448,147745,1339,144000.0
77449,"21711 RAVENPASS LN, KATY, TX 77449",29.814156,-95.749975,2464,5127,227704,206018,216861,1153,183140.0
77449,"20519 JESSICA, KATY, TX 77449",29.819793,-95.72828100000001,1568,,190103,136529,172821,10838,24690.0
77449,"22014 GALAPAGOS CT, KATY, TX 77449",29.812406,-95.753749,2280,5502,231279,209253,220266,2225,178777.0
77449,"3038 FRESCO WELLS DR, KATY, TX 77449",29.811387,-95.723464,1811,7492,184091,157793,175325,4152,157232.0
77449,"3106 BIRCHLEAF DR, KATY, TX 77449",29.815118,-95.72912,1817,7214,189878,171794,180836,3765,152952.0
77449,"22022 GUSTON HALL LN, KATY, TX 77449",29.813131,-95.756786,1802,5502,198670,179750,189210,1114,167604.0
77449,"3423 HEATHER LN, KATY, TX 77449",29.819528000000002,-95.72856800000001,1216,,176125,121820,146771,1711,17639.0
77449,"19502 LAZY VALLEY DR, KATY, TX 77449",29.815532,-95.710074,1734,4935,164156,148522,156339,1154,132745.0
77449,"20823 SILK OAK CT, KATY, TX 77449",29.813827000000003,-95.734296,2753,8921,227106,205476,216291,-367,196417.0
77449,"2710 BRONZE LOQUATE CT, KATY, TX 77449",29.807719,-95.737262,1472,8529,177532,160624,169078,1497,147129.0
77449,"20935 BRODIE LN, KATY, TX 77449",29.798747,-95.742049,1335,6412,166942,143539,156021,95,149022.0
77449,"1523 WINDYS WAY, KATY, TX 77449",29.790002,-95.737397,2241,9918,214973,194499,204736,4347,185340.0
77449,"3036 CARRIZO SPRINGS CT, KATY, TX 77449",29.812074,-95.726948,1790,5397,188047,170137,179092,-91,138845.0
77449,"2402 SAND PLUM DR, KATY, TX 77449",29.802851,-95.732678,1119,7200,136513,122347,128786,399,118001.0
77449,"2114 THORN BERRY CREEK LN, KATY, TX 77449",29.796228999999997,-95.74094000000001,1735,5170,185932,161141,177078,4073,168400.0
77449,"22223 BLACKTIP DR, KATY, TX 77449",29.809826,-95.757467,2765,6486,253004,228908,240956,6930,196000.0
77449,"3111 DRENNANBURG CT, KATY, TX 77449",29.815558000000003,-95.71515,1712,6303,166771,146124,158830,867,148018.0
77449,"21015 CASTLE GARDENS CT, KATY, TX 77449",29.796609000000004,-95.742238,2227,11879,220177,199207,209692,-1689,203558.0
77449,"22514 LEEDSTOWN LN, KATY, TX 77449",29.805583000000002,-95.764972,1423,6299,145151,122513,133166,5431,131585.0
77449,"3218 RANDY LN, KATY, TX 77449",29.817365999999996,-95.727092,,5127,229706,186636,205095,756,3500.0
77449,"22602 UNICORNS HORN LN, KATY, TX 77449",29.800328999999998,-95.764464,2872,9601,291201,263467,277334,-5816,278942.0
77449,"3439 RAINSHORE DR, KATY, TX 77449",29.819715999999996,-95.733651,1682,4950,168459,141185,160437,-1810,166592.0
77449,"22714 DABNEY MANOR LN, KATY, TX 77449",29.808677000000003,-95.766926,1410,6969,157277,136307,149788,-5669,134702.0
77449,"20010 FORT STANTON DR, KATY, TX 77449",29.796787,-95.723066,1674,10467,181686,164382,173034,-268,145791.0
77449,"21811 MANITOU FALLS LN, KATY, TX 77449",29.817736,-95.749973,2430,6050,212263,192047,202155,1140,170000.0
77449,"22715 BRAFFERTON LN, KATY, TX 77449",29.8127,-95.76740600000001,1921,6299,210369,190333,200351,1093,173504.0
77449,"20923 BRODIE LN, KATY, TX 77449",29.798739,-95.74216,2476,5117,225453,203981,214717,3201,187000.0
77449,"22635 BRAKEN MANOR LN, KATY, TX 77449",29.809413,-95.76285,1822,7348,187955,170055,179005,-4272,151062.0
77449,"22327 N REBECCA BURWELL LN, KATY, TX 77449",29.797063,-95.758172,2225,9239,238328,215630,226979,5241,200259.0
77449,"2114 SHERBROOK PARK LN, KATY, TX 77449",29.797031,-95.736716,2367,6570,215629,195093,205361,3753,168000.0
77449,"20310 SABAL PALMS DR, KATY, TX 77449",29.806096999999998,-95.73472199999999,1837,6325,192759,174401,183580,869,164238.0
77449,"2010 WILDBROOK CANYON LN, KATY, TX 77449",29.794832,-95.742412,1728,4950,194235,175737,184986,2132,179902.0
77449,"20635 PALM RAIN CT, KATY, TX 77449",29.82035,-95.729499,2514,6050,220330,199346,209838,-1216,225473.0
77449,"2914 HIGH PLAINS DR, KATY, TX 77449",29.809181,-95.727765,1588,5248,173619,157083,165351,-16,140302.0
77449,"20815 BRODIE LN, KATY, TX 77449",29.798931,-95.740021,2711,5667,257330,232822,245076,286,227536.0
77449,"20218 RAINGATE LN, KATY, TX 77449",29.799883,-95.731803,1146,5775,129036,116746,122891,-2797,104912.0
77449,"21027 MORGAN KNOLL LN, KATY, TX 77449",29.799241,-95.742462,2858,4911,253119,229013,241066,-6654,227144.0
77449,"2002 CROSSCOACH LN, KATY, TX 77449",29.797141999999997,-95.733649,1152,6298,136341,120760,129849,-6572,125000.0
77449,"2007 PROSPECT GLEN LN, KATY, TX 77449",29.797153,-95.72920500000001,1177,5775,135652,120296,127974,510,131345.0
77449,"1622 WESTFORK DR, KATY, TX 77449",29.791455,-95.734545,1590,6756,175732,157322,167364,-1706,147068.0
77449,"3019 SUNSET LNDG, KATY, TX 77449",29.813846999999996,-95.724175,2123,6103,194694,167143,183674,1924,178445.0
77449,"19938 SAND CREEK CT, KATY, TX 77449",29.799296999999996,-95.721241,1866,6240,190525,172379,181452,88,147000.0
77449,"3330 PURSLANE DR, KATY, TX 77449",29.816724,-95.708784,1393,4726,128356,113687,122244,2212,110253.0
77449,"2638 CYRUS HILL DR, KATY, TX 77449",29.812167,-95.74203100000001,1400,4399,167292,148173,159326,-6735,140470.0
77449,"3031 TEXAS OAK DR, KATY, TX 77449",29.813464,-95.73559300000001,1999,7810,197463,178657,188060,190,166489.0
77449,"3003 E CEDAR SUN TRL, KATY, TX 77449",29.810897999999998,-95.721288,2254,6721,201230,182066,191648,-1570,186672.0
77449,"20119 TELEGRAPH SQUARE LN, KATY, TX 77449",29.796174,-95.72925500000001,1681,6599,171871,153866,163687,-1110,118860.0
77449,"2215 WILDBROOK CANYON LN, KATY, TX 77449",29.795765999999997,-95.740555,1601,7031,184669,155329,172588,3360,178257.0
77449,"20718 ROCK HARBOR CT, KATY, TX 77449",29.796998,-95.738052,1847,6965,194077,175593,184835,2005,179040.0
77449,"19939 FORT DAVIS CT, KATY, TX 77449",29.798412,-95.721914,1744,6242,189877,171793,180835,-879,135131.0
77449,"1702 WESTFORK DR, KATY, TX 77449",29.791657,-95.733388,1236,11670,150115,134389,142967,638,128118.0
77449,"20814 BALMORAL GLEN LN, KATY, TX 77449",29.793246999999997,-95.74074300000001,1585,5210,168468,146006,160446,3192,161256.0
77449,"22602 BRAKEN CARTER LN, KATY, TX 77449",29.804168,-95.765736,1480,6299,165022,149306,157164,661,137932.0
77449,"2910 FRESCO DR, KATY, TX 77449",29.809891999999998,-95.731103,2252,5926,201054,181906,191480,-1105,167603.0
77449,"2711 DURHAM CHASE LN, KATY, TX 77449",29.81403,-95.745818,3134,5502,226678,205090,215884,-534,202330.0
77449,"20022 LITTLE BIG HORN DR, KATY, TX 77449",29.797807000000002,-95.725274,1510,7383,178412,161420,169916,-745,137577.0
77449,"2218 CROSSCOACH LN, KATY, TX 77449",29.799465,-95.733662,1108,6298,134261,121475,127868,-8885,110872.0
77449,"3030 SILVER SPUR DR, KATY, TX 77449",29.811249,-95.725228,2263,5929,193733,166574,181059,-1144,185418.0
77449,"19302 WINDING BRANCH DR, KATY, TX 77449",29.819908,-95.70519300000001,1835,6059,165200,132750,147500,791,160905.0
77449,"22111 GALAPAGOS CT, KATY, TX 77449",29.812127,-95.754625,1620,6337,198268,179386,188827,-1582,174452.0
77449,"1923 WILDBROOK CANYON LN, KATY, TX 77449",29.793456,-95.7427,1606,5174,168959,144822,160913,5017,164483.0
77449,"22506 UNICORNS HORN LN, KATY, TX 77449",29.799912,-95.763299,3457,8581,302773,268817,282965,-4681,247000.0
77449,"20810 DOVER MIST LN, KATY, TX 77449",29.79986,-95.740813,2530,5467,228541,206775,217658,1010,195096.0
77449,"20314 DESERT WILLOW DR, KATY, TX 77449",29.809034000000004,-95.734466,2670,7736,229958,208058,219008,-359,193847.0
77449,"1718 VANDERWILT LN, KATY, TX 77449",29.792288,-95.738948,1613,5715,177061,153453,168630,4526,164379.0
77449,"1903 MONARCH HOLLOW LN, KATY, TX 77449",29.795563,-95.737703,2385,6765,219204,198328,208766,5216,194336.0
77449,"3031 SUN GLEN CT, KATY, TX 77449",29.812216999999997,-95.72210799999999,2280,6703,210802,190726,200764,1915,180780.0
77449,"22706 LEEDSTOWN LN, KATY, TX 77449",29.805577000000003,-95.768197,1384,6299,147648,121045,133016,-3189,145211.0
77449,"20206 WHITE POPLAR DR, KATY, TX 77449",29.803086999999998,-95.73461400000001,1812,6299,183810,149453,171785,2041,168467.0
77449,"1743 BRICKARBOR DR, KATY, TX 77449",29.791701,-95.736001,1160,4500,131088,118604,124846,-5183,115265.0
77449,"3106 SILVER CEDAR TRL, KATY, TX 77449",29.815329,-95.72994399999999,1817,6630,193070,174682,183876,4777,159882.0
77449,"22011 GUSTON HALL LN, KATY, TX 77449",29.812855,-95.756976,2076,5937,208684,188810,198747,278,162000.0
77449,"19103 PLANTAIN DR, KATY, TX 77449",29.816022999999998,-95.704136,1375,6700,171110,147345,158435,1820,161231.0
77449,"20923 WINDSOR HOLLOW CT, KATY, TX 77449",29.793961,-95.742283,2418,5099,226320,204766,215543,1918,196223.0
77449,"20823 HICKORY FARM DR, KATY, TX 77449",29.81308,-95.73411899999999,2741,10934,229131,207309,218220,313,190370.0
77449,"20135 RAINGATE LN, KATY, TX 77449",29.799644,-95.729051,900,3000,130817,117113,124588,-1855,113472.0
77449,"3018 SUNCHASE CT, KATY, TX 77449",29.813297,-95.72264799999999,2860,7022,201386,160030,179809,-20269,203767.0
77449,"22735 WILLIAMSCHASE DR, KATY, TX 77449",29.815006,-95.766177,1950,6242,204435,184965,194700,-954,150000.0
77449,"22727 BUCKTROUT LN, KATY, TX 77449",29.797688,-95.768064,2770,8616,265467,237919,250441,-953,224000.0
77449,"3347 PURSLANE DR, KATY, TX 77449",29.817045,-95.70910699999999,1547,4830,153509,138889,146199,1844,109300.0
77449,"1522 DURFEY LN, KATY, TX 77449",29.795494,-95.756099,2280,10080,234908,212536,223722,-3464,202268.0
77449,"20834 BALMORAL GLEN LN, KATY, TX 77449",29.793184000000004,-95.740525,2256,5618,206715,187027,196871,-342,184265.0
77449,"22815 BUCKTROUT LN, KATY, TX 77449",29.796999,-95.766231,2258,8851,234191,211887,223039,2582,224949.0
77449,"3014 E CEDAR SUN TRL, KATY, TX 77449",29.811066999999998,-95.720972,2539,6874,222184,201024,211604,1271,181214.0
77449,"3131 PALACIOUS FALLS LN, KATY, TX 77449",29.819656,-95.759496,2210,6037,228346,206598,217472,-3490,192954.0
77449,"20042 FORT BOWIE CT, KATY, TX 77449",29.798485,-95.724323,1920,6294,192793,174431,183612,-697,136442.0
77449,"20227 APACHE GARDENS LN, KATY, TX 77449",29.795779,-95.732309,1275,6298,160267,145003,152635,-217,122800.0
77449,"2103 POWDER MIST LN, KATY, TX 77449",29.798114,-95.732327,1270,6825,145806,126549,137553,-1518,120944.0
77449,"19119 PLANTAIN DR, KATY, TX 77449",29.816021000000003,-95.70435,1390,5249,161687,137509,151109,2860,146634.0
77449,"3302 CONRAD LN, KATY, TX 77449",29.817846999999997,-95.726282,1568,,191991,132648,174537,10840,23586.0
77449,"22119 OAKINGTON LN, KATY, TX 77449",29.819886,-95.754295,1474,12737,172150,155754,163952,-1013,133846.0
77449,"2610 MARBLE MANOR LN, KATY, TX 77449",29.812162,-95.750472,2130,5606,208299,188461,198380,713,164288.0
77449,"21319 BEACON SPRINGS LN, KATY, TX 77449",29.815772999999997,-95.741288,1701,5057,192016,173728,182872,-26,164299.0
77449,"20510 RAINPORT CIR, KATY, TX 77449",29.819075,-95.729311,1736,6765,180479,154697,171885,-1467,159956.0
77449,"21427 LARK CREEK LN, KATY, TX 77449",29.819519,-95.745547,2986,6145,227765,206073,216919,-1655,210535.0
77449,"22510 WETHERBURN LN, KATY, TX 77449",29.801559,-95.763075,2011,11112,248591,224915,236753,8601,212615.0
77449,"1626 EARL OF DUNMORE LN, KATY, TX 77449",29.797103999999997,-95.755977,2262,8640,233189,192911,211990,-1141,
77449,"2218 THORN BERRY CREEK LN, KATY, TX 77449",29.797278000000002,-95.74108100000001,1996,5584,202102,180929,192478,-1185,180880.0
77449,"21715 MANITOU FALLS LN, KATY, TX 77449",29.817747999999998,-95.748085,2294,6050,208613,188745,198679,-613,186971.0
77449,"22315 LAVACA RANCH LN, KATY, TX 77449",29.817916999999998,-95.759709,2390,5171,238961,216203,227582,-2235,221916.0
77449,"3230 WINDMOOR DR, KATY, TX 77449",29.817819,-95.714934,1588,6303,155216,134521,147825,-2604,142426.0
77449,"2803 CHERRY ORCHARD CT, KATY, TX 77449",29.806746,-95.735228,2763,7566,233820,205144,220585,-22,194541.0
77449,"1619 BRICKARBOR DR, KATY, TX 77449",29.790271,-95.736548,1652,6581,187774,169890,178832,-1222,141742.0
77449,"19611 TIGRIS SPRINGS CIR, KATY, TX 77449",29.820296000000003,-95.71205,1473,5188,149258,126939,139493,2065,143441.0
77449,"22707 CARTER MOIR LN, KATY, TX 77449",29.804603000000004,-95.76815400000001,1544,8407,185564,167892,176728,6122,128026.0
77449,"21642 GARDEN HEATH LN, KATY, TX 77449",29.816596999999998,-95.749535,1936,5175,199909,180871,190390,-875,147496.0
77449,"3219 HEATHER LN, KATY, TX 77449",29.816669,-95.728562,1368,,190237,153586,174529,14380,15800.0
77449,"22631 MARKET SQUARE LN, KATY, TX 77449",29.803047999999997,-95.76315100000001,1856,7200,193391,174973,184182,836,160477.0
77449,"2606 ELDER PARK CT, KATY, TX 77449",29.811335999999997,-95.74632199999999,2584,6473,223058,201814,212436,187,195881.0
77449,"20526 COCOPLUM DR, KATY, TX 77449",29.804537,-95.739995,948,5349,103320,92598,97472,-157,94956.0
77449,"2623 KNOLL SHADOWS LN, KATY, TX 77449",29.812283,-95.749324,3592,6982,243431,220247,231839,-1372,203000.0
77449,"2923 GREENVALLEY TRAIL DR, KATY, TX 77449",29.809177000000002,-95.723548,1514,4273,168079,142946,157083,431,140269.0
77449,"2822 DURHAM CHASE LN, KATY, TX 77449",29.815417,-95.74551899999999,3592,5749,238763,216023,227393,-852,184847.0
77449,"21422 LARK CREEK LN, KATY, TX 77449",29.819796000000004,-95.74551899999999,3698,8934,254494,230256,242375,623,229881.0
77449,"3107 LIVINGSTON RIDGE CT, KATY, TX 77449",29.818872,-95.762212,2350,9326,242245,219175,230710,-2617,200000.0
77449,"2022 WILDBROOK CANYON LN, KATY, TX 77449",29.794738,-95.742408,2374,5924,221071,200017,210544,7579,184000.0
77449,"22810 MARKET SQUARE LN, KATY, TX 77449",29.802653000000003,-95.767072,1410,6300,159435,142732,151843,1666,137790.0
77449,"1715 EARL OF DUNMORE LN, KATY, TX 77449",29.798748,-95.753398,2730,10000,282633,213215,247924,-1662,
77449,"20239 POMEGRANATE LN, KATY, TX 77449",29.807676,-95.73639200000001,2554,7278,229026,207214,218120,-833,185328.0
77449,"1923 OAKWELL LN, KATY, TX 77449",29.795534999999997,-95.734749,1162,6325,148316,128540,141253,-4010,119087.0
77449,"22303 BUCKTROUT LN, KATY, TX 77449",29.795331,-95.75890799999999,2152,9487,225405,203937,214671,1194,203603.0
77449,"20602 RED SUN DR, KATY, TX 77449",29.813646999999996,-95.73083199999999,1829,6547,192920,174546,183733,6247,161109.0
77449,"2014 E PECOS VALLEY TRL, KATY, TX 77449",29.795332000000002,-95.72247,1584,8364,180465,163277,171871,-1184,139398.0
77449,"21722 RAVENPASS LN, KATY, TX 77449",29.814434000000002,-95.75007,1792,6276,200299,181223,190761,-1507,152491.0
77449,"3106 LIVINGSTON RIDGE CT, KATY, TX 77449",29.818917,-95.7619,3072,9998,271696,245820,258758,-410,255775.0
77449,"3403 RAINSHORE DR, KATY, TX 77449",29.81922,-95.733648,1288,4948,170291,154073,162182,-2093,133212.0
77449,"3031 FRESCO WELLS DR, KATY, TX 77449",29.811262,-95.723782,2091,5930,183125,165685,174405,1603,162751.0
77449,"20419 APACHE LAKE DR, KATY, TX 77449",29.814272999999996,-95.729057,1788,6172,189293,171265,180279,5033,164669.0
77449,"22614 BANTER POINT LN, KATY, TX 77449",29.817846999999997,-95.76415899999999,2008,5750,224700,203300,214000,-1132,201031.0
77449,"22410 N REBECCA BURWELL LN, KATY, TX 77449",29.797044,-95.76012800000001,2643,8760,282233,255353,268793,4788,256359.0
77449,"3318 DOHERTY PL, KATY, TX 77449",29.820316,-95.718202,2361,6303,214153,193757,203955,349,172351.0
77449,"19427 LAZY VALLEY DR, KATY, TX 77449",29.815269,-95.708616,1540,5693,144149,113732,132247,3080,24445.0
77449,"20506 SPLENDORA DR, KATY, TX 77449",29.81049,-95.729958,1808,5959,189973,171881,180927,758,145549.0
77449,"20135 TELEGRAPH SQUARE LN, KATY, TX 77449",29.795479999999998,-95.729805,1129,6599,139570,126278,132924,-305,110500.0
77449,"20506 CAT SPRINGS CT, KATY, TX 77449",29.811639000000003,-95.732045,2825,6747,230450,202452,215374,-656,164767.0
77449,"22110 UNICORNS HORN LN, KATY, TX 77449",29.800005,-95.755258,2184,8638,229473,207619,218546,4702,197188.0
77449,"22110 GALAPAGOS CT, KATY, TX 77449",29.812402000000002,-95.754626,2908,6421,240369,217477,228923,-768,219358.0
77449,"20922 BALMORAL GLEN LN, KATY, TX 77449",29.793457,-95.742154,2325,5148,225296,203840,214568,458,193455.0
77449,"20438 WHITE POPLAR DR, KATY, TX 77449",29.803057,-95.737806,1700,9779,192269,173957,183113,384,161249.0
77449,"3330 MAYMIST DR, KATY, TX 77449",29.817203999999997,-95.70398,1438,5310,162833,144223,155079,4856,149507.0
77449,"22743 PANTEGO LN, KATY, TX 77449",29.819453999999997,-95.766418,2712,5998,249489,225729,237609,-18798,236412.0
77449,"22715 MARKET SQUARE LN, KATY, TX 77449",29.802374,-95.768064,1864,7200,195423,176811,186117,1357,138142.0
77449,"2622 TOWNHALL LN, KATY, TX 77449",29.812275,-95.761554,1240,6900,156521,137143,149068,4961,125000.0
77449,"20931 BARBONS HEATH CT, KATY, TX 77449",29.794729999999998,-95.740932,2390,10076,229602,207736,218669,-1359,214446.0
77449,"2811 HARTE CT, KATY, TX 77449",29.814614000000002,-95.758988,2485,8799,241786,218758,230272,-1845,209868.0
77449,"22502 TOWNHALL CT, KATY, TX 77449",29.811606,-95.76296500000001,1505,6826,189891,171807,180849,-1535,166376.0
77449,"1523 CARTERS GROVE LN, KATY, TX 77449",29.795502000000003,-95.75545,2243,8930,230357,208419,219388,-655,194911.0
