zip,address,lat,lng,house area,lot area,high,low,estimate,month value change,property tax
77493,"2219 SUMMER GARDENS LN, KATY, TX 77493",29.80459,-95.83015,3605,10250,503692,425135,462103,19442,393990.0
77493,"6237 SPOON BILL ST, KATY, TX 77493",29.821443,-95.82915799999999,3158,10624,320280,289778,305029,-12640,319900.0
77493,"24139 ORANGE ORCHARD LN, KATY, TX 77493",29.814753000000003,-95.79221899999999,2409,11120,275937,249657,262797,-17,252527.0
77493,"2622 VILLAGE CT, KATY, TX 77493",29.811498999999998,-95.818286,1802,6599,201713,182503,192108,-2525,154000.0
77493,"24339 GOODWIN DR, KATY, TX 77493",29.797493,-95.79119,2855,7339,267096,241658,254377,-4443,226000.0
77493,"2806 LAKECREST RIVER DR, KATY, TX 77493",29.815487,-95.80054,3151,5249,270746,244960,257853,1200,261389.0
77493,"6001 T ST, KATY, TX 77493",29.796301,-95.827443,1709,8721,206880,183237,197029,-2943,175000.0
77493,"1526 AVENUE C, KATY, TX 77493",29.793475,-95.823127,1008,,214820,175762,195291,35693,5571.0
77493,"27211 SKIERS CROSSING DR, KATY, TX 77493",29.818011,-95.842225,12485,255261,2593832,2302935,2424142,-57069,2093120.0
77493,"24242 YELVERTON GLEN DR, KATY, TX 77493",29.800414,-95.787449,2839,6270,261825,236889,249357,-5018,250443.0
77493,"5713 VILLAGE WAY DR, KATY, TX 77493",29.810435,-95.822236,1352,7139,168347,149467,157334,776,143541.0
77493,"1505 WHISPERING PINES DR, KATY, TX 77493",29.793408000000003,-95.825345,3599,10071,335007,303101,319054,-3290,312050.0
77493,"5706 DELFREN LN, KATY, TX 77493",29.804861,-95.823769,2040,11199,209256,187334,199291,-400,119629.0
77493,"2319 FOUNDARY DR, KATY, TX 77493",29.806301,-95.785955,2625,6298,251660,227692,239676,894,194754.0
77493,"24803 BARRY ESTATE DR, KATY, TX 77493",29.795403000000004,-95.797792,2762,7174,259178,234494,246836,-2415,250517.0
77493,"1101 ASTER DR, KATY, TX 77493",29.789765999999997,-95.832921,1873,10062,251333,215429,239365,2210,191510.0
77493,"2093 CLEMSON DR, KATY, TX 77493",29.806292,-95.812353,2246,9705,246639,223149,234894,6006,177548.0
77493,"4949 S NELSON DR, KATY, TX 77493",29.792913000000002,-95.80252,2367,7405,246780,223278,235029,-1095,230574.0
77493,"5906 GREEN MEADOWS LN, KATY, TX 77493",29.803895,-95.825496,3284,9387,468753,404832,426139,-9312,368500.0
77493,"6030 N FAWNLAKE DR, KATY, TX 77493",29.808460999999998,-95.82820799999999,2063,7492,242668,219556,231112,-2571,217785.0
77493,"24019 WASSAIL WAY, KATY, TX 77493",29.801183,-95.78259200000001,1413,6299,164838,146000,156989,2303,133658.0
77493,"3311 SINGLE RIDGE WAY, KATY, TX 77493",29.820925,-95.778488,2136,6055,228037,206319,217178,-1947,192393.0
77493,"2714 CARSON DR, KATY, TX 77493",29.813114000000002,-95.81745699999999,1431,9274,178193,152737,169708,-1006,149611.0
77493,"1610 AIRLINE DR, KATY, TX 77493",29.794977000000003,-95.818242,1319,10080,182416,165044,173730,234,134902.0
77493,"24810 COLONIAL MAPLE DR, KATY, TX 77493",29.793612,-95.79849300000001,1570,6860,207347,187599,197473,-1706,173697.0
77493,"5720 MORTON RD, KATY, TX 77493",29.816883,-95.818798,2301,217800,686004,467193,591383,1460,498346.0
77493,"3229 GOLDEN EYE, KATY, TX 77493",29.822675,-95.831328,3418,13434,367088,313204,336778,2525,360200.0
77493,"5605 VILLAGE WAY DR, KATY, TX 77493",29.81043,-95.82373199999999,1245,7139,169977,149326,158857,-641,126712.0
77493,"2822 CARSON DR, KATY, TX 77493",29.814689,-95.817626,1722,13913,229033,207221,218127,858,226198.0
77493,"2211 ACORN SQUARE CT, KATY, TX 77493",29.805781,-95.790442,3122,5680,267734,242236,254985,-411,194246.0
77493,"4630 SHADOW GRASS DR, KATY, TX 77493",29.837743,-95.832886,3021,43560,491781,427435,459608,-450,438889.0
77493,"5346 PRINCETON DR, KATY, TX 77493",29.805887,-95.813702,1584,7200,202608,183312,192960,2203,156808.0
77493,"24015 NOMINI HALL LN, KATY, TX 77493",29.800468,-95.78229300000001,1663,6300,183943,166425,175184,-546,136067.0
77493,"2213 DEERFIELD DR, KATY, TX 77493",29.805936,-95.826097,2960,8344,308212,278858,293535,-5778,280807.0
77493,"1419 DAN COX AVE, KATY, TX 77493",29.793187,-95.80476800000001,1855,7651,212948,192668,202808,-2598,178798.0
77493,"1902 PEPPERRELL PLACE CT, KATY, TX 77493",29.799525,-95.782449,1851,7653,193514,175084,184299,-60,151811.0
77493,"24414 HIKERS BEND DR, KATY, TX 77493",29.849970000000003,-95.83959,2620,7810,274886,248706,261796,885,238199.0
77493,"1019 ASTER DR, KATY, TX 77493",29.789447999999997,-95.832948,2221,11195,279854,247871,266528,-4986,219390.0
77493,"1322 MAPLE ACE DR, KATY, TX 77493",29.791646999999998,-95.797558,1770,5502,218912,198064,208488,-1585,187379.0
77493,"3007 MEADOW PRAIRIE ST, KATY, TX 77493",29.816433,-95.79265699999999,1998,6311,244594,221300,232947,-344,215084.0
77493,"2614 KEY WEST DR, KATY, TX 77493",29.812126,-95.797336,2084,5109,225100,203662,214381,-191,190000.0
77493,"1529 FREEMAN AVE, KATY, TX 77493",29.794520000000002,-95.807283,1757,6238,214536,194104,204320,-3115,193253.0
77493,"3223 WREN VALLEY TRL, KATY, TX 77493",29.819916999999997,-95.781745,1962,5885,224609,203217,213913,745,183304.0
77493,"23935 SILVERSMITH LN, KATY, TX 77493",29.798219,-95.77929,1242,6298,148529,131554,141456,-823,110000.0
77493,"5307 LITTLE JOHN LN, KATY, TX 77493",29.791853999999997,-95.813007,1353,7697,177390,138144,156982,-5172,128908.0
77493,"2314 OXFORD BROOK CT, KATY, TX 77493",29.806528000000004,-95.7891,2702,6808,244781,221469,233125,442,201400.0
77493,"25002 BLUE MOUNTAIN PARK LN, KATY, TX 77493",29.808235999999997,-95.804645,2428,6002,267171,241727,254449,-2855,236027.0
77493,"2606 KATY HOCKLEY RD, KATY, TX 77493",29.814362,-95.82488000000001,2676,40345,352030,315499,332104,-529,255138.0
77493,"3226 SNOW, KATY, TX 77493",29.821908,-95.830031,2712,12150,309001,279573,294287,-9817,291632.0
77493,"5709 VILLAGE PARK DR, KATY, TX 77493",29.812049,-95.822275,1594,6599,199011,180057,189534,-1367,161579.0
77493,"814 DOLLINS ST, KATY, TX 77493",29.78675,-95.830302,1010,6875,276081,230068,255631,38766,41740.0
77493,"23922 WASSAIL WAY, KATY, TX 77493",29.801457,-95.78123199999999,1413,6900,167663,144158,156694,-1821,148465.0
77493,"1517 WHISPERING OAKS DR, KATY, TX 77493",29.793446000000003,-95.826432,3681,10201,367836,329664,347015,-70695,354864.0
77493,"1505 BAIRD AVE, KATY, TX 77493",29.794784000000003,-95.81058399999999,1494,6621,199402,169585,186357,2124,179761.0
77493,"2210 PARKSIDE TRACE CT, KATY, TX 77493",29.806015999999996,-95.801311,2853,6900,283544,256540,270042,-1195,270000.0
77493,"24402 LAKECREST TOWN DR, KATY, TX 77493",29.807307,-95.79661899999999,1965,6294,226435,204869,215652,903,188162.0
77493,"24911 MASON TRAIL DR, KATY, TX 77493",29.796128000000003,-95.797375,3368,7588,293428,265482,279455,-2557,261764.0
77493,"23839 TAYLOE HOUSE LN, KATY, TX 77493",29.798408000000002,-95.781754,1242,6826,142646,129060,135853,571,118426.0
77493,"1927 LENORA CT, KATY, TX 77493",29.799618,-95.79831999999999,2082,5144,220651,199637,210144,1587,180000.0
77493,"3214 SINGLE RIDGE WAY, KATY, TX 77493",29.819751,-95.778998,3676,6172,271581,243130,258649,-446,249000.0
77493,"5060 N NELSON AVE, KATY, TX 77493",29.794701,-95.80226,1838,7993,218451,197647,208049,-3356,202151.0
77493,"23718 AYSCOUGH LN, KATY, TX 77493",29.804605,-95.780439,2313,6434,224306,202944,213625,-208,182639.0
77493,"2523 AVENUE D, KATY, TX 77493",29.809713000000002,-95.825218,2575,37200,366008,321540,342064,-2283,299074.0
77493,"1910 POWDERHORN LN, KATY, TX 77493",29.800886,-95.779698,1536,9570,186073,168351,177212,8,147542.0
77493,"4913 S NELSON DR, KATY, TX 77493",29.793708000000002,-95.802229,1769,6970,219933,198987,209460,-1551,191403.0
77493,"1724 DREXEL DR, KATY, TX 77493",29.796573,-95.816363,2177,17001,237980,207131,220352,-1463,224247.0
77493,"3027 THICKET PATH WAY, KATY, TX 77493",29.818043,-95.783684,1795,5044,193928,175458,184693,446,162000.0
77493,"1203 CARNATION ST, KATY, TX 77493",29.791308,-95.835291,2928,,573465,489287,526115,-2029,420400.0
77493,"5911 K ST, KATY, TX 77493",29.797963,-95.826784,2274,17998,305137,248102,285175,2260,205472.0
77493,"1830 AIRLINE DR, KATY, TX 77493",29.797989,-95.81825,1615,7200,177506,141377,157085,-1054,162819.0
77493,"1825 DREXEL DR, KATY, TX 77493",29.797915000000003,-95.816684,1905,11160,201894,176898,192280,-3390,183000.0
77493,"6119 A ST, KATY, TX 77493",29.797220000000003,-95.826981,7235,238273,697810,560741,623045,,1132600.0
77493,"5622 10TH ST, KATY, TX 77493",29.794957,-95.822289,1914,17903,285761,224527,255144,-1332,190859.0
77493,"2314 HOLLYFIELD LN, KATY, TX 77493",29.806085999999997,-95.78148399999999,2586,6577,227926,206218,217072,-448,189416.0
77493,"806 DOGWOOD ST, KATY, TX 77493",29.786834000000002,-95.83596700000001,1768,10759,230549,198229,215466,151,178600.0
77493,"5103 MATHIS DR, KATY, TX 77493",29.792857,-95.806701,2473,7706,243591,220391,231991,915,201618.0
77493,"24818 MASON TRAIL DR, KATY, TX 77493",29.795437,-95.796061,2303,7021,240531,215570,226916,-102,192000.0
77493,"24715 DUTTON POINT DR, KATY, TX 77493",29.796747999999997,-95.79472,1978,7405,241207,218235,229721,4703,207322.0
77493,"24026 CANE FIELDS RD, KATY, TX 77493",29.814171999999996,-95.790611,2678,7431,287328,259964,273646,425,264500.0
77493,"5339 LITTLE JOHN LN, KATY, TX 77493",29.791413000000002,-95.811341,1280,5715,149703,124079,134868,-12746,134283.0
77493,"24410 TUCKER HOUSE LN, KATY, TX 77493",29.796629,-95.789222,2475,7278,244399,221123,232761,-440,204537.0
77493,"3319 QUARRY PLACE LN, KATY, TX 77493",29.821562,-95.778965,2716,6443,244177,220923,232550,-5946,218929.0
77493,"1418 FREEMAN AVE, KATY, TX 77493",29.793614,-95.806978,1781,7649,221762,200642,211202,1339,179688.0
77493,"5311 11TH ST, KATY, TX 77493",29.796144,-95.814753,1540,6891,192126,170579,179557,-696,146694.0
77493,"5430 YALE DR, KATY, TX 77493",29.806721999999997,-95.81519899999999,1788,8899,204853,185343,195098,332,154302.0
77493,"24327 LAKE PATH CIR, KATY, TX 77493",29.797655,-95.791598,2355,11051,268289,242737,255513,-7046,235833.0
77493,"14 LAKEFIELD TRL, KATY, TX 77493",29.792345,-95.884736,4220,653400,699391,615205,647584,-4344,1003980.0
77493,"24326 TUCKER HOUSE LN, KATY, TX 77493",29.796833000000003,-95.788928,1879,6299,207945,186160,198043,581,178543.0
77493,"2907 ACORN OAKS DR, KATY, TX 77493",29.814903,-95.791765,2188,6059,242401,219315,230858,-561,227696.0
77493,"25002 LAKECREST MANOR DR, KATY, TX 77493",29.798715,-95.798439,1993,5750,217968,197210,207589,-3460,195000.0
77493,"1941 DREXEL DR, KATY, TX 77493",29.799988,-95.816683,1707,10799,197085,174773,185929,-3033,145000.0
77493,"27822 MORTON RD, KATY, TX 77493",29.816491,-95.86754599999999,2324,87198,436507,387091,411799,9201,318930.0
77493,"5327 INWOOD DR, KATY, TX 77493",29.791396999999996,-95.81385300000001,1384,8646,184721,167129,175925,-120,142552.0
77493,"24030 SHAW PERRY LN, KATY, TX 77493",29.804565000000004,-95.786571,2200,7200,226201,204659,215430,899,185533.0
77493,"2319 TROTTER DR, KATY, TX 77493",29.805922,-95.782747,2313,6203,226410,204848,215629,-1042,186264.0
77493,"3349 JESSICA CT, KATY, TX 77493",29.823161,-95.808735,1867,6825,207284,187542,197413,-1486,179201.0
77493,"24302 LANNING DR, KATY, TX 77493",29.800107,-95.792452,1986,8425,230349,208411,219380,4064,207836.0
77493,"3303 SINGLE RIDGE WAY, KATY, TX 77493",29.820868,-95.778542,2371,6504,232003,209907,220955,-1126,204579.0
77493,"2714 LAKECREST WAY DR, KATY, TX 77493",29.813534999999998,-95.798676,2004,5248,219400,198504,208952,67,183520.0
77493,"5379 11TH ST, KATY, TX 77493",29.796153000000004,-95.811237,1540,6660,150173,123754,139049,-16784,150882.0
77493,"5091 MATHIS DR, KATY, TX 77493",29.792857,-95.806747,2000,10494,233776,211512,222644,1280,193901.0
77493,"1919 TARPLEY CT, KATY, TX 77493",29.801113,-95.78120600000001,1430,7540,197650,172028,183009,1279,190636.0
77493,"24515 BLANE DR, KATY, TX 77493",29.794564,-95.791104,3569,11583,323630,292808,308219,507,288156.0
77493,"5330 NOTTINGHAM DR, KATY, TX 77493",29.797852000000002,-95.812376,1532,6299,161783,135067,148425,-15629,153164.0
77493,"2800 AVENUE D, KATY, TX 77493",29.813184000000003,-95.824952,4761,48787,550658,468317,514634,-4998,568646.0
77493,"24403 LANNING DR, KATY, TX 77493",29.800243,-95.790163,2274,8930,249833,226039,237936,-3448,228823.0
77493,"24815 BLANE DR, KATY, TX 77493",29.796564,-95.79584399999999,2637,7052,267991,242469,255230,-1099,229347.0
77493,"3105 HUNTINGTON CT, KATY, TX 77493",29.817830999999998,-95.829842,3656,24415,448294,385449,418966,-5297,370000.0
77493,"3229 CANADIAN ST, KATY, TX 77493",29.822774,-95.82435100000001,2058,12601,247967,224351,236159,1272,223824.0
77493,"2437 FAWNLAKE CIR, KATY, TX 77493",29.807239000000003,-95.829696,3108,9701,388124,351160,369642,2680,323614.0
77493,"1938 MYRNA LN, KATY, TX 77493",29.801075,-95.814215,1850,6403,199324,180340,189832,-2186,156786.0
77493,"5354 KYLA CIR, KATY, TX 77493",29.821233000000003,-95.813523,1740,14653,216346,195742,206044,2473,190868.0
77493,"1002 EAST AVE, KATY, TX 77493",29.789278999999997,-95.81979399999999,3566,43211,697005,612323,651407,2769,475000.0
77493,"2311 CORRY CREST CIR, KATY, TX 77493",29.807215999999997,-95.797286,2322,8413,240649,217731,229190,1882,198538.0
77493,"5403 PINEWOOD TER, KATY, TX 77493",29.811484000000004,-95.812875,1375,6238,171119,143675,161433,-2722,142819.0
77493,"1727 WILD MUSTANG CANYON LN, KATY, TX 77493",29.798543,-95.883075,3493,53069,559369,506095,532732,-13383,516670.0
77493,"1622 MASON KNIGHTS DR, KATY, TX 77493",29.793578000000004,-95.79446300000001,3167,9627,298049,269663,283856,2544,281452.0
77493,"6406 CYPRESS LN, KATY, TX 77493",29.816005,-95.829971,2374,14344,275582,249336,262459,3478,256810.0
77493,"5607 MAE ST, KATY, TX 77493",29.808322999999998,-95.825022,3176,9291,387161,350289,368725,-4255,82989.0
77493,"2105 CLEMSON DR, KATY, TX 77493",29.806365000000003,-95.812341,2108,6599,218860,198016,208438,1137,165433.0
77493,"2103 VERMONT GLEN CT, KATY, TX 77493",29.803065000000004,-95.783146,3056,9905,273546,247494,260520,5561,217000.0
77493,"1914 AIRLINE DR, KATY, TX 77493",29.799503,-95.81825699999999,864,7200,146876,120880,129979,1370,93918.0
77493,"1307 CORIANNE ST, KATY, TX 77493",29.792485,-95.834248,2660,,371076,315588,346800,-25958,357940.0
77493,"24938 MASON CREEK PATH, KATY, TX 77493",29.797621999999997,-95.79694,3067,6900,274360,248230,261295,-3326,254068.0
77493,"24702 BLANE DR, KATY, TX 77493",29.795847,-95.79448199999999,2592,7767,257519,232993,245256,1270,197000.0
77493,"5711 IRIS LN, KATY, TX 77493",29.806468,-95.823172,1448,11199,190838,156951,178353,2830,80410.0
77493,"1923 POWDERHORN LN, KATY, TX 77493",29.801374,-95.780473,1290,9293,164589,144404,155273,5977,132288.0
77493,"1525 DAN COX AVE, KATY, TX 77493",29.794028000000004,-95.80478000000001,1467,4591,184732,156582,175935,2477,162979.0
77493,"6135 VERDE PLACE LN, KATY, TX 77493",29.801498,-95.828451,,9714,440442,381717,419469,-52,75583.0
77493,"3265 ZUBIN LN, KATY, TX 77493",29.821118,-95.810338,2350,8067,241099,218137,229618,-1583,197398.0
77493,"5404 TALLOWPINE TER, KATY, TX 77493",29.812504999999998,-95.813229,1970,5998,213076,192784,202930,1166,158845.0
77493,"1805 EAST AVE, KATY, TX 77493",29.798886,-95.82009000000001,2943,36939,467175,389312,432569,4680,343696.0
77493,"6507 CORIANNE CT, KATY, TX 77493",29.792742999999998,-95.83404399999999,2928,14000,484674,425233,457240,-9557,464830.0
77493,"1530 WATTS AVE, KATY, TX 77493",29.794094,-95.806139,1757,6238,213001,192715,202858,-4128,191451.0
77493,"3126 WINCHESTER RANCH TRL, KATY, TX 77493",29.819205,-95.785889,2360,5174,228809,207017,217913,71,178644.0
77493,"1315 CORIANNE ST, KATY, TX 77493",29.79288,-95.834238,2858,,455004,411670,433337,-4643,432380.0
77493,"1219 WINDING CYN, KATY, TX 77493",29.793104,-95.880013,3167,84319,575138,505908,532535,-3482,504390.0
77493,"5811 GREEN MEADOWS LN, KATY, TX 77493",29.803614000000003,-95.824223,3308,10598,463785,419615,441700,1403,416668.0
77493,"3042 VIEW VALLEY TRL, KATY, TX 77493",29.820771,-95.782963,1725,5758,209966,189970,199968,-2263,170122.0
77493,"3222 BRANT ST, KATY, TX 77493",29.822101,-95.825055,2027,11548,242096,216734,230568,-8,208200.0
77493,"23906 TAYLOE HOUSE LN, KATY, TX 77493",29.799367999999998,-95.780888,1220,6050,146422,131083,139450,-1893,114255.0
77493,"25006 LAKECREST MANOR DR, KATY, TX 77493",29.798723,-95.798489,1535,5750,193236,165891,182298,5300,158500.0
77493,"24506 HAMPTON LAKES DR, KATY, TX 77493",29.800054,-95.794536,1880,6016,222089,200937,211513,2253,189854.0
77493,"3138 QUARRY PLACE LN, KATY, TX 77493",29.819167999999998,-95.78015400000001,2651,6325,238238,215548,226893,-950,214123.0
77493,"23703 PRINCE LAWRENCE CT, KATY, TX 77493",29.806482,-95.77995200000001,2319,6176,225726,204228,214977,364,189425.0
77493,"2438 FAWNLAKE CIR, KATY, TX 77493",29.807458,-95.829892,2872,8011,333021,301305,317163,-130,332846.0
77493,"2114 WIGMAKER DR, KATY, TX 77493",29.804208000000003,-95.788033,1366,5776,164451,148789,156620,3039,139610.0
77493,"3341 JAN CT, KATY, TX 77493",29.822215999999997,-95.811164,1648,5001,192296,173982,183139,-1309,151981.0
77493,"6410 CRYSTAL FOREST TRL, KATY, TX 77493",29.809478000000002,-95.831797,2641,7975,276043,249753,262898,-1062,261726.0
77493,"1418 FM 2855 RD, KATY, TX 77493",29.791290000000004,-95.889514,2424,85813,511152,443641,482219,6393,399390.0
77493,"3231 THICKET PATH WAY, KATY, TX 77493",29.820958,-95.786096,2128,4887,323197,129279,190116,-526,178577.0
77493,"2603 FOREST LAKE TRL, KATY, TX 77493",29.809918,-95.828877,3125,7361,315024,285022,300023,-3528,277256.0
77493,"23843 WELCH HOUSE LN, KATY, TX 77493",29.808153000000004,-95.784181,1451,6510,178108,144502,168026,5250,133843.0
77493,"1536 DAN COX AVE, KATY, TX 77493",29.794161,-95.804466,2740,9640,274818,248644,261731,-1049,244025.0
77493,"1730 GREAT MEADOWS DR, KATY, TX 77493",29.798158,-95.78932900000001,1495,6499,198492,167248,183789,4510,182616.0
77493,"23 REMINGTON PARK, KATY, TX 77493",29.793616999999998,-95.887661,3246,112820,572047,517567,544807,734,563920.0
77493,"24803 BLANE DR, KATY, TX 77493",29.796463,-95.79571700000001,2674,7052,276009,249723,262866,591,230392.0
77493,"2819 LAKECREST WAY DR, KATY, TX 77493",29.814320000000002,-95.798502,1848,5441,210419,190379,200399,-737,186301.0
77493,"24514 COLONIAL BIRCH LN, KATY, TX 77493",29.791481,-95.796623,1868,5611,223469,202187,212828,-444,187846.0
77493,"23815 SHAW PERRY LN, KATY, TX 77493",29.803303000000003,-95.784019,3622,6098,283169,256201,269685,297,255196.0
77493,"27103 SKIERS CROSSING DR, KATY, TX 77493",29.817959000000002,-95.844992,4467,92348,944275,813126,874329,-6502,679220.0
77493,"6256 N FAWNLAKE DR, KATY, TX 77493",29.807418,-95.83313199999999,2838,,337918,302517,321827,,284450.0
77493,"855 VICTORIA LAKES DR, KATY, TX 77493",29.787853000000002,-95.829081,1789,,255325,218850,243167,-2620,186430.0
77493,"2215 PORTER RD, KATY, TX 77493",29.804754,-95.793166,3048,43560,366561,295195,324390,1908,259265.0
77493,"24110 PEPPERRELL PLACE ST, KATY, TX 77493",29.797763,-95.784953,1610,7767,179684,162572,171128,-2972,147401.0
77493,"2903 FORTUNA DR, KATY, TX 77493",29.815296000000004,-95.815325,2436,17502,282428,255530,268979,3692,233573.0
77493,"3214 YOUNG PINE ST, KATY, TX 77493",29.820034000000003,-95.78065699999999,2234,5807,230064,208154,219109,-1747,197755.0
77493,"24311 AYSCOUGH LN, KATY, TX 77493",29.806873,-95.790575,1572,6159,190979,157067,178485,3130,150990.0
77493,"3430 SINGLE RIDGE WAY, KATY, TX 77493",29.821490999999998,-95.77735600000001,2319,5911,243347,220171,231759,-1199,208315.0
77493,"2802 FORTUNA DR, KATY, TX 77493",29.813751,-95.815002,1938,17999,260916,229216,243847,2658,178844.0
77493,"5918 GREEN MEADOWS LN, KATY, TX 77493",29.804160999999997,-95.82556899999999,2653,18748,371019,335683,353351,-18,363668.0
77493,"24015 CANE FIELDS RD, KATY, TX 77493",29.813896000000003,-95.79079200000001,2680,7614,289317,261763,275540,145,266992.0
77493,"5342 LINCOLN GREEN DR, KATY, TX 77493",29.793812,-95.81303,1415,7150,163972,134856,153245,-6877,149335.0
77493,"3130 QUARRY PLACE LN, KATY, TX 77493",29.819015999999998,-95.780213,1970,2178,229048,207234,218141,-80,194000.0
77493,"3010 UPLAND SPRING TRCE, KATY, TX 77493",29.818609000000002,-95.782656,2468,4791,224280,202920,213600,-171,185344.0
77493,"5319 NOTTINGHAM DR, KATY, TX 77493",29.797572,-95.812603,1506,6298,177739,129827,154556,-12013,165097.0
77493,"24839 COLONIAL MAPLE DR, KATY, TX 77493",29.793423999999998,-95.798727,1775,8124,223249,201987,212618,65,197272.0
77493,"2512 VILLAGE OAK DR, KATY, TX 77493",29.809718,-95.8203,1625,7200,198963,180015,189489,4818,109886.0
77493,"844 VICTORIA LAKES DR, KATY, TX 77493",29.78748,-95.828748,1421,7200,295237,252293,268397,4589,263520.0
77493,"2602 FOREST LAKE TRL, KATY, TX 77493",29.809927000000002,-95.828561,2785,7270,275520,249280,262400,-2097,259746.0
77493,"2634 VILLAGE CT, KATY, TX 77493",29.811727,-95.81828900000001,1419,6599,183307,164103,174578,-3216,143220.0
77493,"2207 PARKSIDE TRACE CT, KATY, TX 77493",29.805827,-95.801539,2685,7510,298279,269871,284075,3362,281406.0
77493,"6015 Y ST, KATY, TX 77493",29.795510999999998,-95.82639300000001,1414,12001,208742,181683,193280,-1669,135333.0
77493,"2114 VERMONT GLEN CT, KATY, TX 77493",29.802903999999998,-95.78286700000001,2364,7636,223452,202170,212811,308,197244.0
77493,"5510 5TH ST, KATY, TX 77493",29.790087,-95.820966,972,6599,168168,127575,144972,-2053,91333.0
77493,"5726 VILLAGE WAY DR, KATY, TX 77493",29.810710999999998,-95.82204899999999,1561,8398,156500,135634,149048,-845,162751.0
77493,"6221 MALLARD DR, KATY, TX 77493",29.820603000000002,-95.828138,1880,10332,258307,231247,246007,-691,246847.0
77493,"2906 FORTUNA DR, KATY, TX 77493",29.815359,-95.815009,2720,17999,297165,268863,283014,452,218000.0
77493,"3227 MADISON ELM ST, KATY, TX 77493",29.820263,-95.78641800000001,1786,4940,231011,205103,215898,127,179563.0
77493,"24615 LAKECREST TOWN DR, KATY, TX 77493",29.807033,-95.797928,2225,5183,227366,205712,216539,448,194630.0
77493,"2106 MAROT DR, KATY, TX 77493",29.803921999999996,-95.787207,1225,6300,156139,141269,148704,1101,122266.0
77493,"23819 SILVERSMITH LN, KATY, TX 77493",29.797024,-95.78097700000001,1242,6599,142592,129012,135802,-927,120500.0
77493,"26010 STOCKDICK SCHOOL RD, KATY, TX 77493",29.845833000000002,-95.831723,2964,85574,500255,443623,471939,-7493,458700.0
77493,"6024 DRAKE CT, KATY, TX 77493",29.820137,-95.827073,2727,10576,287974,260548,274261,-4498,276622.0
77493,"5319 KING RICHARD DR, KATY, TX 77493",29.799843,-95.81245600000001,1362,6299,166267,133313,149790,-5633,143068.0
77493,"3242 SNOW, KATY, TX 77493",29.823203999999997,-95.83007099999999,2966,22320,338050,305854,321952,-3533,331312.0
77493,"2223 TROTTER DR, KATY, TX 77493",29.804681,-95.7818,3002,6205,243571,220373,231972,1328,192694.0
77493,"27219 BOATERS CROSSING DR, KATY, TX 77493",29.820566999999997,-95.843354,4789,91650,935097,830226,873922,-5172,842340.0
77493,"1950 AIRLINE DR, KATY, TX 77493",29.800998999999997,-95.818269,1225,8398,172156,130240,149701,-2198,114610.0
77493,"1714 SONNY PATH DR, KATY, TX 77493",29.798109000000004,-95.796285,2766,7596,269313,243665,256489,-682,246024.0
77493,"6214 MALLARD DR, KATY, TX 77493",29.820873,-95.828502,2236,10115,283017,256063,269540,4053,246546.0
77493,"1702 AIRLINE DR, KATY, TX 77493",29.796236999999998,-95.81824499999999,2172,11822,227045,203259,216233,4667,173199.0
77493,"5158 MOCKINGBIRD LN, KATY, TX 77493",29.792247999999997,-95.806922,1960,17485,220764,195772,208268,-441,148535.0
77493,"2304 BUCKSKIN LN, KATY, TX 77493",29.806286,-95.826522,2949,17825,327640,296436,312038,-4051,296367.0
77493,"2231 TOURNEY LN, KATY, TX 77493",29.805425,-95.780062,2294,6325,225519,204041,214780,468,188078.0
77493,"24023 PEPPERRELL PLACE ST, KATY, TX 77493",29.79867,-95.783101,1851,6599,191401,173173,182287,-100,149703.0
77493,"3118 QUARRY PLACE LN, KATY, TX 77493",29.81881,-95.78025500000001,4237,6325,289248,261700,275474,963,282472.0
77493,"24326 LAKE PATH CIR, KATY, TX 77493",29.797829999999998,-95.791276,2838,12218,281072,254304,267688,17,257000.0
77493,"24334 TRAVIS HOUSE LN, KATY, TX 77493",29.797614000000003,-95.78919499999999,2507,6300,246460,222988,234724,-50,195997.0
77493,"23615 LEGACY OAK ST, KATY, TX 77493",29.817434999999996,-95.784185,1796,5266,208118,188298,198208,307,169402.0
77493,"1735 GREAT MEADOWS DR, KATY, TX 77493",29.798445,-95.789426,2184,7108,232099,209995,221047,1272,209100.0
77493,"2847 LAKECREST RIVER DR, KATY, TX 77493",29.815045,-95.80085,1861,5066,214143,193749,203946,522,178414.0
77493,"2826 LAKECREST WAY DR, KATY, TX 77493",29.814383000000003,-95.798188,1927,6028,220816,199786,210301,-920,196083.0
77493,"23714 AYSCOUGH LN, KATY, TX 77493",29.804608,-95.78032900000001,2105,6433,224828,203416,214122,930,180897.0
77493,"1724 HEIGHTS DR, KATY, TX 77493",29.797215,-95.817308,1431,11160,191196,169552,180374,128,160802.0
77493,"2426 FAWNLAKE CIR, KATY, TX 77493",29.807665999999998,-95.829584,2429,8220,275696,249440,262568,-2720,258985.0
77493,"24419 HAMPTON LAKES DR, KATY, TX 77493",29.80015,-95.79373199999999,2368,5702,232300,210176,221238,-5154,200300.0
77493,"23719 PRINCE LAWRENCE CT, KATY, TX 77493",29.80647,-95.780192,1946,5824,209203,187287,199241,1026,156960.0
77493,"2827 LAKECREST RIVER DR, KATY, TX 77493",29.815278000000003,-95.800854,1797,5502,212083,191885,201984,239,178355.0
77493,"2622 CARSON DR, KATY, TX 77493",29.811496,-95.817421,1360,6599,176945,160093,168519,-4250,134000.0
77493,"5708 LILAC ST, KATY, TX 77493",29.809668,-95.823953,1802,20691,294277,258855,272479,-67,201893.0
77493,"23706 HOPEWELL DR, KATY, TX 77493",29.807422,-95.78240500000001,2312,6826,227469,205805,216637,703,168299.0
77493,"24926 LAKECREST PARK DR, KATY, TX 77493",29.805876,-95.80331,3050,6900,293033,265125,279079,37221,300732.0
77493,"835 VICTORIA LAKES DR, KATY, TX 77493",29.787084000000004,-95.829048,2362,,319253,266045,295605,8699,230400.0
77493,"2102 BAYLOR DR, KATY, TX 77493",29.80613,-95.811074,2654,6902,246459,222987,234723,2550,195900.0
77493,"1907 AVENUE C, KATY, TX 77493",29.799560999999997,-95.82389,2651,15708,270162,206176,236984,4029,132317.0
77493,"3310 RACHEL LN, KATY, TX 77493",29.820566999999997,-95.81169200000001,1648,5001,192715,174361,183538,-792,152543.0
77493,"5602 IRIS LN, KATY, TX 77493",29.80674,-95.82413299999999,1806,12601,230491,186488,209537,1549,237181.0
77493,"1907 LENORA CT, KATY, TX 77493",29.799398999999998,-95.798326,1637,6246,209534,189578,199556,-629,176223.0
77493,"3800 EULA MORGAN RD, KATY, TX 77493",29.828504,-95.832976,2850,65340,395716,299368,344101,970,162799.0
77493,"6133 10TH ST, KATY, TX 77493",29.794645000000003,-95.830056,5574,325872,693293,577744,641938,4408,1161820.0
77493,"24611 MASON KNIGHTS CT, KATY, TX 77493",29.793281,-95.794732,2124,7230,244445,221165,232805,288,215953.0
77493,"2719 LAKECREST FOREST DR, KATY, TX 77493",29.814863,-95.799987,1657,5501,204242,184790,194516,-404,165000.0
77493,"3311 MADISON ELM ST, KATY, TX 77493",29.821294,-95.78716899999999,2321,4726,244323,221055,232689,11876,195036.0
77493,"24518 CONNOR GROVE CT, KATY, TX 77493",29.796426,-95.791514,2190,8215,242754,219634,231194,-2818,225329.0
77493,"24510 JOCELYN PARK CT, KATY, TX 77493",29.795669,-95.79117,2190,7684,239026,216262,227644,1158,218284.0
77493,"1518 AIRLINE DR, KATY, TX 77493",29.7935,-95.81825,2200,14040,263012,219177,243530,2754,187746.0
77493,"5811 DAHLIA LN, KATY, TX 77493",29.805535,-95.82253399999999,966,11199,177775,151679,163096,-1724,139898.0
77493,"1502 AIRLINE DR, KATY, TX 77493",29.793233,-95.818252,1799,6960,198590,176318,185598,792,147004.0
77493,"1314 AVENUE A, KATY, TX 77493",29.791807000000002,-95.820895,3774,18373,491440,305288,372303,32013,288630.0
77493,"5353 YALE DR, KATY, TX 77493",29.806408,-95.813571,2069,7536,221193,200127,210660,2869,168231.0
77493,"2614 VILLAGE CIRCLE DR, KATY, TX 77493",29.811317,-95.819126,1251,6599,171618,152371,160391,-5296,123523.0
77493,"1722 SONNY PATH DR, KATY, TX 77493",29.798315000000002,-95.79627099999999,2878,7597,276153,249853,263003,-1682,248632.0
77493,"1931 DREXEL DR, KATY, TX 77493",29.799719,-95.816684,2596,10799,246574,204368,222139,2866,180000.0
77493,"5319 LITTLE JOHN LN, KATY, TX 77493",29.79164,-95.812414,1720,6359,202595,181371,192948,-2204,180076.0
77493,"1425 WATTS AVE, KATY, TX 77493",29.793187,-95.806466,2346,7651,258633,231793,243993,3304,207955.0
77493,"3425 JAN CT, KATY, TX 77493",29.823101,-95.811188,1762,8716,209481,185541,199506,-1382,159915.0
77493,"2801 FORTUNA DR, KATY, TX 77493",29.813719,-95.815318,1841,17500,255746,229207,241270,1063,210750.0
77493,"2202 PRINCESS SNOW CIR, KATY, TX 77493",29.805219,-95.780622,2243,7227,219303,198417,208860,-1318,173469.0
77493,"5350 DERBYSHIRE DR, KATY, TX 77493",29.799363,-95.81197900000001,1957,10149,203279,183919,193599,-3006,162011.0
77493,"24930 MASON TRAIL DR, KATY, TX 77493",29.79652,-95.797526,2866,7200,259108,234432,246770,-2576,237044.0
77493,"24027 AYSCOUGH LN, KATY, TX 77493",29.805168,-95.786495,2200,6599,217766,197026,207396,1920,181066.0
77493,"3007 WINCHESTER RANCH TRL, KATY, TX 77493",29.817638,-95.78531600000001,2580,6368,256581,232145,244363,4244,134830.0
77493,"3014 VIEW VALLEY TRL, KATY, TX 77493",29.818084000000002,-95.781666,1854,5053,214497,194069,204283,1924,173564.0
77493,"24510 LAKECREST TOWN DR, KATY, TX 77493",29.807316999999998,-95.794913,1679,4948,206837,187139,196988,-794,172453.0
77493,"1822 AIRLINE DR, KATY, TX 77493",29.79788,-95.818249,1683,7078,169644,133292,151468,-2913,125000.0
77493,"5339 DERBYSHIRE DR, KATY, TX 77493",29.799082000000002,-95.81221,1570,6159,170006,130436,146557,-17062,154730.0
77493,"1540 EAST AVE, KATY, TX 77493",29.794107,-95.819774,1620,1681,172936,135205,157215,3481,69762.0
77493,"1901 HEIGHTS DR, KATY, TX 77493",29.801329,-95.817638,1729,7200,189789,171713,180751,759,156300.0
77493,"5710 DAHLIA LN, KATY, TX 77493",29.805801000000002,-95.82372099999999,1080,11199,182296,155037,170370,-7121,154540.0
77493,"1530 MILLER AVE, KATY, TX 77493",29.794052,-95.80947900000001,1777,5998,221593,198379,211041,544,197114.0
77493,"26151 CLAY RD, KATY, TX 77493",29.831063,-95.830862,4469,373658,1178217,919836,1033524,-4044,1246265.0
77493,"2315 PRINCE JEFFRY LN, KATY, TX 77493",29.805236999999998,-95.784964,2262,6534,224021,202685,213353,1746,171133.0
77493,"3356 BERZIN CT, KATY, TX 77493",29.822418,-95.809224,1801,9936,210750,190678,200714,-322,177880.0
77493,"24402 LEACHWOOD DR, KATY, TX 77493",29.801313,-95.791151,2304,7802,241153,218187,229670,2203,205245.0
77493,"1026 DOLLINS ST, KATY, TX 77493",29.788859000000002,-95.830302,840,28924,259671,206817,229797,2842,178740.0
77493,"24514 CONNOR GROVE CT, KATY, TX 77493",29.796437,-95.791465,2916,8950,285969,258733,272351,1954,256205.0
77493,"5319 LINCOLN TOWN DR, KATY, TX 77493",29.793803000000004,-95.812007,1313,9100,174957,149963,166626,-2945,146775.0
77493,"3413 RACHEL LN, KATY, TX 77493",29.823021,-95.812033,1288,5001,173043,137822,153135,-1105,132412.0
77493,"23818 HOPEWELL DR, KATY, TX 77493",29.807446999999996,-95.779944,2496,6695,230468,208518,219493,-1090,194118.0
77493,"3202 SINGLE RIDGE WAY, KATY, TX 77493",29.819646000000002,-95.779059,2643,6172,239275,216487,227881,-3261,208142.0
77493,"24615 TRIBECA LN, KATY, TX 77493",29.800984000000003,-95.795784,1504,5791,195898,175376,186570,5921,168285.0
77493,"23835 TAYLOE HOUSE LN, KATY, TX 77493",29.798365000000004,-95.78181500000001,1240,6299,142489,128919,135704,1081,125761.0
77493,"24531 TRIBECA LN, KATY, TX 77493",29.800993,-95.794226,2710,5793,263371,238289,250830,-1333,218167.0
77493,"24623 MALCA MANOR DR, KATY, TX 77493",29.793411,-95.796625,3151,7192,305311,276233,290772,2861,280552.0
77493,"3337 RACHEL LN, KATY, TX 77493",29.82198,-95.812012,1388,5000,169486,137129,154078,-2355,138797.0
77493,"2210 AUBURN DR, KATY, TX 77493",29.806696000000002,-95.809503,1920,7200,214354,193940,204147,1227,159343.0
77493,"5237 LUCKEL DR, KATY, TX 77493",29.791632,-95.809606,1527,6177,189793,171717,180755,1329,166237.0
77493,"24910 LAKECREST PARK DR, KATY, TX 77493",29.805602,-95.803567,2163,7200,262065,237107,249586,-753,239084.0
77493,"24402 LANNING DR, KATY, TX 77493",29.800517,-95.790163,2128,8154,236508,213984,225246,3495,210013.0
77493,"2434 LAKECREST HARBOR DR, KATY, TX 77493",29.808190000000003,-95.794287,1783,5174,206851,187151,197001,803,172673.0
77493,"5078 MORRISON BLVD, KATY, TX 77493",29.794034999999997,-95.803172,2481,8956,253436,229300,241368,-1501,228627.0
77493,"5314 KYLA CIR, KATY, TX 77493",29.8198,-95.812539,2071,12092,251440,225099,239467,1226,201940.0
77493,"24623 LAKECREST BEND DR, KATY, TX 77493",29.812888,-95.798248,2658,6098,228396,202294,217520,-2215,227746.0
77493,"1922 PONTIUS DR, KATY, TX 77493",29.800277,-95.797169,1827,5502,213364,193044,203204,-2978,192908.0
77493,"24618 LAKECREST RUN DR, KATY, TX 77493",29.815039000000002,-95.799557,1768,5248,206129,186497,196313,-1945,163770.0
77493,"24502 JOCELYN PARK CT, KATY, TX 77493",29.795690000000004,-95.791057,2706,7662,267571,242089,254830,-8463,233694.0
77493,"24111 CANE FIELDS RD, KATY, TX 77493",29.813896000000003,-95.791155,2688,7118,288743,261243,274993,863,267386.0
77493,"3526 KATY HOCKLEY RD, KATY, TX 77493",29.825754999999997,-95.82332099999999,2501,60112,402857,357677,376502,-45250,268036.0
77493,"23807 GRIFFIN HOUSE LN, KATY, TX 77493",29.797492,-95.781699,1210,6299,143430,129770,136600,-2425,121118.0
77493,"909 BARTLETT RD, KATY, TX 77493",29.788059999999998,-95.831795,1550,10498,232952,196620,213717,5501,150380.0
77493,"1535 HUDGENS AVE, KATY, TX 77493",29.794452000000003,-95.809014,1839,8960,227356,205704,216530,1587,188075.0
77493,"3022 MADISON ELM ST, KATY, TX 77493",29.817923999999998,-95.784138,2368,5227,225306,203848,214577,1446,183118.0
77493,"24515 LAKECREST TOWN DR, KATY, TX 77493",29.807043,-95.794849,2559,5184,228549,206783,217666,1925,213275.0
77493,"3106 E ELM CIR, KATY, TX 77493",29.818069,-95.830979,2763,11252,343096,294998,320650,-3821,367703.0
77493,"6570 MANORWOOD DR, KATY, TX 77493",29.826378000000002,-95.830163,2783,87338,566308,459168,510187,3974,430000.0
77493,"6506 MERT LN, KATY, TX 77493",29.791349,-95.834908,1972,9374,312666,155224,221749,-1069,194860.0
77493,"1418 ROBIN AVE, KATY, TX 77493",29.793711,-95.805301,2933,7649,289820,262218,276019,1392,253109.0
77493,"29725 MARTI RD, KATY, TX 77493",29.849286,-95.885817,1848,130680,305034,264747,287768,15634,258020.0
77493,"24930 LAKECREST PARK DR, KATY, TX 77493",29.805946999999996,-95.803241,2297,6930,267331,241871,254601,-839,262409.0
77493,"5342 KYLA CIR, KATY, TX 77493",29.821152,-95.81381,1989,6861,211499,191357,201428,-817,185750.0
77493,"5345 PRINCETON DR, KATY, TX 77493",29.805613,-95.813727,1779,6900,203922,184500,194211,2454,152178.0
77493,"24710 LAKECREST CREEK DR, KATY, TX 77493",29.815757,-95.799926,1710,5249,203948,184524,194236,-561,154052.0
77493,"2231 TROTTER DR, KATY, TX 77493",29.804784,-95.781879,2488,6203,230900,208910,219905,-442,188493.0
77493,"3211 QUARRY PLACE LN, KATY, TX 77493",29.820665,-95.779739,2245,6159,226709,205117,215913,-1402,197105.0
77493,"6013 DRAKE CT, KATY, TX 77493",29.819869,-95.825829,2718,9296,290999,263285,277142,-5446,288292.0
77493,"23843 SILVERSMITH LN, KATY, TX 77493",29.797271000000002,-95.78062800000001,1242,6599,143361,129707,136534,-1517,120551.0
77493,"5323 LITTLE JOHN LN, KATY, TX 77493",29.791569,-95.812216,1368,10141,178783,144338,164021,-1121,124407.0
77493,"24626 COLONIAL MAPLE DR, KATY, TX 77493",29.791108,-95.795086,2124,6072,234987,212607,223797,447,191122.0
77493,"26504 CLAY RD, KATY, TX 77493",29.831346999999997,-95.825673,3013,42035,443311,397307,418218,-10207,418612.0
77493,"5329 YALE DR, KATY, TX 77493",29.806472999999997,-95.813848,1981,10668,217544,196826,207185,1503,160844.0
77493,"3219 WREN VALLEY TRL, KATY, TX 77493",29.81995,-95.78176500000001,3466,5833,283871,256835,270353,760,248000.0
77493,"23926 SILVERSMITH LN, KATY, TX 77493",29.79836,-95.779589,1242,5771,143439,129779,136609,-1133,122833.0
77493,"2610 FORTUNA DR, KATY, TX 77493",29.811306,-95.81504,2070,17999,256566,219914,244349,696,228996.0
77493,"24918 LAKECREST PARK DR, KATY, TX 77493",29.805749,-95.80343,2839,6900,320446,289928,305187,-2568,56768.0
77493,"2147 AUBURN VALE ST, KATY, TX 77493",29.805567,-95.792547,2702,5776,249918,226116,238017,1345,205234.0
77493,"5606 GARDENIA LN, KATY, TX 77493",29.803917,-95.821533,952,11199,178007,140858,154789,543,98451.0
77493,"4954 S NELSON DR, KATY, TX 77493",29.793182,-95.802666,2083,8276,238129,213418,224650,1307,218386.0
77493,"2718 ELDER RD, KATY, TX 77493",29.813215999999997,-95.820088,1305,6512,175817,155913,165865,-3766,145378.0
77493,"2606 PINEWOOD TER, KATY, TX 77493",29.811711,-95.810395,1209,7370,170083,130949,150516,-1997,118000.0
77493,"2935 ELDER RD, KATY, TX 77493",29.815909,-95.820714,1965,37592,305502,265152,288209,831,252891.0
77493,"2618 VILLAGE OAK DR, KATY, TX 77493",29.811946999999996,-95.820875,1414,6599,175836,159090,167463,-14483,151299.0
77493,"5310 MARIAN ST, KATY, TX 77493",29.793946999999996,-95.81475,1470,6957,187314,169474,178394,239,141522.0
77493,"3409 RACHEL LN, KATY, TX 77493",29.822996999999997,-95.812033,1261,5000,166922,143301,157474,-1927,129230.0
77493,"23938 SHAW PERRY LN, KATY, TX 77493",29.804177000000003,-95.785521,2257,7871,225580,204096,214838,697,185000.0
77493,"3502 LAKES OF KATY LN, KATY, TX 77493",29.822467,-95.843705,3058,49223,731313,620310,652958,-10157,535360.0
77493,"2138 SUMMER GARDENS LN, KATY, TX 77493",29.804447999999997,-95.828592,2714,10497,375676,339898,357787,6601,346180.0
77493,"1419 WATTS AVE, KATY, TX 77493",29.79314,-95.806467,1886,7649,217449,196739,207094,-1220,200712.0
77493,"24911 LAKECREST PARK DR, KATY, TX 77493",29.805434,-95.803317,2725,6896,285014,255155,271442,-426,282642.0
77493,"3039 THICKET PATH WAY, KATY, TX 77493",29.818240000000003,-95.78370799999999,1555,5044,194749,176201,185475,3283,157881.0
77493,"1611 PALISADE GREEN DR, KATY, TX 77493",29.795789000000003,-95.798878,2355,7200,237967,215303,226635,-1700,216235.0
77493,"1907 PONTIUS DR, KATY, TX 77493",29.800099,-95.79748199999999,1904,6050,220441,199447,209944,-1319,218500.0
77493,"24430 PEPPERRELL PLACE ST, KATY, TX 77493",29.795828999999998,-95.788993,1895,6046,218261,197475,207868,71,193857.0
77493,"5327 LINCOLN TOWN DR, KATY, TX 77493",29.794037,-95.812451,1638,6930,168929,139970,160885,-2565,153584.0
77493,"2903 KARANKAWA DR, KATY, TX 77493",29.8148,-95.790738,2686,8111,290552,262880,276716,-698,287431.0
77493,"23822 GRIFFIN HOUSE LN, KATY, TX 77493",29.797884999999997,-95.78164,1220,6299,143303,128290,136479,-1538,124387.0
77493,"5036 MORRISON BLVD, KATY, TX 77493",29.793915000000002,-95.804389,2982,10006,279092,252512,265802,-442,247225.0
77493,"4002 KATY HOCKLEY CUT OFF RD, KATY, TX 77493",29.831740000000003,-95.806593,3358,189922,636726,494599,568505,-2701,450000.0
77493,"817 ASTER DR, KATY, TX 77493",29.787194,-95.832954,2398,10498,258057,223650,245769,-4812,214670.0
77493,"24307 TRAVIS HOUSE LN, KATY, TX 77493",29.797126000000002,-95.789379,2589,11591,246510,223032,234771,1198,198380.0
77493,"5613 VILLAGE GREEN DR, KATY, TX 77493",29.812803000000002,-95.82356800000001,1719,6599,191958,173676,182817,-149,164055.0
77493,"24011 AYSCOUGH LN, KATY, TX 77493",29.805013,-95.786123,2625,7279,249081,225359,237220,287,199119.0
77493,"4603 PRAIRIE WING PT, KATY, TX 77493",29.835720000000002,-95.83314200000001,3589,50094,823759,670671,728990,9534,696360.0
77493,"2214 AVENUE A, KATY, TX 77493",29.805564,-95.821331,1320,18613,203335,183969,193652,-532,178253.0
77493,"3303 LAKES OF KATY LN, KATY, TX 77493",29.821638,-95.847567,4104,43560,882740,679031,754479,-16491,543980.0
77493,"1319 CARNATION ST, KATY, TX 77493",29.792234999999998,-95.83534399999999,3968,,548199,495989,522094,-5973,517570.0
77493,"1303 WINDING CYN, KATY, TX 77493",29.795526000000002,-95.88047900000001,3179,105768,563129,509497,536313,2229,580030.0
77493,"23535 LEGACY OAK ST, KATY, TX 77493",29.817453000000004,-95.783428,2460,5227,232657,210499,221578,2826,199389.0
77493,"2103 WIGMAKER DR, KATY, TX 77493",29.804205,-95.788349,1366,5671,164720,149032,156876,2086,128754.0
77493,"5067 N NELSON AVE, KATY, TX 77493",29.794549,-95.802542,2070,13395,238339,215641,226990,-767,215422.0
77493,"24206 CAMILLIA RIDGE WAY, KATY, TX 77493",29.805028000000004,-95.790009,1938,5985,215468,194948,205208,10304,168126.0
77493,"1505 DAN COX AVE, KATY, TX 77493",29.793812,-95.804778,1662,6120,224061,202721,213391,-397,199212.0
77493,"1518 PALISADE GREEN DR, KATY, TX 77493",29.795,-95.798562,2026,6900,229593,207727,218660,661,212260.0
77493,"24115 MORRISON LN, KATY, TX 77493",29.816265,-95.791536,2139,7179,253878,229700,241789,-3077,233864.0
77493,"5602 VILLAGE ARBOUR DR, KATY, TX 77493",29.811566999999997,-95.821049,1500,8241,195724,175413,184645,-3085,178225.0
77493,"24714 TRIBECA LN, KATY, TX 77493",29.801240999999997,-95.79702900000001,1748,5750,213402,193078,203240,-1635,190082.0
77493,"5426 4TH ST, KATY, TX 77493",29.789062,-95.81785,816,9448,173636,131360,150988,2841,55619.0
77493,"810 BLUEBONNET LN, KATY, TX 77493",29.786417,-95.833793,2350,10500,253986,220440,239609,-7296,218050.0
77493,"23810 NORTON HOUSE LN, KATY, TX 77493",29.808214000000003,-95.781705,2600,6930,228004,206290,217147,1582,77246.0
77493,"2713 VILLAGE CIRCLE DR, KATY, TX 77493",29.813042,-95.819496,1719,8093,191840,173570,182705,-256,168638.0
77493,"3154 UPLAND SPRING TRCE, KATY, TX 77493",29.820798999999997,-95.784201,3085,5293,257707,233163,245435,3770,195252.0
77493,"5009 MEADOWLARK LN, KATY, TX 77493",29.791063,-95.805022,1953,18792,219831,198895,209363,-633,160812.0
77493,"1431 WATTS AVE, KATY, TX 77493",29.793234,-95.806466,1951,7142,219927,196887,209454,-947,204708.0
77493,"2911 ACORN OAKS DR, KATY, TX 77493",29.814933,-95.791764,2859,6351,279952,253290,266621,-1119,256884.0
77493,"24018 GRIFFIN HOUSE LN, KATY, TX 77493",29.795602000000002,-95.784662,1285,6826,159083,142418,151508,-600,131400.0
77493,"24806 TRIBECA LN, KATY, TX 77493",29.801237,-95.797703,1748,6094,211731,191567,201649,-849,185000.0
77493,"24318 SCHIVENER HOUSE LN, KATY, TX 77493",29.796558,-95.786598,2630,6298,252623,228563,240593,-450,204561.0
77493,"23631 LEGACY OAK ST, KATY, TX 77493",29.817424,-95.78501800000001,2384,5266,223909,202585,213247,-1362,188610.0
77493,"23922 SILVERSMITH LN, KATY, TX 77493",29.798319,-95.779647,1210,5776,143645,129965,136805,-1058,118115.0
77493,"4814 PITTS RD, KATY, TX 77493",29.842306,-95.84012299999999,3810,100859,769466,614223,674970,7380,613320.0
77493,"2403 LAKECREST GARDENS DR, KATY, TX 77493",29.807139000000003,-95.801539,2808,5675,309103,279665,294384,-9815,330126.0
77493,"23819 AYSCOUGH LN, KATY, TX 77493",29.804295,-95.781898,2902,6673,244244,220982,232613,-434,180929.0
77493,"1515 WINDING CYN, KATY, TX 77493",29.800364000000002,-95.888345,3681,58004,525852,457048,491450,-47026,523590.0
77493,"2511 VILLAGE OAK DR, KATY, TX 77493",29.809692,-95.820616,1784,7200,194335,175827,185081,3189,164579.0
77493,"5958 GREEN MEADOWS LN, KATY, TX 77493",29.804765999999997,-95.82635,4647,14998,588666,513058,540061,2633,467081.0
77493,"6217 N FAWNLAKE DR, KATY, TX 77493",29.808192,-95.831514,2683,9169,322515,282584,307157,-3413,289000.0
77493,"3221 PINTAIL ST, KATY, TX 77493",29.822121999999997,-95.828243,2282,12148,289187,261645,275416,-3447,253620.0
77493,"5302 FINSBURY FIELD DR, KATY, TX 77493",29.798645,-95.81111700000001,1524,6826,182982,156842,174269,-85,153982.0
77493,"1014 ASTER DR, KATY, TX 77493",29.789501,-95.83263199999999,2188,11195,282198,240390,261294,-1255,232960.0
77493,"24426 TUCKER HOUSE LN, KATY, TX 77493",29.796508000000003,-95.789406,2415,5380,243451,218187,229671,-2820,207073.0
77493,"3208 CANVASBACK ST, KATY, TX 77493",29.821226,-95.82597700000001,2727,11303,295749,267583,281666,-26296,282138.0
77493,"24222 SILVERSMITH LN, KATY, TX 77493",29.794919,-95.787367,2149,5510,222404,201222,211813,-1756,199979.0
77493,"2310 VILLAGE STONE CT, KATY, TX 77493",29.80818,-95.798631,2443,4609,238364,213628,224872,3781,203665.0
77493,"2814 LAKECREST RIVER DR, KATY, TX 77493",29.815423,-95.80054100000001,1825,5248,211509,191365,201437,-184,190000.0
77493,"1902 SALT VALLEY DR, KATY, TX 77493",29.800521000000003,-95.788664,2138,7993,237104,214522,225813,1440,204699.0
77493,"6126 VERDE PLACE LN, KATY, TX 77493",29.801731,-95.82861700000001,2941,10176,448296,381261,418968,610,420342.0
77493,"5334 PRINCETON DR, KATY, TX 77493",29.805887,-95.81385,2440,7950,242024,218974,230499,6304,180355.0
77493,"5921 WHISPERING LAKES DR, KATY, TX 77493",29.793184999999998,-95.825925,3647,9204,331284,287938,309611,-6074,207923.0
77493,"4966 S NELSON DR, KATY, TX 77493",29.793173,-95.802936,2559,7841,256972,232498,244735,-1384,246107.0
77493,"1007 AVENUE D, KATY, TX 77493",29.788224,-95.824598,1979,6250,271294,202321,229910,13496,166721.0
77493,"1109 CARNATION ST, KATY, TX 77493",29.789792,-95.835308,2356,11282,351416,317948,334682,-2980,274670.0
77493,"1919 LENORA CT, KATY, TX 77493",29.799529999999997,-95.798322,2880,5502,261616,236700,249158,-3286,239121.0
77493,"3221 GOLDEN EYE, KATY, TX 77493",29.822362,-95.831328,2726,13473,304872,275836,290354,-11258,278815.0
77493,"5307 11TH ST, KATY, TX 77493",29.796135999999997,-95.814949,1506,6891,179770,162650,171210,-2018,146658.0
77493,"3110 SINGLE RIDGE WAY, KATY, TX 77493",29.818527000000003,-95.779432,3086,6173,254388,230160,242274,-8453,231599.0
77493,"2614 FOREST LAKE TRL, KATY, TX 77493",29.80984,-95.828558,3186,8355,297834,269468,283651,626,279345.0
77493,"2531 TROTTER DR, KATY, TX 77493",29.808266999999997,-95.784479,1451,5942,170111,147643,160482,3536,108007.0
77493,"24006 NOMINI HALL LN, KATY, TX 77493",29.800738,-95.78241,1500,6299,176511,153198,166520,1415,137854.0
77493,"5362 LINCOLN GREEN DR, KATY, TX 77493",29.794394,-95.813794,1464,7085,170742,140137,161077,-2359,147917.0
77493,"4639 SILHOUETTE DR, KATY, TX 77493",29.840360999999998,-95.837738,3850,52707,569303,490233,527132,-6032,535521.0
77493,"24231 PEPPERRELL PLACE ST, KATY, TX 77493",29.796205,-95.787982,2637,6299,252420,228380,240400,712,196000.0
77493,"5617 DELFREN LN, KATY, TX 77493",29.804583,-95.824839,1079,11199,181669,155716,173018,-4364,129747.0
77493,"24150 TAYLOE HOUSE LN, KATY, TX 77493",29.797642,-95.78330799999999,2638,6060,249262,225522,237392,-3682,230173.0
77493,"5608 5TH ST, KATY, TX 77493",29.790096999999996,-95.822109,4922,10624,389589,298909,335853,-5683,259029.0
77493,"3418 QUARRY PLACE LN, KATY, TX 77493",29.822656,-95.776832,3609,6312,304802,275774,290288,2535,259914.0
77493,"3014 UPLAND SPRING TRCE, KATY, TX 77493",29.818997999999997,-95.782767,2460,4957,224573,203185,213879,309,188094.0
77493,"24707 BLANE DR, KATY, TX 77493",29.795668,-95.794725,1998,7026,239678,216852,228265,251,209426.0
77493,"2215 CAMBRIDGE DALE CT, KATY, TX 77493",29.805834,-95.791256,3736,6207,269905,244199,257052,3369,246720.0
77493,"3105 BRANT ST, KATY, TX 77493",29.818503000000003,-95.825293,2376,16801,285894,258666,272280,2552,225594.0
77493,"5905 T ST, KATY, TX 77493",29.796279,-95.828727,1566,8999,203601,176454,193906,-6180,177672.0
77493,"6013 WHISPERING LAKES DR, KATY, TX 77493",29.794407,-95.828228,2511,,304291,251731,276628,12037,207230.0
77493,"3246 CANVASBACK ST, KATY, TX 77493",29.823045,-95.826032,1889,15451,258600,231764,243962,954,241289.0
77493,"1903 SNOW GOOSE LN, KATY, TX 77493",29.800864,-95.879369,3822,93482,655405,571225,601289,-11365,573640.0
77493,"2419 LAKECREST GARDENS DR, KATY, TX 77493",29.807469,-95.801549,3420,7876,318257,287947,303102,-12472,315057.0
77493,"6212 N FAWNLAKE DR, KATY, TX 77493",29.808464,-95.831581,2900,9135,330919,293457,312188,-1371,292328.0
77493,"1435 MILLER AVE, KATY, TX 77493",29.793015999999998,-95.80980500000001,1463,4500,183280,165824,174552,756,153252.0
77493,"5006 MEADOWLARK LN, KATY, TX 77493",29.791337,-95.805091,3008,14000,289238,261692,275465,-912,239297.0
77493,"3026 UPLAND SPRING TRCE, KATY, TX 77493",29.820769,-95.784164,1854,4957,208363,188519,198441,3010,164461.0
77493,"1936 AVENUE B, KATY, TX 77493",29.79986,-95.82224599999999,2756,9853,275192,207003,243533,5749,44900.0
77493,"24434 LAKECREST TOWN DR, KATY, TX 77493",29.807309999999998,-95.796114,2228,4948,225056,203622,214339,-51,201967.0
77493,"23930 TAYLOE HOUSE LN, KATY, TX 77493",29.799627,-95.780518,1328,6900,186948,147859,169953,-348,125400.0
77493,"1611 CHILTON LN, KATY, TX 77493",29.795415999999996,-95.81439,1370,13103,187708,169832,178770,-407,148478.0
77493,"1507 BARRY ESTATE CT, KATY, TX 77493",29.795607,-95.797851,3030,9313,276805,250443,263624,-435,229000.0
77493,"1518 HEIGHTS DR, KATY, TX 77493",29.794546,-95.81730400000001,2228,6960,213260,192950,203105,-571,165629.0
77493,"23503 LEGACY OAK ST, KATY, TX 77493",29.817453999999998,-95.782585,2788,8925,249067,225347,237207,-4071,212385.0
77493,"24306 LANNING DR, KATY, TX 77493",29.800117999999998,-95.792387,2629,7463,259674,232470,247309,-2243,201000.0
77493,"24131 ORANGE ORCHARD LN, KATY, TX 77493",29.814760999999997,-95.792298,2305,5750,251198,227274,239236,196,221637.0
77493,"1005 DREXEL DR, KATY, TX 77493",29.788132,-95.816389,1372,14174,220425,177958,202225,2101,86480.0
77493,"2202 PARKSIDE TRACE CT, KATY, TX 77493",29.806054,-95.80135600000001,2175,7675,269773,244081,256927,484,249798.0
77493,"23850 STOCKDICK SCHOOL RD, KATY, TX 77493",29.846255,-95.773966,3191,353272,605385,495315,550350,-4774,500000.0
77493,"24222 EMORY GREEN ST, KATY, TX 77493",29.803627000000002,-95.790286,3054,5985,264964,239730,252347,2627,211175.0
77493,"3015 WINCHESTER RANCH TRL, KATY, TX 77493",29.817756,-95.785328,3220,5602,244134,220884,232509,2943,217139.0
77493,"5310 NOTTINGHAM DR, KATY, TX 77493",29.797842,-95.812768,1532,6298,185474,167810,176642,-1059,147500.0
77493,"2321 DEERFIELD DR, KATY, TX 77493",29.806942,-95.825802,2047,7448,239356,216560,227958,-3954,227697.0
77493,"1709 EAST AVE, KATY, TX 77493",29.796609999999998,-95.820097,2179,21780,305636,228539,275348,-338,279000.0
77493,"23102 QUIET HERON CT, KATY, TX 77493",29.822743,-95.777055,3560,12902,329313,297949,313631,1144,272471.0
77493,"1302 MAPLE ACE DR, KATY, TX 77493",29.791883000000002,-95.797472,1795,5502,224065,202725,213395,1104,180000.0
77493,"6225 PECAN LN, KATY, TX 77493",29.814193,-95.826656,1938,32831,290172,249110,273747,-354,185943.0
77493,"25939 STOCKDICK SCHOOL RD, KATY, TX 77493",29.845553000000002,-95.833364,1860,,247877,180656,210065,15842,42033.0
77493,"1610 CHILTON LN, KATY, TX 77493",29.795214,-95.814176,1474,7344,172072,155684,163878,1122,143917.0
77493,"1117 BARTLETT RD, KATY, TX 77493",29.791469,-95.83184,1867,14898,277410,246006,261708,-6683,206970.0
77493,"24031 GRIFFIN HOUSE LN, KATY, TX 77493",29.795578000000003,-95.784215,1422,6300,164524,145722,156690,-2408,136200.0
77493,"3007 MADISON ELM ST, KATY, TX 77493",29.817656,-95.784432,1532,5645,195211,176619,185915,2299,155986.0
77493,"2323 VILLAGE STONE CT, KATY, TX 77493",29.80811,-95.798946,1530,5057,203591,184201,193896,1993,159875.0
77493,"2211 AUBURN VALE ST, KATY, TX 77493",29.805669,-95.792547,2108,5776,223485,202201,212843,3672,177349.0
77493,"1513 HEIGHTS DR, KATY, TX 77493",29.794649,-95.817619,1808,6961,172491,139945,162727,-1556,148924.0
77493,"2211 HOLLYFIELD LN, KATY, TX 77493",29.807088,-95.782578,2294,6990,225693,204199,214946,614,189233.0
77493,"2111 GOODWIN DR, KATY, TX 77493",29.803991999999997,-95.789245,1292,6089,164827,149129,156978,1960,137976.0
77493,"6202 PECAN LN, KATY, TX 77493",29.814466999999997,-95.826386,2952,21600,370333,318898,342901,-1394,279488.0
77493,"24310 SCHIVENER HOUSE LN, KATY, TX 77493",29.796490000000002,-95.786695,2017,6299,216800,196152,206476,752,181152.0
77493,"4937 S NELSON DR, KATY, TX 77493",29.793183000000003,-95.802236,1823,9147,225603,204117,214860,1617,192000.0
77493,"839 VICTORIA LAKES DR, KATY, TX 77493",29.787238000000002,-95.829054,2280,7405,273243,242309,257776,6563,214370.0
77493,"1422 S MAPLE DR, KATY, TX 77493",29.793151,-95.798511,2680,7305,255709,231355,243532,-3227,224464.0
77493,"23806 SILVERSMITH LN, KATY, TX 77493",29.797124,-95.781334,1242,8398,143889,127444,137037,-1704,78774.0
77493,"1917 HEIGHTS DR, KATY, TX 77493",29.800681,-95.817635,2102,7200,206995,179911,193453,-3472,139253.0
77493,"23734 AYSCOUGH LN, KATY, TX 77493",29.804594,-95.780879,2069,6434,211851,189657,201763,-781,154087.0
77493,"24002 GRIFFIN HOUSE LN, KATY, TX 77493",29.795341999999998,-95.785003,1285,6299,157677,139657,150169,806,131211.0
77493,"5315 LINCOLN GREEN DR, KATY, TX 77493",29.793036999999998,-95.811709,1292,6930,151141,127993,136163,-12853,140772.0
77493,"5217 BRADLY LN, KATY, TX 77493",29.823428000000003,-95.809989,2346,6615,233622,211372,222497,-1640,191404.0
77493,"24123 BASSETT HALL LN, KATY, TX 77493",29.799721999999996,-95.784486,1851,9480,201413,175059,188236,189,151383.0
77493,"24222 LAKE PATH CIR, KATY, TX 77493",29.795989000000002,-95.790986,2285,6900,237004,214432,225718,-1580,231450.0
77493,"1529 WATTS AVE, KATY, TX 77493",29.794075,-95.806455,1817,7139,214669,194225,204447,-2187,193276.0
77493,"3010 MADISON ELM ST, KATY, TX 77493",29.817728999999996,-95.78411899999999,2581,,237395,202865,215814,400,
77493,"2715 LAKECREST FOREST DR, KATY, TX 77493",29.812606,-95.79875899999999,2594,5502,240611,217695,229153,-2038,212411.0
77493,"3340 JESSICA CT, KATY, TX 77493",29.823390000000003,-95.808422,2576,6608,240127,217257,228692,-2698,221295.0
77493,"5428 3RD ST, KATY, TX 77493",29.788211999999998,-95.817724,910,9378,159641,116712,134152,1882,43765.0
77493,"5934 GREEN MEADOWS LN, KATY, TX 77493",29.804506,-95.825786,3875,12571,445598,403160,424379,236,401243.0
77493,"1919 SALT VALLEY DR, KATY, TX 77493",29.800320000000003,-95.788926,2414,5689,240627,217711,229169,-382,210133.0
77493,"24923 LAKECREST GLEN DR, KATY, TX 77493",29.807315000000003,-95.80167800000001,1790,5698,229707,205870,216705,825,213815.0
77493,"4606 PITTS RD, KATY, TX 77493",29.838639,-95.840082,3219,98711,632183,491698,540327,-5737,489762.0
77493,"5349 YALE DR, KATY, TX 77493",29.806411999999998,-95.813609,2245,7375,231685,209619,220652,4136,176075.0
77493,"24803 SONNY PATH CT, KATY, TX 77493",29.798849,-95.796398,2284,10833,249978,226170,238074,-3938,210851.0
77493,"1826 POWDERHORN LN, KATY, TX 77493",29.799757,-95.778801,1220,6599,141904,128390,135147,-345,123366.0
77493,"6419 ALICIA WAY LN, KATY, TX 77493",29.811908000000003,-95.830842,2364,8167,274451,248313,261382,-181,244157.0
77493,"1447 WINDING CYN, KATY, TX 77493",29.798953000000004,-95.882908,3507,127095,699807,562345,624828,-11007,639300.0
77493,"24226 YELVERTON GLEN DR, KATY, TX 77493",29.800148999999998,-95.787848,2275,7333,233114,210912,222013,-635,222417.0
77493,"3238 BRANT ST, KATY, TX 77493",29.822996999999997,-95.825082,1978,9901,248996,220808,234902,1756,206176.0
77493,"2343 PRINCESS DEANNA LN, KATY, TX 77493",29.805059999999997,-95.783249,2443,7357,241611,218601,230106,5127,190155.0
77493,"1318 MAPLE ACE DR, KATY, TX 77493",29.791675,-95.797537,1744,5502,223757,202447,213102,949,180000.0
77493,"6022 Y ST, KATY, TX 77493",29.795786,-95.826362,2072,8712,228253,204341,217384,1898,196345.0
77493,"6531 MANORWOOD DR, KATY, TX 77493",29.825709999999997,-95.828875,3031,43560,443610,397137,422486,-9163,417679.0
77493,"5310 LINDA LN, KATY, TX 77493",29.800866999999997,-95.812758,1395,7200,181691,164387,173039,1211,145908.0
77493,"2205 AUBURN DR, KATY, TX 77493",29.806648,-95.809818,1881,7200,216351,195747,206049,2068,174331.0
77493,"5714 VILLAGE WAY DR, KATY, TX 77493",29.810709000000003,-95.822211,1245,7200,163090,138238,155324,-2819,120000.0
77493,"24130 CANE FIELDS RD, KATY, TX 77493",29.814176,-95.791432,3102,13799,371408,336036,353722,-1586,309714.0
77493,"3423 SINGLE RIDGE WAY, KATY, TX 77493",29.821649,-95.777621,2538,6125,266129,240783,253456,377,222000.0
77493,"3139 MADISON ELM ST, KATY, TX 77493",29.819344,-95.78529300000001,2368,5027,222944,201712,212328,2862,172529.0
77493,"1930 AVENUE C, KATY, TX 77493",29.800046000000002,-95.823578,1673,8581,190889,155539,176749,21,80433.0
77493,"24038 SILVERSMITH LN, KATY, TX 77493",29.794998,-95.784347,1219,6299,154901,135723,147525,424,134650.0
77493,"5313 TALLOWPINE TER, KATY, TX 77493",29.812244,-95.810767,1209,5998,165063,140609,152836,-3974,131036.0
77493,"6310 ALICIA WAY LN, KATY, TX 77493",29.811949,-95.829073,2860,7693,322077,291403,306740,-3048,312390.0
77493,"1933 TAMWORTH LN, KATY, TX 77493",29.799914,-95.813637,1395,6194,175051,155045,166715,-14,133258.0
77493,"3257 RACHEL LN, KATY, TX 77493",29.821152,-95.81200799999999,1952,6600,211426,191290,201358,-865,166812.0
77493,"1615 DREXEL DR, KATY, TX 77493",29.795059000000002,-95.816678,1547,11160,193930,175460,184695,-1784,179753.0
77493,"24122 SCRIVENER LN, KATY, TX 77493",29.807216999999998,-95.786524,1368,7205,166204,148956,156796,-2256,126959.0
77493,"24019 SILVERSMITH LN, KATY, TX 77493",29.794584999999998,-95.784661,1284,6599,161363,145995,153679,-1485,136498.0
77493,"3217 BRANT ST, KATY, TX 77493",29.821646,-95.825358,2172,12800,286142,258890,272516,492,269235.0
77493,"24214 EMORY GREEN ST, KATY, TX 77493",29.803631,-95.79014000000001,2251,5985,226185,204643,215414,1145,186671.0
77493,"29119 QUAIL ST, KATY, TX 77493",29.829619,-95.87655,3019,65340,531607,422438,474649,-3454,337170.0
77493,"3257 JAN CT, KATY, TX 77493",29.821178999999997,-95.811154,1312,6680,172575,139327,158326,-4129,147639.0
