zip,address,lat,lng,house area,lot area,high,low,estimate,month value change,property tax
77520,"802 E FAYLE ST, BAYTOWN, TX 77520",29.736024,-94.956911,1098,5001,90447,73180,82225,-1479,54823.0
77520,"707 N CIRCLE DR, BAYTOWN, TX 77520",29.724853000000003,-94.963222,1403,6961,93543,75003,84273,3275,79577.0
77520,"619 BOWIE ST, BAYTOWN, TX 77520",29.719138,-94.977698,1190,10698,120727,93038,110759,1634,73489.0
77520,"1520 YUPON ST, BAYTOWN, TX 77520",29.720846999999996,-94.98130400000001,1328,5001,105840,81785,96218,-1172,29370.0
77520,"301 E FAYLE ST, BAYTOWN, TX 77520",29.737409999999997,-94.96195,1580,10000,161204,131894,146549,-1668,140000.0
77520,"708 FLEETWOOD ST, BAYTOWN, TX 77520",29.739389000000003,-94.975608,2418,8800,175439,158731,167085,2402,140556.0
77520,"2017 UTAH ST, BAYTOWN, TX 77520",29.720969,-95.002284,1716,6299,132403,119793,126098,-434,104987.0
77520,"704 W MURRILL ST, BAYTOWN, TX 77520",29.737475,-94.975894,2245,11200,169786,148963,160175,1143,114000.0
77520,"215 TRAVIS ST, BAYTOWN, TX 77520",29.719789000000002,-94.97343599999999,1468,23435,123707,109569,117816,1330,59045.0
77520,"111 E JAMES ST, BAYTOWN, TX 77520",29.734856,-94.965303,1391,5001,132423,117572,123760,-5922,61948.0
77520,"305 BRIARWOOD DR, BAYTOWN, TX 77520",29.727502,-94.966362,1047,9801,97990,79283,89082,4110,54103.0
77520,"703 N CIRCLE DR, BAYTOWN, TX 77520",29.724870000000003,-94.963196,1314,6961,88435,72433,84224,-274,69509.0
77520,"2109 W HUMBLE ST, BAYTOWN, TX 77520",29.738149,-94.990799,1552,6299,132054,114613,124579,503,85820.0
77520,"1501 KILGORE RD, BAYTOWN, TX 77520",29.735533,-94.936488,3768,279106,528840,416520,468000,6866,310000.0
77520,"3225 NEBRASKA ST, BAYTOWN, TX 77520",29.723384999999997,-95.00708900000001,1348,5502,121390,101158,112398,-5182,42368.0
77520,"1310 N COMMERCE ST, BAYTOWN, TX 77520",29.74264,-94.964753,1800,11251,166540,147863,155645,648,90557.0
77520,"207 SCOTT ST, BAYTOWN, TX 77520",29.743123999999998,-94.968981,1408,8999,127875,101583,119509,1093,75521.0
77520,"509 W HUMBLE ST, BAYTOWN, TX 77520",29.731901,-94.97452,1166,6250,105558,87633,99583,4883,37539.0
77520,"1402 EDISON ST, BAYTOWN, TX 77520",29.727847999999998,-94.98635,1652,18000,132949,119021,126618,-3188,88500.0
77520,"205 E CLEVELAND ST, BAYTOWN, TX 77520",29.723805,-94.96902299999999,1256,10790,114631,98409,108142,13579,64342.0
77520,"601 MIRIAM ST, BAYTOWN, TX 77520",29.723839,-94.977633,984,5001,81358,68283,72641,1455,37425.0
77520,"2201 COLBY DR, BAYTOWN, TX 77520",29.732992,-94.942276,1642,8638,150790,130685,143610,11169,113112.0
77520,"422 ARON ST, BAYTOWN, TX 77520",29.737896999999997,-94.960301,730,10001,117335,82039,95394,-348,88720.0
77520,"500 ALFORD ST, BAYTOWN, TX 77520",29.73828,-94.959241,1145,10000,120939,89055,109945,5142,93630.0
77520,"2018 E JAMES ST, BAYTOWN, TX 77520",29.72914,-94.946189,1636,2256,164315,125653,138080,3617,108932.0
77520,"1401 ADAMS ST, BAYTOWN, TX 77520",29.735477000000003,-94.950266,1587,9750,135152,119995,126310,1851,85978.0
77520,"701 S CIRCLE DR, BAYTOWN, TX 77520",29.723565999999998,-94.964263,1024,6961,90058,79766,85770,185,64418.0
77520,"1206 E FAYLE ST, BAYTOWN, TX 77520",29.734656,-94.952636,846,6660,81463,66916,72735,-445,62384.0
77520,"608 E DEFEE AVE, BAYTOWN, TX 77520",29.730808000000003,-94.961215,1027,5001,99786,81134,93258,-443,43986.0
77520,"1901 AMELIA ST, BAYTOWN, TX 77520",29.716865000000002,-94.981038,1008,16701,103517,82447,91608,2290,48447.0
77520,"38 CHARLES AVE, BAYTOWN, TX 77520",29.726738,-94.956441,2345,6599,183663,137333,165462,-1767,68041.0
77520,"1801 SUPERIOR ST, BAYTOWN, TX 77520",29.736228999999998,-94.988825,1059,6800,122790,111096,116943,193,84687.0
77520,"2106 ALABAMA ST, BAYTOWN, TX 77520",29.719944,-95.001899,947,6299,98359,88054,93675,5950,59690.0
77520,"1003 PATSY DR, BAYTOWN, TX 77520",29.742590000000003,-94.953112,1156,6003,113019,89562,106622,4040,62602.0
77520,"2209 BUCHANAN DR, BAYTOWN, TX 77520",29.736753000000004,-94.94119599999999,1927,6520,179489,162395,170942,3779,140835.0
77520,"710 N CIRCLE DR, BAYTOWN, TX 77520",29.724606,-94.963077,1116,7440,88815,73874,83005,761,57047.0
77520,"512 NEAL ST, BAYTOWN, TX 77520",29.722347999999997,-94.976025,882,10001,84512,69505,78983,6071,31016.0
77520,"102 W GULF ST, BAYTOWN, TX 77520",29.73147,-94.970108,992,5001,98972,79904,90800,1750,39464.0
77520,"506 E STERLING ST, BAYTOWN, TX 77520",29.731817,-94.961945,736,5001,106277,78118,90835,-287,47823.0
77520,"410 N ASHBEL ST, BAYTOWN, TX 77520",29.735452000000002,-94.967929,938,4164,81295,69682,77424,2719,42538.0
77520,"3407 WISCONSIN ST, BAYTOWN, TX 77520",29.729060999999998,-95.00835,1351,5401,97773,78936,89700,6861,45426.0
77520,"1904 W HUMBLE ST, BAYTOWN, TX 77520",29.737801,-94.989552,1138,6299,116365,95014,106757,7736,52865.0
77520,"518 RIGGS ST, BAYTOWN, TX 77520",29.724987,-94.97761,880,7349,90016,75580,84921,1793,42438.0
77520,"1304 DWINNELL ST, BAYTOWN, TX 77520",29.735178,-94.944241,1547,8398,134628,117960,128217,19842,94142.0
77520,"1401 WRIGHT BLVD, BAYTOWN, TX 77520",29.728871,-94.952244,1561,21680,134178,111815,124239,-509,99763.0
77520,"219 W LOBIT ST, BAYTOWN, TX 77520",29.737123999999998,-94.967642,1193,5001,107132,86492,98286,11315,55206.0
77520,"611 W JACK ST, BAYTOWN, TX 77520",29.737969,-94.972413,1762,10498,164697,146226,153922,1973,110856.0
77520,"1807 CLAYTON DR, BAYTOWN, TX 77520",29.741224,-94.94457299999999,1548,9601,165568,149800,157684,3277,134594.0
77520,"509 E HUNNICUTT ST, BAYTOWN, TX 77520",29.736062,-94.960084,942,5001,83910,73521,79914,3192,46730.0
77520,"300 W HUMBLE ST, BAYTOWN, TX 77520",29.73153,-94.97251899999999,864,7501,94471,75747,85109,2912,61733.0
77520,"705 E HUMBLE ST, BAYTOWN, TX 77520",29.727538,-94.961281,1186,6177,116593,95694,109993,8932,51332.0
77520,"1125 S AIRHART DR, BAYTOWN, TX 77520",29.731731,-94.999844,1152,6996,95910,79192,87991,3053,52113.0
77520,"617 BOLSTER ST, BAYTOWN, TX 77520",29.719772,-94.97800699999999,1152,4199,84630,71184,79093,-521,50681.0
77520,"1205 DALE ST, BAYTOWN, TX 77520",29.735051000000002,-94.946375,1354,11949,131805,118127,124344,5977,98956.0
77520,"611 S CIRCLE DR, BAYTOWN, TX 77520",29.72345,-94.965439,1041,6961,90457,80119,86150,-777,71487.0
77520,"2105 NEW MEXICO ST, BAYTOWN, TX 77520",29.718451,-94.998579,1188,6900,114174,87904,101039,2594,53332.0
77520,"215 E STERLING ST, BAYTOWN, TX 77520",29.73256,-94.96507,686,10001,125581,84794,107334,4505,80194.0
77520,"2109 IVIE LEE ST, BAYTOWN, TX 77520",29.743204,-94.942264,1782,8999,166483,150627,158555,-1601,127122.0
77520,"404 CASEY ST, BAYTOWN, TX 77520",29.728415000000002,-94.975026,1715,5001,126297,110660,120283,-685,71742.0
77520,"902 PLEASANT DR, BAYTOWN, TX 77520",29.741477000000003,-94.95379799999999,869,7200,81521,69875,77639,3229,55115.0
77520,"1206 ADAMS ST, BAYTOWN, TX 77520",29.736321999999998,-94.951954,1357,8751,126730,114660,120695,-122,89431.0
77520,"506 LIVE OAK ST, BAYTOWN, TX 77520",29.741864,-94.970128,1500,10001,135696,115592,125644,1349,82913.0
77520,"1001 ROSEWOOD DR, BAYTOWN, TX 77520",29.739902,-94.976955,1623,8803,142420,123431,135638,4117,115094.0
77520,"520 W HUMBLE ST, BAYTOWN, TX 77520",29.732069,-94.974159,1133,5001,99767,82216,92377,3322,60502.0
77520,"1707 FLORIDA ST, BAYTOWN, TX 77520",29.722915000000004,-94.996365,1414,6599,123766,109621,117872,-640,79449.0
77520,"1803 RAINTREE ST, BAYTOWN, TX 77520",29.741448,-94.943697,1588,9600,174759,158115,166437,222,122559.0
77520,"1516 WILLOW ST, BAYTOWN, TX 77520",29.721101,-94.980475,828,5001,71674,64848,68261,1665,20800.0
77520,"1916 AMELIA ST, BAYTOWN, TX 77520",29.717018,-94.980727,784,784,160770,87805,123669,-6559,6219.0
77520,"1245 CHERRY ST, BAYTOWN, TX 77520",29.731672999999997,-95.00415699999999,1064,9997,117217,86098,103732,3620,34089.0
77520,"609 VISTA AVE, BAYTOWN, TX 77520",29.743135,-94.95774300000001,1040,6159,82289,68823,74808,-1811,54777.0
77520,"607 S 7TH ST, BAYTOWN, TX 77520",29.725841,-94.96329399999999,1109,6720,90113,80673,85822,836,65718.0
77520,"1111 MARTIN LUTHER KING ST, BAYTOWN, TX 77520",29.725058,-94.983058,1136,5001,99597,75762,85126,-51,45856.0
77520,"1123 SUNSET DR, BAYTOWN, TX 77520",29.724234000000003,-94.968151,1120,7749,124203,99363,118289,448,92970.0
77520,"1703 RAINTREE ST, BAYTOWN, TX 77520",29.742259999999998,-94.943864,1668,9601,172851,156389,164620,3607,124989.0
77520,"1302 SHERWOOD ST, BAYTOWN, TX 77520",29.734040000000004,-94.94025,1580,7040,164969,147849,155631,14064,115000.0
77520,"301 W MAIN ST, BAYTOWN, TX 77520",29.7215,-94.975,636,4500,88511,64508,75009,241,18093.0
77520,"505 SCOTT ST, BAYTOWN, TX 77520",29.743099,-94.97036700000001,938,5750,80870,69213,72856,2153,51261.0
77520,"3226 OHIO ST, BAYTOWN, TX 77520",29.725488000000002,-95.00672800000001,1028,6752,85463,69636,79132,2193,34221.0
77520,"1606 HARTT ST, BAYTOWN, TX 77520",29.743104,-94.943425,1705,9601,177187,160313,168750,5420,118060.0
77520,"207 E DEFEE AVE, BAYTOWN, TX 77520",29.731909,-94.965438,1190,5001,146062,121942,134002,1099,43568.0
77520,"600 E FAYLE ST, BAYTOWN, TX 77520",29.73664,-94.95874,1449,15002,159989,133809,145445,-6872,125000.0
77520,"1901 MISSISSIPPI ST, BAYTOWN, TX 77520",29.721653000000003,-94.995052,1580,8899,127351,115223,121287,-191,87040.0
77520,"1507 WARD RD, BAYTOWN, TX 77520",29.738567,-94.94752199999999,910,12628,127955,87009,102364,6828,63090.0
77520,"100 HAFER ST, BAYTOWN, TX 77520",29.743398,-94.96273599999999,1654,10001,134673,113474,124697,1447,69922.0
77520,"500 DWINNELL ST, BAYTOWN, TX 77520",29.728994,-94.946226,2670,37788,235167,201572,223969,-1531,208300.0
77520,"501 N PRUETT ST, BAYTOWN, TX 77520",29.737065,-94.97144499999999,2410,17751,193418,149855,174250,-4042,141486.0
77520,"301 E STERLING ST, BAYTOWN, TX 77520",29.732259999999997,-94.964169,1248,5001,134479,104191,121152,3922,63673.0
77520,"905 N 1ST ST, BAYTOWN, TX 77520",29.737685,-94.964355,2198,4369,142756,125412,133417,-804,63783.0
77520,"1308 CYPRESS ST, BAYTOWN, TX 77520",29.728734999999997,-95.00292900000001,1299,4996,83939,72061,79188,632,41685.0
77520,"2107 ONTARIO ST, BAYTOWN, TX 77520",29.739288000000002,-94.989827,1087,6298,107096,82011,96483,7100,47865.0
77520,"900 FORTUNE DR, BAYTOWN, TX 77520",29.741979999999998,-94.954277,1220,6003,119319,107955,113637,700,71244.0
77520,"2017 MARYLAND ST, BAYTOWN, TX 77520",29.721806,-95.003064,1320,10846,125671,101734,119687,60,72753.0
77520,"1117 S AIRHART DR, BAYTOWN, TX 77520",29.731584,-94.99995,1088,3498,86313,74805,82203,305,26540.0
77520,"504 E STERLING ST, BAYTOWN, TX 77520",29.731825,-94.961966,1654,6199,137827,123388,131264,1986,76539.0
77520,"506 HARRISON AVE, BAYTOWN, TX 77520",29.742797999999997,-94.95683100000001,1160,6159,115661,99138,110153,9963,67319.0
77520,"1508 ALABAMA ST, BAYTOWN, TX 77520",29.721414000000003,-94.999633,1400,5998,119475,105821,113786,-1504,71364.0
77520,"319 W NAZRO ST, BAYTOWN, TX 77520",29.724024,-94.974677,672,5001,119827,77032,95101,2720,56896.0
77520,"2012 E JAMES ST, BAYTOWN, TX 77520",29.729153999999998,-94.94623399999999,1732,2256,175300,124593,144876,4887,81100.0
77520,"313 GRAHAM ST, BAYTOWN, TX 77520",29.725344,-94.975302,1008,5001,89720,68091,80107,532,13540.0
77520,"3109 OHIO ST, BAYTOWN, TX 77520",29.725069,-95.005561,1244,6752,113904,97786,107457,-108,53264.0
77520,"514 RUTH ST, BAYTOWN, TX 77520",29.738862,-94.958792,774,5001,83017,71948,79064,5660,51023.0
77520,"907 LINDENWOOD DR, BAYTOWN, TX 77520",29.740624,-94.97761899999999,2058,8799,157005,142053,149529,14365,102134.0
77520,"211 E WRIGHT AVE, BAYTOWN, TX 77520",29.733234000000003,-94.964816,948,5001,98196,77849,88465,-4645,65719.0
77520,"1602 E FAYLE ST, BAYTOWN, TX 77520",29.733224,-94.94831500000001,1490,13600,131327,113816,125073,444,122225.0
77520,"507 W GULF ST, BAYTOWN, TX 77520",29.732553000000003,-94.974232,1314,5001,108256,82669,98415,2264,49300.0
77520,"205 N 4TH ST, BAYTOWN, TX 77520",29.732728,-94.962948,1582,5000,131537,119009,125273,77,63495.0
77520,"402 E HUMBLE ST, BAYTOWN, TX 77520",29.728853000000004,-94.96446800000001,1150,10000,123181,98545,117315,4230,55000.0
77520,"2722 VIRGINIA ST, BAYTOWN, TX 77520",29.726209000000004,-95.002252,1187,6499,123609,101659,115522,2772,35426.0
77520,"1310 E FAYLE ST, BAYTOWN, TX 77520",29.73433,-94.95161800000001,1202,10202,125587,112431,119607,2024,85298.0
77520,"1715 W HUMBLE ST, BAYTOWN, TX 77520",29.736735999999997,-94.987624,900,11509,92371,72577,82474,3813,22056.0
77520,"704 E HUMBLE ST, BAYTOWN, TX 77520",29.727804,-94.961205,1162,6177,142044,115105,122452,5145,49023.0
77520,"1908 CALIFORNIA ST, BAYTOWN, TX 77520",29.719178000000003,-94.999284,1202,6059,119602,102677,112832,699,66577.0
77520,"2102 FLORIDA ST, BAYTOWN, TX 77520",29.720335,-94.999788,1130,8969,121923,101789,111856,3192,88426.0
77520,"106 SCOTT ST, BAYTOWN, TX 77520",29.74345,-94.966792,1032,8851,87202,73914,83050,-175,67023.0
77520,"3117 ILLINOIS ST, BAYTOWN, TX 77520",29.727673,-95.00503,2333,9749,147635,116554,129504,-2929,53232.0
77520,"2106 NEW MEXICO ST, BAYTOWN, TX 77520",29.718690999999996,-94.998734,2852,7410,231855,192522,207013,85,153575.0
77520,"1623 WILLOW ST, BAYTOWN, TX 77520",29.720522999999996,-94.98078000000001,1792,16553,171405,117057,139354,4918,24314.0
77520,"1704 OLIVE ST, BAYTOWN, TX 77520",29.733715999999998,-94.947131,1834,11400,170578,154332,162455,2601,131636.0
77520,"12 E JAMES ST, BAYTOWN, TX 77520",29.735446000000003,-94.966225,1456,5001,135252,117556,126404,3224,63010.0
77520,"1700 CLAYTON DR, BAYTOWN, TX 77520",29.742076,-94.945073,1856,9600,186679,167123,177790,7704,137918.0
77520,"604 ARON ST, BAYTOWN, TX 77520",29.73728,-94.958428,912,7500,117367,81179,97806,3493,85147.0
77520,"3407 ILLINOIS ST, BAYTOWN, TX 77520",29.728216999999997,-95.00895600000001,2512,5201,179393,143837,161615,2498,52404.0
77520,"3229 IOWA ST, BAYTOWN, TX 77520",29.724290999999997,-95.006897,1168,6499,119102,93806,105400,-9604,40634.0
77520,"600 RUTH ST, BAYTOWN, TX 77520",29.738571000000004,-94.957902,1116,5001,85143,68275,80324,1228,58044.0
77520,"209 GRAHAM ST, BAYTOWN, TX 77520",29.725676,-94.974298,870,5001,89871,71564,83214,1681,33813.0
77520,"800 N CIRCLE DR, BAYTOWN, TX 77520",29.724295,-94.963739,1032,6547,89763,80360,85489,1262,64255.0
77520,"502 S CIRCLE DR, BAYTOWN, TX 77520",29.725403000000004,-94.96096999999999,1516,8494,125693,109092,118578,5226,62779.0
77520,"1408 GREENWOOD DR, BAYTOWN, TX 77520",29.735974,-94.939433,1424,8878,139305,118857,127803,7822,115741.0
77520,"1503 MISSISSIPPI ST, BAYTOWN, TX 77520",29.719175,-94.997095,1524,9583,126149,114135,120142,-204,70065.0
77520,"2004 TENNESSEE ST, BAYTOWN, TX 77520",29.722006,-94.996486,1156,6787,116077,98881,107479,7500,67473.0
77520,"1504 COLBY DR, BAYTOWN, TX 77520",29.735438000000002,-94.94780300000001,1174,8712,125989,111591,119990,5530,91476.0
77520,"1304 CYPRESS ST, BAYTOWN, TX 77520",29.728587,-95.003033,1344,4996,116692,95281,107057,719,49656.0
77520,"117 E HUNNICUTT ST, BAYTOWN, TX 77520",29.737403999999998,-94.964109,1456,5001,134091,111534,125319,5231,32953.0
77520,"14 BAYVILLA ST, BAYTOWN, TX 77520",29.743301000000002,-95.027675,2138,9121,186298,152426,169362,-197,89938.0
77520,"810 E FAYLE ST, BAYTOWN, TX 77520",29.735996999999998,-94.956825,1188,10001,120555,92999,114814,4955,75902.0
77520,"903 S PRUETT ST, BAYTOWN, TX 77520",29.727328999999997,-94.975701,1280,10001,113532,86163,101368,3376,52958.0
77520,"610 W JAMES ST, BAYTOWN, TX 77520",29.737514,-94.97308000000001,2362,14000,176235,140988,160214,-2304,123000.0
77520,"306 LIVE OAK ST, BAYTOWN, TX 77520",29.741919,-94.967843,1835,15747,160398,145122,152760,-1279,93254.0
77520,"1010 PATSY DR, BAYTOWN, TX 77520",29.74288,-94.953047,1129,7245,119427,108053,113740,179,84719.0
77520,"115 W MAIN ST, BAYTOWN, TX 77520",29.722053999999996,-94.97333499999999,720,4500,79989,65832,70787,1395,21530.0
77520,"2306 CAMELIA CIR, BAYTOWN, TX 77520",29.731937,-94.941209,1402,8294,156200,129220,142000,159,102403.0
77520,"807 FLEETWOOD ST, BAYTOWN, TX 77520",29.739140000000003,-94.974551,1783,8799,155838,140996,148417,5841,98877.0
77520,"1121 BEECH ST, BAYTOWN, TX 77520",29.731704999999998,-94.999261,984,5249,93755,79133,86014,3586,49168.0
77520,"220 BRIARWOOD DR, BAYTOWN, TX 77520",29.727912,-94.966787,768,7200,106934,69918,82257,-408,62128.0
77520,"3202 IOWA ST, BAYTOWN, TX 77520",29.724621000000003,-95.00724699999999,1419,6752,122374,107223,116547,-275,38425.0
77520,"323 E LOBIT ST, BAYTOWN, TX 77520",29.735434,-94.962541,1064,5001,84520,74860,80495,1958,63252.0
77520,"2003 OREGON ST, BAYTOWN, TX 77520",29.719856,-94.99939300000001,,6900,174969,133451,148279,-1014,22459.0
77520,"309 TRAVIS ST, BAYTOWN, TX 77520",29.719437,-94.974489,852,21201,116208,92129,104692,-721,22188.0
77520,"2011 AMELIA ST, BAYTOWN, TX 77520",29.717854,-94.981071,1117,10019,91104,73224,85144,490,37163.0
77520,"304 N JONES ST, BAYTOWN, TX 77520",29.735460999999997,-94.970277,1376,5001,108919,93359,103732,6220,49568.0
77520,"2004 WASHINGTON ST, BAYTOWN, TX 77520",29.722217999999998,-94.995688,1200,6599,116779,105657,111218,5744,70033.0
77520,"1903 COLBY DR, BAYTOWN, TX 77520",29.734089,-94.945101,2258,11600,192860,174492,183676,1759,110000.0
77520,"901 IDLEWOOD DR, BAYTOWN, TX 77520",29.741375,-94.976548,2133,10341,168549,152497,160523,2692,133140.0
77520,"308 DANIEL ST, BAYTOWN, TX 77520",29.726258,-94.975734,972,5001,86481,71796,81586,5866,42501.0
77520,"312 W HUMBLE ST, BAYTOWN, TX 77520",29.731486999999998,-94.97239300000001,1188,7501,110795,83583,97189,729,60764.0
77520,"2109 NEW YORK ST, BAYTOWN, TX 77520",29.715646999999997,-94.996123,2100,17733,186252,152867,175709,-7847,125704.0
77520,"512 N PRUETT ST, BAYTOWN, TX 77520",29.737033,-94.971121,2059,10001,180122,150102,166780,2365,93818.0
77520,"1219 CYPRESS ST, BAYTOWN, TX 77520",29.730208,-95.00225999999999,882,6996,103136,87568,97298,2625,42951.0
77520,"2417 MISSOURI ST, BAYTOWN, TX 77520",29.721068,-95.004144,2269,18827,552924,241648,409573,9024,602600.0
77520,"606 E STERLING ST, BAYTOWN, TX 77520",29.731467,-94.960938,1366,6700,124713,95300,117654,-1939,69333.0
77520,"421 PEARL ST, BAYTOWN, TX 77520",29.739433000000002,-94.95918,600,5001,82907,71063,78959,5142,41098.0
77520,"401 LIVE OAK ST, BAYTOWN, TX 77520",29.741563,-94.971417,1925,12000,181323,164055,172689,-1025,102148.0
77520,"802 E LOBIT ST, BAYTOWN, TX 77520",29.734032,-94.957764,868,6050,90352,74863,86050,3907,52263.0
77520,"1901 OLIVE ST, BAYTOWN, TX 77520",29.732840999999997,-94.94561800000001,1978,12000,184841,165477,176039,2038,133417.0
77520,"321 N 3RD ST, BAYTOWN, TX 77520",29.733482000000002,-94.963828,1511,5000,153834,132468,142439,1424,108425.0
77520,"1700 E FAYLE ST, BAYTOWN, TX 77520",29.732947999999997,-94.947502,1238,12105,131008,118532,124770,567,99056.0
77520,"1409 E JAMES ST, BAYTOWN, TX 77520",29.730407,-94.95148,1482,21679,145824,121962,132567,-606,136210.0
77520,"806 ROSEWOOD DR, BAYTOWN, TX 77520",29.740139000000003,-94.97438000000001,2668,10603,187082,162604,174843,2306,137431.0
77520,"3402 WISCONSIN ST, BAYTOWN, TX 77520",29.72938,-95.008664,1074,3119,87391,72690,81674,-606,27475.0
77520,"319 E FAYLE ST, BAYTOWN, TX 77520",29.737346999999996,-94.96176,1220,7501,110484,83584,96073,5669,73656.0
77520,"3 ROSELAND DR, BAYTOWN, TX 77520",29.724349,-94.945983,2178,21000,220362,199376,209869,-1586,175663.0
77520,"1403 GREENWOOD DR, BAYTOWN, TX 77520",29.735753999999996,-94.939197,1774,7148,162327,145482,153139,14153,118499.0
77520,"1028 N 1ST ST, BAYTOWN, TX 77520",29.738753000000003,-94.963364,868,5001,80174,69484,76356,4502,46203.0
77520,"1101 S SHEPHERD DR, BAYTOWN, TX 77520",29.729084000000004,-94.95568,1020,7679,119306,107944,113625,-861,58468.0
77520,"1206 OLIVE ST, BAYTOWN, TX 77520",29.735529999999997,-94.952302,884,8751,95771,72453,83279,1428,67378.0
77520,"400 E FAYLE ST, BAYTOWN, TX 77520",29.73733,-94.96082,686,5001,84068,72859,80065,2477,49210.0
77520,"8 EDGEWOOD ST, BAYTOWN, TX 77520",29.725499,-94.946619,2112,21000,210779,190705,200742,-7078,153799.0
77520,"3100 OAKWOOD ST, BAYTOWN, TX 77520",29.731928999999997,-95.00248,336,3498,88895,70476,80086,6757,17500.0
77520,"1503 WRIGHT BLVD, BAYTOWN, TX 77520",29.728589000000003,-94.951278,1590,21680,134714,113509,124735,-1608,124859.0
77520,"311 HARVEY ST, BAYTOWN, TX 77520",29.742365000000003,-94.967812,1300,7876,124053,105328,117031,1299,96057.0
77520,"613 S CIRCLE DR, BAYTOWN, TX 77520",29.723451,-94.965412,1056,6961,91565,78608,86382,243,64862.0
77520,"409 BRIARWOOD DR, BAYTOWN, TX 77520",29.727145,-94.965098,1619,7410,120771,92287,113935,17888,78159.0
77520,"1724 MARKET ST, BAYTOWN, TX 77520",29.732556,-94.984003,1800,191664,196810,153476,180560,3322,432620.0
77520,"1330 WARD RD, BAYTOWN, TX 77520",29.738983,-94.949461,1976,1999,166380,147720,155495,4344,102472.0
77520,"1521 HAWTHORNE ST, BAYTOWN, TX 77520",29.728348999999998,-94.987247,1161,5998,94879,81578,88672,7517,47836.0
77520,"1218 MAGNOLIA ST, BAYTOWN, TX 77520",29.730382000000002,-95.00272700000001,1080,3498,88544,78425,84328,806,34206.0
77520,"2303 E JAMES ST, BAYTOWN, TX 77520",29.728089,-94.943607,2252,21841,235566,213132,224349,208,191393.0
77520,"801 BARRYMORE BLVD, BAYTOWN, TX 77520",29.726948999999998,-94.98649,1639,8999,120426,97435,109478,8007,53491.0
77520,"101 WOODSIDE DR, BAYTOWN, TX 77520",29.725953000000004,-94.953774,2711,21000,244763,221453,233108,161,221696.0
77520,"104 W LOBIT ST, BAYTOWN, TX 77520",29.737275,-94.967226,1100,2500,92489,79523,86438,-1155,41966.0
77520,"704 E LOBIT ST, BAYTOWN, TX 77520",29.734394,-94.958775,1214,6050,91772,80410,87402,-193,63164.0
77520,"322 E JAMES ST, BAYTOWN, TX 77520",29.73443,-94.963128,986,5001,84648,74974,80617,872,30216.0
77520,"1418 E JAMES ST, BAYTOWN, TX 77520",29.730428999999997,-94.950591,2950,127038,449917,351251,394664,-5259,318186.0
77520,"1200 OLIVE ST, BAYTOWN, TX 77520",29.73555,-94.952359,1524,8751,128393,116165,122279,1149,81232.0
77520,"11 E TEXAS AVE, BAYTOWN, TX 77520",29.731852000000003,-94.967556,683,683,65377,57359,61676,-4468,46630.0
77520,"1001 LINDENWOOD DR, BAYTOWN, TX 77520",29.740603000000004,-94.97653000000001,2392,8803,168766,152694,160730,2263,131385.0
77520,"1716 MARYLAND ST, BAYTOWN, TX 77520",29.723502000000003,-94.999849,1757,13290,135783,115667,125725,2182,80328.0
77520,"407 W ADOUE ST, BAYTOWN, TX 77520",29.738536,-94.969702,880,5602,81101,69515,77239,5703,34301.0
77520,"1703 OLIVE ST, BAYTOWN, TX 77520",29.733465999999996,-94.94726,1554,11500,137658,123237,131103,4132,115023.0
77520,"1510 E JAMES ST, BAYTOWN, TX 77520",29.730168,-94.949725,2652,82106,338921,221948,299930,10033,256772.0
77520,"204 BOLSTER ST, BAYTOWN, TX 77520",29.721314000000003,-94.974199,784,5001,72557,65028,68450,1717,24733.0
77520,"22 CHARLES AVE, BAYTOWN, TX 77520",29.727453000000004,-94.95617,1948,6599,180134,129327,153961,-1513,59065.0
77520,"1207 ADAMS ST, BAYTOWN, TX 77520",29.736061,-94.95205,1692,8751,151740,128074,139211,325,103600.0
77520,"1605 RICHARDSON LN, BAYTOWN, TX 77520",29.742341999999997,-94.948678,1648,10001,153298,137238,145998,12303,110561.0
77520,"404 E HUMBLE ST, BAYTOWN, TX 77520",29.728846,-94.96444699999999,1468,5001,124128,95053,111827,1337,50506.0
77520,"1120 N 4TH ST, BAYTOWN, TX 77520",29.738190000000003,-94.960255,1008,10001,116559,81209,95540,2064,76895.0
77520,"2308 MISSOURI ST, BAYTOWN, TX 77520",29.720972999999997,-95.003128,3145,8250,267072,216545,240605,-836,148520.0
77520,"1509 GREENWOOD DR, BAYTOWN, TX 77520",29.736603999999996,-94.93882099999999,1639,6821,148052,128312,141002,10738,120712.0
77520,"1102 N SHEPHERD DR, BAYTOWN, TX 77520",29.731196999999998,-94.956299,1502,8359,143728,128671,136884,1531,114363.0
77520,"715 DENBY ST, BAYTOWN, TX 77520",29.728343,-94.97846,1200,9405,101655,87270,95901,4581,66618.0
77520,"2006 IVIE LEE ST, BAYTOWN, TX 77520",29.743323999999998,-94.943253,1942,9074,189150,171136,180143,-159,140097.0
77520,"1205 BAYLESS ST, BAYTOWN, TX 77520",29.724641,-94.978154,1014,7000,90659,73713,84728,3137,59685.0
77520,"110 DYER ST, BAYTOWN, TX 77520",29.742719,-94.96257299999999,1644,10000,156148,129177,141953,228,87695.0
77520,"206 W GULF ST, BAYTOWN, TX 77520",29.731818,-94.971126,1088,,156808,96889,127486,-504,11774.0
77520,"1800 WOODLAWN ST, BAYTOWN, TX 77520",29.731753,-94.94705400000001,2630,13499,221155,194286,206687,877,183695.0
77520,"702 E GULF ST, BAYTOWN, TX 77520",29.728490999999998,-94.96117,1335,6499,133204,115937,123337,343,54783.0
77520,"113 WARD RD, BAYTOWN, TX 77520",29.742353,-94.962564,1044,6499,99287,79957,87865,-1392,69314.0
77520,"221 GRAHAM ST, BAYTOWN, TX 77520",29.725717,-94.974172,1082,5001,90741,79613,85605,2279,29506.0
77520,"3230 NEBRASKA ST, BAYTOWN, TX 77520",29.723645,-95.006956,1876,6499,179287,138608,150661,-2518,80272.0
77520,"302 TRAVIS ST, BAYTOWN, TX 77520",29.719677,-94.97465,744,5000,72129,64644,68046,1060,35009.0
77520,"2003 NEW MEXICO ST, BAYTOWN, TX 77520",29.718854999999998,-94.997939,1821,8281,133967,106208,120691,985,58691.0
77520,"603 N CIRCLE DR, BAYTOWN, TX 77520",29.725306,-94.962603,1117,7270,92853,77378,85975,-82,67628.0
77520,"320 MIRIAM ST, BAYTOWN, TX 77520",29.72496,-94.975042,1320,5001,93274,80837,88832,1953,37487.0
77520,"1813 CALIFORNIA ST, BAYTOWN, TX 77520",29.718497999999997,-94.998861,1154,6599,124518,101671,114237,1052,70000.0
77520,"2117 LOUISIANA ST, BAYTOWN, TX 77520",29.722286999999998,-95.003823,1352,8699,133034,105468,119850,2937,48369.0
77520,"905 LINDENWOOD DR, BAYTOWN, TX 77520",29.740627000000003,-94.977641,1749,8803,154266,139574,146920,10880,104972.0
77520,"1903 MCFARLAND ST, BAYTOWN, TX 77520",29.740049,-94.94627,2290,10000,194798,174583,183772,735,156477.0
77520,"2006 ONTARIO ST, BAYTOWN, TX 77520",29.738637,-94.988021,840,6299,87631,75947,83458,3168,39728.0
77520,"714 MIRIAM ST, BAYTOWN, TX 77520",29.723947999999996,-94.9782,840,4848,72264,65382,68823,1359,16757.0
77520,"2100 IVIE LEE ST, BAYTOWN, TX 77520",29.743456,-94.94244300000001,2304,9075,195777,175267,186454,-950,167310.0
77520,"507 E WRIGHT AVE, BAYTOWN, TX 77520",29.732219,-94.96175600000001,1723,5001,142051,124793,132758,1714,48969.0
77520,"1905 OAK SHADOWS ST, BAYTOWN, TX 77520",29.725154999999997,-94.94941700000001,2420,10864,210641,183336,195038,-3795,176463.0
77520,"1903 HAPPY VALLEY DR, BAYTOWN, TX 77520",29.743354999999998,-94.940095,2100,8250,185120,167490,176305,-3247,145706.0
77520,"404 ARON ST, BAYTOWN, TX 77520",29.737957,-94.96049000000001,779,5001,83291,72186,79325,5460,48853.0
77520,"108 E STERLING ST, BAYTOWN, TX 77520",29.733182,-94.966066,1008,5001,111653,89942,103382,3390,49767.0
77520,"323 E JAMES ST, BAYTOWN, TX 77520",29.734169,-94.963228,588,5001,122736,92052,113644,1906,29358.0
77520,"1108 S AIRHART DR, BAYTOWN, TX 77520",29.731596999999997,-95.000312,640,3498,75790,66667,70176,1410,21723.0
77520,"1907 MISSISSIPPI ST, BAYTOWN, TX 77520",29.721707000000002,-94.995046,1358,7780,117964,96119,109226,503,63498.0
77520,"314 HARVEY ST, BAYTOWN, TX 77520",29.74264,-94.967774,1723,13438,151309,134017,144104,3074,102825.0
77520,"14 E JACK ST, BAYTOWN, TX 77520",29.736084,-94.965919,1034,5000,83058,71984,79103,1917,46645.0
77520,"301 EDGEWOOD ST, BAYTOWN, TX 77520",29.723522999999997,-94.948273,2021,21000,209025,189117,199071,-3009,170715.0
77520,"2302 OLIVE CIR, BAYTOWN, TX 77520",29.731328,-94.941653,1461,7562,169840,149396,157259,3617,113179.0
77520,"2202 BUCHANAN DR, BAYTOWN, TX 77520",29.736743,-94.94006,1628,6930,172089,154060,163894,13641,113999.0
77520,"1406 GREENWOOD DR, BAYTOWN, TX 77520",29.735941999999998,-94.939448,1509,8843,143463,122011,134078,11754,115724.0
77520,"2002 IVIE LEE ST, BAYTOWN, TX 77520",29.743318,-94.943288,3007,10180,264613,232761,245012,910,215959.0
77520,"16 COOK DR, BAYTOWN, TX 77520",29.726779999999998,-94.95558100000001,1948,6821,175174,129075,153661,-1659,59094.0
77520,"8 E WRIGHT AVE, BAYTOWN, TX 77520",29.734188,-94.966844,576,5000,97166,0,48583,-40780,39003.0
77520,"1201 PARKWAY ST, BAYTOWN, TX 77520",29.723567,-94.968475,1528,12589,129281,109949,120823,1588,66567.0
77520,"803 IDLEWOOD DR, BAYTOWN, TX 77520",29.741389,-94.974187,2016,8803,186231,154064,169301,-113,164725.0
77520,"3226 INDIANA ST, BAYTOWN, TX 77520",29.726285999999998,-95.005478,966,5750,89112,71126,81754,3118,32201.0
77520,"1602 WRIGHT BLVD, BAYTOWN, TX 77520",29.728571999999996,-94.950231,1107,21679,126474,101418,119315,-469,113623.0
77520,"1215 MARTIN LUTHER KING ST, BAYTOWN, TX 77520",29.724287,-94.983379,1092,5001,89511,76724,85249,1986,27909.0
77520,"1804 W HUMBLE ST, BAYTOWN, TX 77520",29.738204,-94.99029499999999,1644,9710,133031,104006,120937,2642,58822.0
77520,"1309 E FAYLE ST, BAYTOWN, TX 77520",29.734082,-94.951753,1539,13499,133540,119682,125981,-471,75120.0
77520,"2106 TAFT DR, BAYTOWN, TX 77520",29.738615000000003,-94.94240400000001,1876,6538,181873,164551,173212,4732,114347.0
77520,"2008 E JAMES ST, BAYTOWN, TX 77520",29.729163,-94.946264,1732,2914,171444,135031,151720,4669,111142.0
77520,"1900 ALABAMA ST, BAYTOWN, TX 77520",29.723342,-94.99667,1327,6000,119558,103768,112791,-3812,65681.0
77520,"1201 E FAYLE ST, BAYTOWN, TX 77520",29.734412,-94.952786,1466,13359,135354,106793,124178,-2418,130571.0
77520,"501 S 7TH ST, BAYTOWN, TX 77520",29.726268,-94.962861,1080,6721,89213,77318,84965,602,58516.0
77520,"1100 N SHEPHERD DR, BAYTOWN, TX 77520",29.731188,-94.956271,1432,8359,141452,126633,134716,810,111937.0
77520,"2217 NEW YORK ST, BAYTOWN, TX 77520",29.716396000000003,-94.995426,2946,11831,224194,199051,209527,-635,126305.0
77520,"1403 ADAMS ST, BAYTOWN, TX 77520",29.735471,-94.950248,1604,9749,132397,118658,124903,1429,78896.0
77520,"901 SUNSET DR, BAYTOWN, TX 77520",29.726827,-94.967342,1112,7200,86777,69421,78888,-180,53281.0
77520,"1901 HARTT ST, BAYTOWN, TX 77520",29.740788000000002,-94.942628,1840,9601,190980,172792,181886,-113,148912.0
77520,"2103 PINEMONT ST, BAYTOWN, TX 77520",29.742407,-94.942226,2011,9121,186059,168339,177199,-1930,145025.0
77520,"1123 S AIRHART DR, BAYTOWN, TX 77520",29.731694,-94.999871,1320,6996,109763,80622,97135,-402,37680.0
77520,"1915 HILL ST, BAYTOWN, TX 77520",29.723090000000003,-94.993323,1684,10572,128724,115238,122594,388,45158.0
77520,"101 E PEARCE ST, BAYTOWN, TX 77520",29.730890000000002,-94.96705,1200,7501,145925,119044,128004,2459,78221.0
77520,"1506 MISSISSIPPI ST, BAYTOWN, TX 77520",29.719012,-94.996841,1516,7701,126143,114129,120136,-147,73579.0
77520,"2100 E TEXAS AVE, BAYTOWN, TX 77520",29.725752000000004,-94.946685,2030,21680,197857,174041,183201,-872,97553.0
77520,"905 S CIRCLE DR, BAYTOWN, TX 77520",29.724715999999997,-94.961978,1024,9757,102850,72175,90219,6970,66946.0
77520,"2004 LEE DR, BAYTOWN, TX 77520",29.718161,-94.979614,1208,12907,101547,79591,91484,1065,56578.0
77520,"910 N COMMERCE ST, BAYTOWN, TX 77520",29.738221999999997,-94.965836,972,5001,127529,98279,116999,-314,74131.0
77520,"103 BOWIE ST, BAYTOWN, TX 77520",29.720737,-94.97283,924,5001,88897,69676,80087,5528,31024.0
77520,"1504 WOODLAWN ST, BAYTOWN, TX 77520",29.732296,-94.94841600000001,1652,13499,138329,123837,131742,921,113998.0
77520,"1200 DUKE ST, BAYTOWN, TX 77520",29.724827,-94.976236,952,7126,89226,77329,84977,2230,37809.0
77520,"704 N JONES ST, BAYTOWN, TX 77520",29.737815,-94.969286,1232,7501,120811,107004,115058,16271,52432.0
77520,"1404 YUPON ST, BAYTOWN, TX 77520",29.723363,-94.981367,1008,5001,98380,68866,81983,591,23775.0
77520,"401 E LOBIT ST, BAYTOWN, TX 77520",29.73517,-94.96175,1060,5001,84539,73267,80513,1510,56383.0
77520,"601 N 7TH ST, BAYTOWN, TX 77520",29.733760999999998,-94.959246,948,17407,139367,94134,122252,-4835,112813.0
77520,"2008 MARYLAND ST, BAYTOWN, TX 77520",29.721539,-95.00295,1148,6247,114337,97240,106857,834,66531.0
77520,"1805 ALABAMA ST, BAYTOWN, TX 77520",29.7231,-94.997568,1004,5998,96638,83753,92036,8119,55475.0
77520,"301 E HUNNICUTT ST, BAYTOWN, TX 77520",29.73678,-94.96221,1068,5001,83104,72024,79147,1574,47035.0
77520,"1011 PATSY DR, BAYTOWN, TX 77520",29.742609,-94.952997,1562,8250,141422,125260,134688,2081,73925.0
77520,"315 MIRIAM ST, BAYTOWN, TX 77520",29.724678000000004,-94.97501,1596,5001,108262,86804,97533,5759,61408.0
77520,"1309 PINE ST, BAYTOWN, TX 77520",29.730029,-95.004312,1316,4996,99979,81464,92573,-2428,45844.0
77520,"512 RIGGS ST, BAYTOWN, TX 77520",29.725007,-94.976737,904,7401,88993,76400,83956,3812,26160.0
77520,"1118 PARKWAY ST, BAYTOWN, TX 77520",29.725396999999997,-94.965695,2475,8982,163160,131673,143123,-10948,96323.0
77520,"1602 SHERIDAN DR, BAYTOWN, TX 77520",29.736237,-94.946589,1216,7840,128739,116479,122609,6798,90297.0
77520,"802 W MURRILL ST, BAYTOWN, TX 77520",29.73697,-94.97434100000001,1811,14952,166997,139164,154627,-1852,128950.0
77520,"3219 IOWA ST, BAYTOWN, TX 77520",29.724314,-95.007049,958,6499,95496,76397,86815,1032,36804.0
77520,"903 FLEETWOOD ST, BAYTOWN, TX 77520",29.739114,-94.978651,2048,8803,155764,140930,148347,11754,104579.0
77520,"14 DYER ST, BAYTOWN, TX 77520",29.742743,-94.963539,1573,8725,121903,99536,111838,2149,46878.0
77520,"1613 HAWTHORNE ST, BAYTOWN, TX 77520",29.728316999999997,-94.988422,1793,11996,126507,97864,119346,-471,59043.0
77520,"1300 N FELTON ST, BAYTOWN, TX 77520",29.743053000000003,-94.972803,1968,10171,170045,153851,161948,504,140198.0
77520,"1006 PATSY DR, BAYTOWN, TX 77520",29.742871,-94.95310500000001,986,7370,86115,70965,79736,1601,64455.0
77520,"1213 WILLOW ST, BAYTOWN, TX 77520",29.724192,-94.980813,952,5001,75951,67353,71652,1009,22794.0
77520,"2001 OAK SHADOWS ST, BAYTOWN, TX 77520",29.724769000000002,-94.94837700000001,2012,21000,218405,193445,208005,-1314,192904.0
77520,"501 NEAL ST, BAYTOWN, TX 77520",29.72206,-94.97601,1152,5001,93841,80808,86890,1802,43394.0
77520,"21 MIRIAM ST, BAYTOWN, TX 77520",29.725501,-94.97203499999999,1047,5001,89175,77285,84929,2010,48802.0
77520,"1113 SUNSET DR, BAYTOWN, TX 77520",29.724414000000003,-94.96817800000001,768,4970,83051,71186,79096,2835,36249.0
77520,"1200 BAYLESS ST, BAYTOWN, TX 77520",29.724887,-94.977926,1810,10001,173767,155562,165492,3140,147697.0
77520,"2003 BRITTON ST, BAYTOWN, TX 77520",29.719292,-94.99585,1750,12197,137735,117329,127532,1185,85820.0
77520,"803 PEGGY ST, BAYTOWN, TX 77520",29.738909999999997,-94.95535799999999,928,4391,82899,71056,78951,5792,46919.0
77520,"1906 VERMONT ST, BAYTOWN, TX 77520",29.720924,-94.996443,988,6477,100751,88277,95953,6130,56782.0
77520,"519 W PEARCE ST, BAYTOWN, TX 77520",29.733024,-94.973382,1290,5001,129903,115335,121405,-323,83153.0
77520,"806 BOLSTER ST, BAYTOWN, TX 77520",29.719499,-94.979946,1576,6610,150851,130738,143668,796,113774.0
77520,"112 E FAYLE ST, BAYTOWN, TX 77520",29.738297999999997,-94.963755,936,5001,80660,69905,76819,2612,49412.0
77520,"501 ARON ST, BAYTOWN, TX 77520",29.737379999999998,-94.9596,1568,10001,135556,118773,129101,3225,95005.0
77520,"1308 JEFFERSON ST, BAYTOWN, TX 77520",29.736553999999998,-94.949832,1124,7875,122184,110548,116366,-15,73657.0
77520,"414 BOLSTER ST, BAYTOWN, TX 77520",29.720686999999998,-94.976107,792,4199,77532,65658,69849,1317,25000.0
77520,"1601 W HUMBLE ST, BAYTOWN, TX 77520",29.736283,-94.98678199999999,952,5210,79156,67033,71312,1072,17752.0
77520,"1403 E JAMES ST, BAYTOWN, TX 77520",29.730426,-94.951543,1436,21680,131568,107985,124121,-1490,115250.0
77520,"706 E FAYLE ST, BAYTOWN, TX 77520",29.736358000000003,-94.95789599999999,1258,5001,122008,104578,116198,6786,61743.0
77520,"715 E GULF ST, BAYTOWN, TX 77520",29.727809000000004,-94.95985,1404,6177,129589,109191,119990,585,73081.0
77520,"529 STIMPSON ST, BAYTOWN, TX 77520",29.727418,-94.976481,1360,8712,124870,624,62435,128,55649.0
77520,"2107 CEDAR BRAKE ST, BAYTOWN, TX 77520",29.741623999999998,-94.942013,1888,9239,193382,173314,182436,-420,144433.0
77520,"1706 CHILTON DR, BAYTOWN, TX 77520",29.735509000000004,-94.946374,1471,7854,134360,120284,127962,12021,97893.0
77520,"405 E HUMBLE ST, BAYTOWN, TX 77520",29.728586,-94.964549,1490,7126,124468,107872,118541,581,73521.0
77520,"1504 IVIE LEE ST, BAYTOWN, TX 77520",29.742490000000004,-94.948877,1484,10642,139126,124551,132501,5463,106140.0
77520,"1708 NARCILLE ST, BAYTOWN, TX 77520",29.741002,-94.942105,1692,8028,183855,166345,175100,13621,129233.0
77520,"501 W HUMBLE ST, BAYTOWN, TX 77520",29.731961,-94.974692,2202,7501,172744,153371,161443,126,115989.0
77520,"3122 NEBRASKA ST, BAYTOWN, TX 77520",29.72346,-95.005661,1139,6499,102858,79692,92665,-827,35843.0
77520,"900 PARKWAY ST, BAYTOWN, TX 77520",29.724293,-94.966985,1625,9234,129030,109369,122886,12600,71752.0
77520,"502 N CIRCLE DR, BAYTOWN, TX 77520",29.725720000000003,-94.961805,1008,6839,91499,79527,85513,554,56855.0
77520,"1328 TOWN CIR, BAYTOWN, TX 77520",29.740045000000002,-94.94998199999999,1278,1872,109199,79242,96636,1952,78947.0
77520,"1702 IVIE LEE ST, BAYTOWN, TX 77520",29.742955,-94.946065,2338,10875,194788,176236,185512,1073,125620.0
77520,"1906 CHESAPEAKE ST, BAYTOWN, TX 77520",29.73603,-94.990863,1800,5998,138043,107230,123253,2894,65000.0
77520,"1606 E TEXAS AVE, BAYTOWN, TX 77520",29.727220000000003,-94.95155600000001,1926,21680,181035,149186,167625,-3032,95187.0
77520,"412 E LOBIT ST, BAYTOWN, TX 77520",29.735389,-94.961524,1836,5001,138449,121469,130612,4128,73204.0
77520,"422 RUTH ST, BAYTOWN, TX 77520",29.739048999999998,-94.959342,884,3498,82962,71110,79011,5327,48884.0
77520,"601 W JAMES ST, BAYTOWN, TX 77520",29.737283,-94.973264,1374,10497,140723,118776,129104,1514,102761.0
77520,"2410 MISSOURI ST, BAYTOWN, TX 77520",29.721303999999996,-95.003967,1269,10019,126403,114365,120384,280,65554.0
77520,"1805 OLIVE ST, BAYTOWN, TX 77520",29.733144,-94.946414,1701,12001,148177,127209,139790,4955,119993.0
77520,"1208 DWINNELL ST, BAYTOWN, TX 77520",29.734039000000003,-94.94442,1672,8398,189559,169888,178829,76384,109571.0
77520,"1804 BAYLESS ST, BAYTOWN, TX 77520",29.720565,-94.976055,2750,17097,235317,191969,206418,-2693,118208.0
77520,"221 S 2ND ST, BAYTOWN, TX 77520",29.729607,-94.966705,1052,5001,100086,86867,94421,2295,40487.0
77520,"1701 WOODLAWN ST, BAYTOWN, TX 77520",29.731854,-94.94798399999999,3102,32900,252146,228132,240139,2975,219231.0
77520,"521 STIMPSON ST, BAYTOWN, TX 77520",29.727411,-94.976966,880,8712,86026,73737,81930,3313,37457.0
77520,"104 MERRILANE ST, BAYTOWN, TX 77520",29.725224,-94.949272,1986,19225,206128,184737,194460,-2169,166351.0
77520,"901 S MAIN ST, BAYTOWN, TX 77520",29.726271,-94.970586,2070,4321,172162,135597,152356,-1296,55116.0
77520,"3109 INDIANA ST, BAYTOWN, TX 77520",29.725998999999998,-95.005402,1300,6752,109513,87410,100471,7942,43301.0
77520,"1900 W TEXAS AVE, BAYTOWN, TX 77520",29.73955,-94.988116,2302,217800,221657,185713,199691,5685,1693165.0
77520,"1308 MONROE ST, BAYTOWN, TX 77520",29.738129999999998,-94.94914,1400,5440,130468,118042,124255,458,91374.0
77520,"318 E ADOUE ST, BAYTOWN, TX 77520",29.736338,-94.962194,960,5001,83877,73492,79883,3059,50867.0
77520,"305 SCOTT ST, BAYTOWN, TX 77520",29.743149,-94.967922,1330,8999,125083,108406,119127,1527,79374.0
77520,"2629 W MAIN ST, BAYTOWN, TX 77520",29.726423999999998,-95.00155500000001,1217,5998,108709,87356,97062,10285,56631.0
77520,"2000 OLIVE ST, BAYTOWN, TX 77520",29.732787,-94.944692,2001,11400,190496,172354,181425,1821,132933.0
77520,"1905 MISSISSIPPI ST, BAYTOWN, TX 77520",29.721689,-94.995048,1064,8516,96573,78303,87003,4262,50116.0
77520,"2020 NEW JERSEY ST, BAYTOWN, TX 77520",29.7235,-95.004002,1122,5001,98668,80728,89698,-2054,45432.0
77520,"1720 UTAH ST, BAYTOWN, TX 77520",29.723435,-94.997927,929,5998,103394,86320,94857,3548,74381.0
77520,"110 E ADOUE ST, BAYTOWN, TX 77520",29.737056,-94.964354,936,5001,81681,70790,77791,3392,52072.0
77520,"313 BOLSTER ST, BAYTOWN, TX 77520",29.72075,-94.975027,1132,9997,120672,94973,111733,5167,86956.0
77520,"1108 BEECH ST, BAYTOWN, TX 77520",29.731008000000003,-94.99939300000001,1805,7000,142733,121389,133395,-393,87872.0
77520,"310 E LOBIT ST, BAYTOWN, TX 77520",29.735735,-94.96256600000001,960,5001,83450,72323,79476,3302,53136.0
77520,"3208 ILLINOIS ST, BAYTOWN, TX 77520",29.728169,-95.00655,827,6499,93416,75419,85703,2676,30340.0
77520,"2106 OLIVE ST, BAYTOWN, TX 77520",29.732251,-94.943341,1250,10372,132727,120087,126407,341,104884.0
77520,"1501 E TEXAS AVE, BAYTOWN, TX 77520",29.727289000000003,-94.952765,2515,21000,245155,221807,233481,37,190518.0
77520,"306 E HUMBLE ST, BAYTOWN, TX 77520",29.729189,-94.965466,864,5001,87865,75548,82117,3009,32829.0
77520,"1319 PINE ST, BAYTOWN, TX 77520",29.730390000000003,-95.00405500000001,892,4996,79960,68645,75434,1252,28000.0
77520,"1709 COLBY DR, BAYTOWN, TX 77520",29.734687,-94.94664399999999,1568,7680,137814,123376,131251,6937,98456.0
77520,"605 E WRIGHT AVE, BAYTOWN, TX 77520",29.731890000000003,-94.96076,1500,5001,130384,111758,124175,40,52631.0
77520,"802 N FELTON ST, BAYTOWN, TX 77520",29.74002,-94.973072,2523,10367,175927,159173,167550,18,129806.0
77520,"3410 WISCONSIN ST, BAYTOWN, TX 77520",29.729305,-95.008114,655,5401,86675,76770,82548,742,47868.0
77520,"1305 MAGNOLIA ST, BAYTOWN, TX 77520",29.729296,-95.00386999999999,1026,3498,114522,97236,108040,-51,92090.0
77520,"1103 S 7TH ST, BAYTOWN, TX 77520",29.723851,-94.966544,1411,8255,147910,129598,140867,2610,137974.0
77520,"2101 E FAYLE ST, BAYTOWN, TX 77520",29.731336,-94.944215,1501,15699,147025,125443,134885,2801,88429.0
77520,"1222 PINE ST, BAYTOWN, TX 77520",29.730819,-95.003378,800,3498,79177,67337,73997,1163,25677.0
77520,"1901 SHERIDAN DR, BAYTOWN, TX 77520",29.735970000000002,-94.944609,1613,10115,152992,134229,144332,23873,109894.0
77520,"201 ROSELAND DR, BAYTOWN, TX 77520",29.722890000000003,-94.947109,2148,21000,217664,196934,207299,-8046,150000.0
77520,"1401 BARRYMORE BLVD, BAYTOWN, TX 77520",29.725108000000002,-94.98648299999999,1384,78408,280446,175873,237666,19588,169610.0
77520,"1017 SUNSET DR, BAYTOWN, TX 77520",29.725656,-94.967776,864,7200,85956,74495,81863,1337,54127.0
77520,"1806 FLORIDA ST, BAYTOWN, TX 77520",29.722215000000002,-94.996923,1234,8507,121389,106360,115609,1152,78284.0
77520,"1603 E FAYLE ST, BAYTOWN, TX 77520",29.732964000000003,-94.94841600000001,1818,13499,145234,125063,134476,998,119804.0
77520,"507 PEGGY ST, BAYTOWN, TX 77520",29.739919,-94.958414,1311,5001,113488,84860,102241,9783,56844.0
77520,"1217 ASH ST, BAYTOWN, TX 77520",29.724505999999998,-94.980024,888,5001,72850,65912,69381,187,23783.0
77520,"904 POLLY ST, BAYTOWN, TX 77520",29.736909999999998,-94.97675799999999,2121,11731,170193,149122,162089,2642,115760.0
77520,"506 HARVEY ST, BAYTOWN, TX 77520",29.742599,-94.970226,1505,5749,171568,146613,155971,4536,15225.0
77520,"1600 SHERIDAN DR, BAYTOWN, TX 77520",29.736237,-94.946619,1583,7919,137236,124166,130701,8048,94314.0
77520,"1706 N 5TH ST, BAYTOWN, TX 77520",29.741224,-94.95787,1356,6251,126968,113667,120922,2638,79728.0
77520,"205 LIVE OAK ST, BAYTOWN, TX 77520",29.741614000000002,-94.968952,1190,10875,119939,84785,103396,5902,68565.0
77520,"407 1/2 N JONES ST, BAYTOWN, TX 77520",29.736010999999998,-94.97036999999999,1200,5066,116607,90809,103192,4200,44998.0
77520,"321 E LOBIT ST, BAYTOWN, TX 77520",29.735440999999998,-94.962562,1175,5001,107192,76440,87862,2631,77611.0
77520,"207 W TEXAS AVE, BAYTOWN, TX 77520",29.732878999999997,-94.970647,1344,6003,106751,88143,97937,8796,65374.0
77520,"113 E WRIGHT AVE, BAYTOWN, TX 77520",29.733559000000003,-94.96583000000001,1807,15002,178001,146974,163304,-9160,117868.0
77520,"1903 SUPERIOR ST, BAYTOWN, TX 77520",29.736620000000002,-94.989544,1062,5998,127735,109660,120505,440,98965.0
77520,"203 MIRIAM ST, BAYTOWN, TX 77520",29.724977000000003,-94.974078,672,10001,83832,68946,78348,6083,26658.0
77520,"2212 NEW JERSEY ST, BAYTOWN, TX 77520",29.724228000000004,-95.002871,812,5001,87679,74319,83504,3363,32696.0
77520,"1315 BURBANK ST, BAYTOWN, TX 77520",29.726796000000004,-94.98505899999999,758,6717,78861,66844,75106,5714,31614.0
77520,"512 BOLSTER ST, BAYTOWN, TX 77520",29.720342,-94.977137,1381,4199,114106,89654,101880,1306,63191.0
77520,"1907 FLORIDA ST, BAYTOWN, TX 77520",29.721015,-94.999286,1160,6599,116138,99547,110608,7166,72603.0
77520,"1905 MCFARLAND ST, BAYTOWN, TX 77520",29.740031,-94.94626600000001,1472,10001,151879,137415,144647,8222,125959.0
77520,"2000 WRIGHT BLVD, BAYTOWN, TX 77520",29.727473,-94.94646999999999,1212,21680,132658,105883,121705,609,70934.0
77520,"715 N ASHBEL ST, BAYTOWN, TX 77520",29.737443,-94.967398,1128,5001,120929,100586,113018,5031,86047.0
77520,"1200 WILLOW ST, BAYTOWN, TX 77520",29.724090999999998,-94.98049300000001,912,5001,88291,67977,78134,2255,21101.0
77520,"1721 AMELIA ST, BAYTOWN, TX 77520",29.718718,-94.981101,888,13978,90951,72424,84214,2877,52878.0
77520,"1000 E HUNNICUTT ST, BAYTOWN, TX 77520",29.734440000000003,-94.95442,864,9152,84239,69281,78728,4414,49666.0
77520,"1507 WOODLAWN ST, BAYTOWN, TX 77520",29.732033,-94.94850699999999,1675,35802,182974,154437,167866,-1867,169898.0
77520,"1900 WRIGHT BLVD, BAYTOWN, TX 77520",29.727749,-94.947415,1600,21680,149969,123827,137586,2721,123977.0
77520,"308 W JAMES ST, BAYTOWN, TX 77520",29.736672,-94.969872,2112,5001,174803,140771,154693,-271,43000.0
77520,"2301 WRIGHT BLVD, BAYTOWN, TX 77520",29.726436,-94.944068,1092,21240,130865,100289,122304,-859,77546.0
77520,"1111 N MAIN ST, BAYTOWN, TX 77520",29.740190000000002,-94.964427,3372,20682,363615,304114,330559,-980,274000.0
77520,"204 W HUMBLE ST, BAYTOWN, TX 77520",29.731167,-94.97145,1224,7100,116780,98226,109140,5658,59907.0
77520,"2312 BUCHANAN DR, BAYTOWN, TX 77520",29.736790999999997,-94.939486,962,963,61362,53258,57889,1813,46760.0
77520,"1300 DWINNELL ST, BAYTOWN, TX 77520",29.735138,-94.944247,1544,9239,141892,125676,135135,19910,104531.0
77520,"1308 MADISON ST, BAYTOWN, TX 77520",29.737623,-94.95031800000001,1498,7501,139999,125332,133332,3003,86224.0
77520,"29 GRAHAM ST, BAYTOWN, TX 77520",29.726205,-94.971949,972,5001,87082,73116,82153,6255,35568.0
77520,"1708 ALABAMA ST, BAYTOWN, TX 77520",29.722398,-94.998122,1642,5998,134622,120652,127002,-1403,81035.0
77520,"2005 E FAYLE ST, BAYTOWN, TX 77520",29.731717,-94.945132,1420,15503,183317,144987,166652,615,192242.0
77520,"501 E HUNNICUTT ST, BAYTOWN, TX 77520",29.73609,-94.960169,1523,5001,123537,105889,117654,9495,89771.0
77520,"211 BOLSTER ST, BAYTOWN, TX 77520",29.721072999999997,-94.97403800000001,1232,9997,100397,79405,91270,1405,10736.0
77520,"708 N FELTON ST, BAYTOWN, TX 77520",29.739198,-94.973464,1854,17733,157569,141062,150066,-2889,115598.0
77520,"3201 MISSOURI ST, BAYTOWN, TX 77520",29.722440000000002,-95.006275,1578,5998,127300,115176,121238,143,48323.0
77520,"2116 NEW JERSEY ST, BAYTOWN, TX 77520",29.723864000000003,-95.003437,1020,5000,107456,86158,96807,1909,34489.0
77520,"1806 CLAYTON DR, BAYTOWN, TX 77520",29.741158000000002,-94.94488100000001,2400,9601,192026,173738,182882,478,83000.0
77520,"303 DYER ST, BAYTOWN, TX 77520",29.743414,-94.960305,936,9095,102437,74729,83965,3547,29898.0
77520,"708 N ALEXANDER DR, BAYTOWN, TX 77520",29.734131,-94.956171,1280,1280,186196,126085,146611,2248,7745.0
77520,"903 ELMWOOD DR, BAYTOWN, TX 77520",29.742127000000004,-94.973959,2662,8800,174949,158287,166618,2690,135297.0
77520,"403 LIVE OAK ST, BAYTOWN, TX 77520",29.741563,-94.97139200000001,1140,8000,110945,91606,101784,4361,68966.0
77520,"3222 ARKANSAS ST, BAYTOWN, TX 77520",29.722146000000002,-95.007313,1450,5001,142246,114305,127005,1295,45188.0
77520,"2204 BRUCE DR, BAYTOWN, TX 77520",29.733727000000002,-94.94108100000001,1532,7701,148269,131324,141209,12737,107911.0
77520,"1209 WILLOW ST, BAYTOWN, TX 77520",29.724159999999998,-94.980811,949,5001,95604,74264,85361,1438,22833.0
77520,"2205 PINEMONT ST, BAYTOWN, TX 77520",29.742566999999998,-94.941139,2231,10319,193436,175014,184225,507,143861.0
77520,"2306 FLORIDA ST, BAYTOWN, TX 77520",29.719633,-95.000862,1550,8820,127398,114051,121331,-160,91779.0
77520,"202 E LOBIT ST, BAYTOWN, TX 77520",29.736103000000004,-94.963669,924,5001,87572,67189,75493,-161,31022.0
77520,"603 W TEXAS AVE, BAYTOWN, TX 77520",29.734049,-94.97406600000001,3018,7505,202006,168648,185327,4302,122812.0
77520,"2510 PECAN MANOR ST, BAYTOWN, TX 77520",29.74315,-94.93418199999999,2075,21501,184374,166814,175594,-1301,130416.0
77520,"1006 E FAYLE ST, BAYTOWN, TX 77520",29.735233,-94.954448,986,6660,87961,70207,80698,1517,66584.0
77520,"213 BOWIE ST, BAYTOWN, TX 77520",29.720432000000002,-94.973736,1290,9997,107322,78886,91728,840,37000.0
77520,"608 VISTA AVE, BAYTOWN, TX 77520",29.743407,-94.957784,1040,8080,90729,72417,83238,-813,55353.0
77520,"1203 OLIVE ST, BAYTOWN, TX 77520",29.735284000000004,-94.952442,1104,18199,127190,97473,118869,-2755,129335.0
77520,"101 ROSELAND DR, BAYTOWN, TX 77520",29.723928000000004,-94.946249,2573,21000,233391,194849,214120,-6917,75647.0
77520,"101 MIRIAM ST, BAYTOWN, TX 77520",29.72532,-94.97306,1491,5001,108319,88625,98472,3934,66710.0
77520,"502 TRAVIS ST, BAYTOWN, TX 77520",29.719014,-94.97665699999999,1680,4199,145562,107590,126576,-2241,14953.0
77520,"701 E DEFEE AVE, BAYTOWN, TX 77520",29.730293,-94.960563,1346,8581,138196,112839,126785,263,117353.0
77520,"3314 MICHIGAN ST, BAYTOWN, TX 77520",29.72745,-95.00805600000001,1344,4800,96374,77272,86823,3132,53710.0
77520,"1610 OAK SHADOWS ST, BAYTOWN, TX 77520",29.726126,-94.95167,4286,42001,372359,318686,335459,1507,280000.0
77520,"501 E DEFEE AVE, BAYTOWN, TX 77520",29.730909999999998,-94.96240999999999,912,10001,121129,85201,102652,5351,75114.0
77520,"905 PATSY DR, BAYTOWN, TX 77520",29.742364000000002,-94.954527,807,6003,81970,70260,78067,5290,45995.0
77520,"502 HARVEY ST, BAYTOWN, TX 77520",29.742597999999997,-94.97027800000001,972,5750,80200,68743,76381,3603,44568.0
77520,"708 W LOBIT ST, BAYTOWN, TX 77520",29.738599,-94.975466,1285,7876,134086,120171,126496,195,75408.0
77520,"801 KILGORE RD, BAYTOWN, TX 77520",29.730563,-94.939543,1322,15002,132007,115818,124535,-177,68421.0
77520,"502 SCOTT ST, BAYTOWN, TX 77520",29.743373,-94.970401,1116,5750,98899,79473,88303,617,62026.0
77520,"815 N 1ST ST, BAYTOWN, TX 77520",29.737106,-94.964614,3480,10650,273874,243159,255957,1541,133841.0
77520,"316 SHADY LN, BAYTOWN, TX 77520",29.726371,-94.966224,1343,6791,107438,92235,101357,14176,61984.0
77520,"701 E FAYLE ST, BAYTOWN, TX 77520",29.73612,-94.958061,1189,5001,168237,118183,139039,708,170012.0
77520,"1210 TRENTON LN, BAYTOWN, TX 77520",29.735529999999997,-94.94834499999999,1552,15769,139269,122349,130158,2139,100628.0
77520,"600 ARON ST, BAYTOWN, TX 77520",29.73729,-94.958461,1100,7500,119929,91644,113141,3565,90000.0
77520,"418 RIGGS ST, BAYTOWN, TX 77520",29.725040000000003,-94.975564,788,3751,74203,67137,70670,892,28791.0
77520,"910 N ASHBEL ST, BAYTOWN, TX 77520",29.739078999999997,-94.96638100000001,1559,15002,155320,121259,136246,748,108970.0
77520,"2009 WOODLAWN ST, BAYTOWN, TX 77520",29.730774,-94.945523,2708,23453,205421,184103,193793,-79,106448.0
77520,"208 W NAZRO ST, BAYTOWN, TX 77520",29.724597999999997,-94.973835,1143,5001,93559,80565,86629,1721,32127.0
77520,"505 BRIARWOOD DR, BAYTOWN, TX 77520",29.72653,-94.964226,1254,9544,114051,89536,106590,18590,75093.0
77520,"615 STELLA ST, BAYTOWN, TX 77520",29.725654,-94.977834,1280,12910,109654,82483,97039,5736,59106.0
77520,"1104 N ALEXANDER DR, BAYTOWN, TX 77520",29.736403999999997,-94.955197,580,31111,188374,133632,161003,2088,124073.0
77520,"715 E HUMBLE ST, BAYTOWN, TX 77520",29.727184,-94.960121,1158,6177,116394,103091,110851,8585,58478.0
77520,"514 W HUMBLE ST, BAYTOWN, TX 77520",29.732114000000003,-94.974287,1190,5001,95776,80103,87069,4793,47847.0
77520,"1704 COLBY DR, BAYTOWN, TX 77520",29.734955,-94.946561,1793,7414,163985,148367,156176,19226,105659.0
77520,"3206 NEBRASKA ST, BAYTOWN, TX 77520",29.723694000000002,-95.00731800000001,1728,6499,196823,134748,151402,237,24970.0
77520,"1510 UTAH ST, BAYTOWN, TX 77520",29.724827,-94.995806,1000,5998,89784,74820,83133,2319,56025.0
77520,"1606 OAK SHADOWS ST, BAYTOWN, TX 77520",29.726139,-94.951711,3063,21000,318349,254095,292063,-2961,290982.0
77520,"2107 BUCHANAN DR, BAYTOWN, TX 77520",29.73684,-94.94216899999999,1614,6599,173580,149471,160722,12702,106049.0
77520,"324 BRIARWOOD DR, BAYTOWN, TX 77520",29.727707000000002,-94.966072,896,7200,92581,76443,84937,1783,54880.0
77520,"2207 WRIGHT BLVD, BAYTOWN, TX 77520",29.726682,-94.944778,1687,21679,186505,168743,177624,-2671,129202.0
77520,"906 FLEETWOOD ST, BAYTOWN, TX 77520",29.739389000000003,-94.978624,2057,8799,157293,142313,149803,-41,120899.0
77520,"412 W NAZRO ST, BAYTOWN, TX 77520",29.723921999999998,-94.975882,1272,10001,124362,100403,114094,2707,30342.0
77520,"802 S 7TH ST, BAYTOWN, TX 77520",29.724803,-94.964897,840,6482,88017,77958,83826,2823,52475.0
77520,"707 ROSEWOOD DR, BAYTOWN, TX 77520",29.739844,-94.975623,2272,9461,168847,152767,160807,1245,128121.0
77520,"1604 AMY DR, BAYTOWN, TX 77520",29.742759000000003,-94.946188,2379,16937,201454,182268,191861,-1467,149616.0
77520,"411 E GULF ST, BAYTOWN, TX 77520",29.729214000000002,-94.964206,1897,10000,161625,138536,153929,927,95709.0
77520,"1204 MAGNOLIA ST, BAYTOWN, TX 77520",29.730194,-95.002863,948,3498,81619,70736,77732,698,35269.0
77520,"1306 ADAMS ST, BAYTOWN, TX 77520",29.736022,-94.95101600000001,1299,9749,126288,113058,120274,811,76322.0
77520,"604 PARKWAY ST, BAYTOWN, TX 77520",29.725596999999997,-94.965053,819,8002,87903,77857,83717,2389,53565.0
77520,"712 TRAVIS ST, BAYTOWN, TX 77520",29.718293,-94.97888,854,5001,84641,70403,79104,6321,33177.0
77520,"1600 W GULF ST, BAYTOWN, TX 77520",29.736791999999998,-94.986021,1026,10415,99806,77627,85304,1432,24368.0
77520,"3304 MICHIGAN ST, BAYTOWN, TX 77520",29.727469,-95.008202,1224,4800,80978,69410,77122,1741,36235.0
77520,"1016 N 2ND ST, BAYTOWN, TX 77520",29.738513,-94.962475,800,5001,82694,71668,78756,5437,47644.0
77520,"1900 W HUMBLE ST, BAYTOWN, TX 77520",29.737817,-94.989582,1425,6298,125306,113372,119339,1039,71803.0
77520,"804 E JAMES ST, BAYTOWN, TX 77520",29.732689,-94.958323,880,11600,131714,94595,119740,5127,94713.0
77520,"2312 CAROLINA ST, BAYTOWN, TX 77520",29.721939000000003,-95.00448,914,3920,84211,71379,80201,1034,48712.0
77520,"1002 S SHEPHERD DR, BAYTOWN, TX 77520",29.729771999999997,-94.957077,1285,7423,123343,108072,117470,1376,60423.0
77520,"1309 NARCILLE ST, BAYTOWN, TX 77520",29.734001,-94.94193100000001,1748,8250,172763,156309,164536,11775,115794.0
77520,"1611 WILLOW ST, BAYTOWN, TX 77520",29.722395000000002,-94.980851,1518,7501,120004,96884,110095,-1676,39838.0
77520,"1806 MISSOURI ST, BAYTOWN, TX 77520",29.718040000000002,-94.99916400000001,1072,6599,114472,98273,107992,963,63867.0
77520,"2004 SHERIDAN DR, BAYTOWN, TX 77520",29.736247,-94.9439,1908,8398,181967,164637,173302,9455,111646.0
77520,"1702 AMY DR, BAYTOWN, TX 77520",29.741940999999997,-94.94601800000001,2002,10001,197479,173708,182851,6168,148687.0
77520,"511 E HUNNICUTT ST, BAYTOWN, TX 77520",29.736055,-94.960063,912,5000,83428,72304,79455,2286,48195.0
77520,"501 W MAIN ST, BAYTOWN, TX 77520",29.720809999999997,-94.977111,2376,8699,189898,155054,174218,-820,160205.0
77520,"706 E HUNNICUTT ST, BAYTOWN, TX 77520",29.735716999999998,-94.958145,672,5001,82951,71101,79001,4669,49878.0
77520,"814 W MAIN ST, BAYTOWN, TX 77520",29.720512,-94.980231,700,6551,81532,66513,71519,2244,12449.0
77520,"1017 PARKWAY ST, BAYTOWN, TX 77520",29.725182,-94.966603,984,8712,94520,74935,85153,3233,54871.0
77520,"1115 S AIRHART DR, BAYTOWN, TX 77520",29.731546999999996,-94.999977,1882,6996,170214,126939,144249,-4091,41807.0
77520,"500 E DEFEE AVE, BAYTOWN, TX 77520",29.731170000000002,-94.96231,1179,5001,119977,97551,112128,6938,58605.0
77520,"1313 CYPRESS ST, BAYTOWN, TX 77520",29.729096000000002,-95.003045,856,6996,108440,85766,98582,209,39914.0
77520,"2108 MARYLAND ST, BAYTOWN, TX 77520",29.721978999999997,-95.002259,896,13948,115334,88018,101170,821,54283.0
77520,"604 W JAMES ST, BAYTOWN, TX 77520",29.737531,-94.973128,2871,11200,190126,154589,177688,-873,134679.0
77520,"1613 ASH ST, BAYTOWN, TX 77520",29.721834,-94.980016,747,11051,89951,73978,84066,2490,34628.0
77520,"308 BRIARWOOD DR, BAYTOWN, TX 77520",29.727755,-94.966239,1092,7200,101578,82186,92344,5620,59569.0
77520,"602 E MURRILL ST, BAYTOWN, TX 77520",29.732636,-94.959908,1651,5131,134152,121376,127764,-569,61709.0
77520,"1004 E FAYLE ST, BAYTOWN, TX 77520",29.735239,-94.954466,2298,6660,183713,156242,171694,1854,106072.0
