zip,address,lat,lng,house area,lot area,high,low,estimate,month value change,property tax
77536,"1202 WISDOM DR, DEER PARK, TX 77536",29.674507000000002,-95.134345,1718,6761,183864,159349,175109,-1246,169817.0
77536,"3444 HICKORY LN, DEER PARK, TX 77536",29.680532,-95.11920699999999,1642,6298,177604,150796,167551,3576,176000.0
77536,"917 MARK ST, DEER PARK, TX 77536",29.703933000000003,-95.112643,1307,7400,153057,126130,141719,-15793,134872.0
77536,"2005 EASTWIND DR, DEER PARK, TX 77536",29.692901000000003,-95.13024300000001,1696,7854,200203,181137,190670,2796,164479.0
77536,"749 BROWN LN, DEER PARK, TX 77536",29.669960999999997,-95.114528,2455,7322,229410,207562,218486,7050,189542.0
77536,"1505 WILDWOOD DR, DEER PARK, TX 77536",29.692907,-95.136219,2378,7606,265525,240237,252881,339,204727.0
77536,"2638 SALT GRASS TRL, DEER PARK, TX 77536",29.6849,-95.093887,3970,8451,376442,340590,358516,770,289308.0
77536,"2225 HILLSHIRE DR, DEER PARK, TX 77536",29.677972999999998,-95.13490300000001,1302,7562,114335,75032,89324,-16407,74779.0
77536,"3102 DOW CIR, DEER PARK, TX 77536",29.683706,-95.120405,2228,13446,256798,225304,242262,289,180018.0
77536,"1714 ASBURY LN, DEER PARK, TX 77536",29.696565999999997,-95.10837099999999,1675,7291,206699,187013,196856,-211,178859.0
77536,"2141 TALLOWWOOD DR, DEER PARK, TX 77536",29.682853,-95.100684,2804,6750,301267,272575,286921,-410,245609.0
77536,"2010 HOLTON AVE, DEER PARK, TX 77536",29.669933,-95.132947,997,32065,150866,127336,138409,-2300,69419.0
77536,"758 E LAMBUTH LN, DEER PARK, TX 77536",29.669448,-95.11525999999999,1580,8403,195023,176449,185736,-705,143110.0
77536,"2402 GALLUP DR, DEER PARK, TX 77536",29.687152,-95.096855,1965,11330,251312,227378,239345,-1147,205000.0
77536,"2505 MAGNOLIA LN, DEER PARK, TX 77536",29.694290999999996,-95.09485,3133,26575,513163,454516,488727,10804,509822.0
77536,"4231 IRIS LN, DEER PARK, TX 77536",29.673283,-95.115796,1618,6599,179298,160514,170760,940,130334.0
77536,"2701 ESTATE DR, DEER PARK, TX 77536",29.677366999999997,-95.123542,1536,7344,171152,149962,163002,13968,118364.0
77536,"2222 W VAN TREASE DR, DEER PARK, TX 77536",29.689839000000003,-95.108233,2395,8194,288172,260728,274450,512,263608.0
77536,"1118 WARREN ST, DEER PARK, TX 77536",29.686635,-95.113033,1198,6891,168144,150695,158626,1795,144243.0
77536,"2506 ASPEN SPRING DR, DEER PARK, TX 77536",29.688401000000002,-95.101224,3271,7475,323493,292685,308089,271,287597.0
77536,"3606 GREENWOOD PL, DEER PARK, TX 77536",29.679261999999998,-95.138088,2030,8307,207966,174925,194361,-2371,157051.0
77536,"2422 TYLER LN, DEER PARK, TX 77536",29.688533000000003,-95.132526,2984,7952,306265,268704,288929,-5078,273186.0
77536,"7442 CARRIE LN, DEER PARK, TX 77536",29.665729,-95.124093,969,7318,124280,102003,117245,1654,59300.0
77536,"7410 STEPHANIE DR, DEER PARK, TX 77536",29.672309999999996,-95.125178,1075,7440,142402,119777,133086,3241,101665.0
77536,"1221 ELM ST, DEER PARK, TX 77536",29.700899,-95.12446800000001,1270,5000,154746,140008,147377,1812,114367.0
77536,"410 BOONE CT, DEER PARK, TX 77536",29.668334,-95.119326,1651,6969,201911,182681,192296,-1212,153950.0
77536,"1509 WATSON DR, DEER PARK, TX 77536",29.689377,-95.109025,2277,8642,284659,257549,271104,1148,257100.0
77536,"1225 IVY AVE, DEER PARK, TX 77536",29.700251,-95.12077,1710,6499,192132,154424,179563,3308,136800.0
77536,"2226 HILLSHIRE DR, DEER PARK, TX 77536",29.677699,-95.13486999999999,1290,7668,136518,109973,126406,777,95000.0
77536,"902 LA NELL DR, DEER PARK, TX 77536",29.688784000000002,-95.11480999999999,1894,8028,206211,184812,194539,-4885,152000.0
77536,"4628 LUELLA AVE, DEER PARK, TX 77536",29.667082,-95.113182,1455,6599,180037,162891,171464,707,145365.0
77536,"2001 AZTEC DR, DEER PARK, TX 77536",29.693818,-95.10674200000001,2621,7488,296506,265737,279723,2731,221000.0
77536,"1206 E LAMBUTH LN, DEER PARK, TX 77536",29.669526,-95.112246,1468,7322,188577,170617,179597,-383,148156.0
77536,"2617 SAN MARCOS DR, DEER PARK, TX 77536",29.684976000000002,-95.097941,1725,6486,237412,210786,221880,-714,193718.0
77536,"229 E VAUGHN LN, DEER PARK, TX 77536",29.688357,-95.121315,,,198978,83723,108731,1253,
77536,"1414 SEMINOLE ST, DEER PARK, TX 77536",29.693163000000002,-95.10861,2581,6957,288682,261188,274935,870,241611.0
77536,"2601 TAOS TRL, DEER PARK, TX 77536",29.685292999999998,-95.094628,3958,11839,433620,367803,387161,-3168,359409.0
77536,"818 PEGGY ST, DEER PARK, TX 77536",29.703189000000002,-95.114712,1232,7279,144391,118510,136218,-15867,109000.0
77536,"1605 CHEROKEE ST, DEER PARK, TX 77536",29.694603000000004,-95.106608,2872,8207,328584,297290,312937,3815,264995.0
77536,"3501 PARK WICK LN, DEER PARK, TX 77536",29.682028999999996,-95.107223,1603,7797,198952,180004,189478,130,164425.0
77536,"2118 JUANITA LN, DEER PARK, TX 77536",29.692007,-95.116034,2747,20042,302533,273721,288127,4196,222300.0
77536,"2209 KRISTINA WAY, DEER PARK, TX 77536",29.690709000000002,-95.09500899999999,4530,7866,440409,372959,396765,-26712,343771.0
77536,"1013 ELM ST, DEER PARK, TX 77536",29.702163,-95.12449699999999,1347,5001,166344,147689,155462,2886,135798.0
77536,"2605 DUNN CIR, DEER PARK, TX 77536",29.689634,-95.115931,1888,10084,212494,192256,202375,-646,170434.0
77536,"913 BAYOU BEND DR, DEER PARK, TX 77536",29.674056,-95.131763,2080,6760,228596,202959,213641,18998,186810.0
77536,"1702 TULSA ST, DEER PARK, TX 77536",29.687483,-95.14206800000001,2711,8503,251337,216102,234894,4003,170000.0
77536,"1417 WILDWOOD DR, DEER PARK, TX 77536",29.692898,-95.137114,1864,7606,215503,194979,205241,2894,187899.0
77536,"4418 E MEADOW DR, DEER PARK, TX 77536",29.669548,-95.10298399999999,2796,,315915,266188,292514,200,
77536,"2514 ESTATE DR, DEER PARK, TX 77536",29.677051000000002,-95.126944,1260,7020,154460,138279,147105,4173,114411.0
77536,"806 BAYOU VISTA DR, DEER PARK, TX 77536",29.673064,-95.129779,1450,8695,179617,155668,171064,2418,139804.0
77536,"2130 MOSSEY CREEK DR, DEER PARK, TX 77536",29.680833000000003,-95.100717,1625,6138,202218,181034,192589,-289,181559.0
77536,"2209 W LAWTHER DR, DEER PARK, TX 77536",29.692027000000003,-95.109994,2801,22560,363851,322661,343256,-6038,317867.0
77536,"1121 E PRINCETON LN, DEER PARK, TX 77536",29.666068,-95.111696,1152,7322,149689,125454,142561,2517,139972.0
77536,"1705 WYNGATE DR, DEER PARK, TX 77536",29.6969,-95.103102,2357,7475,286332,259062,272697,974,240931.0
77536,"1830 GEORGIA AVE, DEER PARK, TX 77536",29.684967999999998,-95.134478,1143,69300,245876,182287,211962,-13966,207219.0
77536,"1510 WASHINGTON DR, DEER PARK, TX 77536",29.678825,-95.108714,1615,7667,189332,148635,176946,157,144421.0
77536,"1106 BOSTON ST, DEER PARK, TX 77536",29.70277,-95.12693,1976,11700,213291,180026,195680,22466,124921.0
77536,"2113 WHATLEY DR, DEER PARK, TX 77536",29.678196999999997,-95.138812,2475,13399,296891,260480,280086,-4150,273704.0
77536,"2218 LAUREN CT, DEER PARK, TX 77536",29.681341999999997,-95.099355,2412,8956,275500,249262,262381,-624,221900.0
77536,"402 N TRAVIS ST, DEER PARK, TX 77536",29.666134000000003,-95.119321,1416,7562,183915,166399,175157,235,134564.0
77536,"222 TEMPERANCE LN, DEER PARK, TX 77536",29.670740000000002,-95.119609,1574,7631,197566,178750,188158,519,149809.0
77536,"4604 LUELLA AVE, DEER PARK, TX 77536",29.667865000000003,-95.113209,1611,6599,181518,164230,172874,302,141278.0
77536,"1813 ASBURY LN, DEER PARK, TX 77536",29.695718,-95.108048,1849,7783,226392,202898,213577,3377,201158.0
77536,"813 HARVARD ST, DEER PARK, TX 77536",29.704218,-95.121218,1559,7139,174343,156079,166041,1163,108071.0
77536,"1917 ESTATE DR, DEER PARK, TX 77536",29.677160999999998,-95.13947399999999,1188,15124,253938,184485,217041,1134,241500.0
77536,"1917 NAVAJO DR, DEER PARK, TX 77536",29.693337,-95.105932,1811,6957,245684,217606,233985,5250,202022.0
77536,"1413 WATERFORD DR, DEER PARK, TX 77536",29.694485999999998,-95.136072,1864,7723,225402,202011,212643,3256,197818.0
77536,"613 S KAUFMAN DR, DEER PARK, TX 77536",29.693578999999996,-95.117512,2278,9169,221217,200149,210683,1618,187199.0
77536,"213 BRADSHIRE CT, DEER PARK, TX 77536",29.677194,-95.120294,1622,7775,197062,170787,187678,3105,161049.0
77536,"2606 CHISHOLM TRL, DEER PARK, TX 77536",29.684518,-95.093677,3772,8034,365035,323711,344373,-3553,263757.0
77536,"3302 SOMERSET LN, DEER PARK, TX 77536",29.680484000000003,-95.103222,2235,8625,276592,247889,260936,-5291,240347.0
77536,"4618 MEADOW WAY DR, DEER PARK, TX 77536",29.667979,-95.10374300000001,2920,5001,305804,276680,291242,-987,259394.0
77536,"1601 VAN BUREN DR, DEER PARK, TX 77536",29.675386,-95.107383,1468,7148,187012,169202,178107,229,141437.0
77536,"1705 SHOSHONI DR, DEER PARK, TX 77536",29.696140999999997,-95.109481,2458,10790,285161,258003,271582,-1475,254541.0
77536,"1502 PARKLINK DR, DEER PARK, TX 77536",29.681763,-95.109128,1654,7697,202889,183567,193228,-1063,161706.0
77536,"1602 HARRISON DR, DEER PARK, TX 77536",29.674367999999998,-95.107539,1829,7148,204646,185156,194901,3879,166826.0
77536,"1312 NORWOOD ST, DEER PARK, TX 77536",29.696045,-95.11604,1930,19079,159699,141619,150659,-1098,156189.0
77536,"406 BOONE CT, DEER PARK, TX 77536",29.668333,-95.119355,1651,7022,203178,183828,193503,-798,155053.0
77536,"1614 BYRON AVE, DEER PARK, TX 77536",29.696939,-95.121833,1464,13948,182828,165416,174122,-1051,147087.0
77536,"1505 JACKSON DR, DEER PARK, TX 77536",29.676127,-95.108449,1520,7148,193811,175353,184582,-1705,152181.0
77536,"2002 WILDWOOD DR, DEER PARK, TX 77536",29.692588,-95.140045,2060,7736,208021,188209,198115,336,153000.0
77536,"317 CRETE DR, DEER PARK, TX 77536",29.697257,-95.12065600000001,1235,7131,171551,150708,160328,-3124,130142.0
77536,"2405 WILLOW TRL, DEER PARK, TX 77536",29.676840000000002,-95.09524,1438,6970,182911,165491,174201,-2092,144659.0
77536,"2218 STONEY BROOK DR, DEER PARK, TX 77536",29.680045,-95.10051999999999,2860,8978,308995,279567,294281,882,247001.0
77536,"1322 LOUISIANA AVE, DEER PARK, TX 77536",29.694186,-95.14299399999999,1603,7021,202966,181703,193301,1984,180755.0
77536,"2538 ARTESIA DR, DEER PARK, TX 77536",29.685567,-95.096068,1473,6329,200328,173618,190789,579,183653.0
77536,"209 REGENCY DR, DEER PARK, TX 77536",29.675052,-95.116152,2809,15084,323906,290293,305572,320,240720.0
77536,"1314 WATERFORD DR, DEER PARK, TX 77536",29.694221000000002,-95.135307,1864,8194,214191,193791,203991,2599,186568.0
77536,"1706 SALEM DR, DEER PARK, TX 77536",29.683212,-95.13995899999999,1682,7128,201773,182557,192165,600,158849.0
77536,"1421 N PARK RIDGE DR, DEER PARK, TX 77536",29.683517,-95.109225,1753,8991,205081,185549,195315,-2311,162521.0
77536,"201 TEMPERANCE LN, DEER PARK, TX 77536",29.671008,-95.119919,1980,7989,217212,196526,206869,1958,167135.0
77536,"1232 ELM ST, DEER PARK, TX 77536",29.701321999999998,-95.12479300000001,1768,10000,175356,142180,157978,-5903,133939.0
77536,"2013 NAVAJO DR, DEER PARK, TX 77536",29.693967999999998,-95.10592199999999,2788,9770,319620,289180,304400,5593,274286.0
77536,"2113 CAMDON DR, DEER PARK, TX 77536",29.690658000000003,-95.101314,3138,6325,308960,276898,291472,2755,265386.0
77536,"2025 NEW ORLEANS ST, DEER PARK, TX 77536",29.687734000000003,-95.142248,1736,7815,203887,184469,194178,688,164978.0
77536,"2213 W VAN TREASE DR, DEER PARK, TX 77536",29.689827,-95.108549,1853,10275,230177,200339,213127,3592,198399.0
77536,"406 KINGSTON CT, DEER PARK, TX 77536",29.678945000000002,-95.11896,1905,7226,245463,222085,233774,4019,209579.0
77536,"3420 HICKORY LN, DEER PARK, TX 77536",29.681063,-95.119218,2761,6299,271657,233574,253885,-3787,202589.0
77536,"222 E X ST, DEER PARK, TX 77536",29.694613,-95.121661,1912,15002,199465,169915,184690,-3295,184132.0
77536,"210 E FORREST LN, DEER PARK, TX 77536",29.691606,-95.122159,1076,5998,131704,117906,125432,-723,101407.0
77536,"1822 WILCREST PLZ, DEER PARK, TX 77536",29.689929,-95.140153,1819,11282,214810,194352,204581,-642,176531.0
77536,"1122 E COLUMBIA LN, DEER PARK, TX 77536",29.667933,-95.111008,1453,7322,180819,163599,172209,774,143268.0
77536,"2314 W VAN TREASE DR, DEER PARK, TX 77536",29.690931,-95.108276,2396,7800,288046,260614,274330,2505,259116.0
77536,"2205 WHATLEY DR, DEER PARK, TX 77536",29.678406,-95.138812,1915,13399,209713,189741,199727,-1983,191469.0
77536,"1313 MEADOW LARK ST, DEER PARK, TX 77536",29.694878999999997,-95.117233,1622,19079,152935,138369,145652,-14916,132133.0
77536,"1318 SEMINOLE ST, DEER PARK, TX 77536",29.693171999999997,-95.109247,2884,7588,317984,287700,302842,2671,248130.0
77536,"913 MARK ST, DEER PARK, TX 77536",29.703978000000003,-95.11264399999999,1240,6930,153994,133462,146661,-10441,119623.0
77536,"401 S TRAVIS ST, DEER PARK, TX 77536",29.665696999999998,-95.119321,1678,7562,205162,185622,195392,-1268,156181.0
77536,"1502 WATERFORD DR, DEER PARK, TX 77536",29.694203,-95.13676600000001,1864,7606,215137,194647,204892,3121,188276.0
77536,"2533 GALLUP DR, DEER PARK, TX 77536",29.686921,-95.09541999999999,2281,5998,272984,246986,259985,612,252844.0
77536,"2802 HILLSHIRE DR, DEER PARK, TX 77536",29.677839000000002,-95.124723,1849,8803,206064,182736,194400,-2058,120819.0
77536,"1610 JOSHUA TREE LN, DEER PARK, TX 77536",29.688676,-95.10560699999999,2704,7775,329668,298272,313970,8901,274600.0
77536,"1614 WASHINGTON DR, DEER PARK, TX 77536",29.678852000000003,-95.107548,1721,7667,195453,174977,186146,-3003,150000.0
77536,"2201 MOSSEY CREEK DR, DEER PARK, TX 77536",29.681283,-95.099637,2370,6207,273139,247125,260132,-1142,215779.0
77536,"1112 ELLEN DR, DEER PARK, TX 77536",29.697971000000003,-95.113327,1050,6421,155845,139673,147024,2397,114288.0
77536,"714 AMHERST LN, DEER PARK, TX 77536",29.671038,-95.114572,1320,12820,180448,163262,171855,632,147072.0
77536,"4226 HASTINGS LN, DEER PARK, TX 77536",29.674056,-95.116383,1494,10780,182519,165137,173828,823,126640.0
77536,"3432 PINE LN, DEER PARK, TX 77536",29.67933,-95.118369,1211,6299,148322,122895,141259,4265,136347.0
77536,"1610 GARDEN PARK DR, DEER PARK, TX 77536",29.697257,-95.106759,1591,7388,201623,182421,192022,-443,174506.0
77536,"4401 E MEADOW DR, DEER PARK, TX 77536",29.669455,-95.10266800000001,1621,5223,230501,202756,213427,-781,181084.0
77536,"305 CRETE DR, DEER PARK, TX 77536",29.697257,-95.12077099999999,1632,7705,191179,172971,182075,-190,152594.0
77536,"513 LINCOLN ST, DEER PARK, TX 77536",29.671809999999997,-95.118305,1588,7148,194770,174365,185495,-1801,155000.0
77536,"1018 ELM ST, DEER PARK, TX 77536",29.70219,-95.124814,934,5000,109194,98794,103994,4781,67790.0
77536,"2201 E SHANNON ST, DEER PARK, TX 77536",29.691613,-95.13224,1731,7505,210282,190256,200269,557,176970.0
77536,"4234 BARON LN, DEER PARK, TX 77536",29.673846,-95.121758,1413,6599,165880,150082,157981,1926,125594.0
77536,"1617 TULSA ST, DEER PARK, TX 77536",29.687893,-95.13521899999999,2690,8377,262725,232983,247854,-3748,184612.0
77536,"305 TEMPERANCE LN, DEER PARK, TX 77536",29.670992,-95.120767,1979,7318,215936,195370,205653,1522,156131.0
77536,"3709 GARRETT BLVD, DEER PARK, TX 77536",29.679283,-95.093342,1821,20547,281496,234141,263080,4842,259397.0
77536,"1514 MADISON DR, DEER PARK, TX 77536",29.677326,-95.108598,1466,7148,185475,166044,176643,-1277,156946.0
77536,"214 BRADSHIRE CT, DEER PARK, TX 77536",29.677469,-95.120284,2202,7775,246415,222947,234681,6962,195000.0
77536,"1809 WYNRIDGE DR, DEER PARK, TX 77536",29.698323,-95.10418,2128,7475,264431,236990,249463,-766,226824.0
77536,"2005 LEXINGTON ST, DEER PARK, TX 77536",29.686076,-95.139454,1952,10271,203637,184243,193940,-2185,164747.0
77536,"1109 E PURDUE LN, DEER PARK, TX 77536",29.671683,-95.11176400000001,1725,7920,203735,184331,194033,-1389,165202.0
77536,"1701 LEXINGTON ST, DEER PARK, TX 77536",29.685503999999998,-95.142278,2500,9880,246621,209395,232661,980,211097.0
77536,"1924 ESTATE DR, DEER PARK, TX 77536",29.676888,-95.139352,1108,8211,156386,132781,147534,-492,122364.0
77536,"1417 ATLANTA ST, DEER PARK, TX 77536",29.687007,-95.137315,2180,7749,209301,189367,199334,-1947,187500.0
77536,"1614 VAN BUREN DR, DEER PARK, TX 77536",29.675114,-95.107242,1543,7148,180206,156179,171625,-3279,144000.0
77536,"513 GRANT ST, DEER PARK, TX 77536",29.672534999999996,-95.118326,1569,7749,187422,160647,178497,-1943,143690.0
77536,"1601 WATERFORD DR, DEER PARK, TX 77536",29.694467,-95.13753100000001,1471,7723,193301,174891,184096,4335,150000.0
77536,"305 ARBOR DR, DEER PARK, TX 77536",29.674497,-95.119867,1515,6821,170767,145231,159595,3696,117395.0
77536,"2530 ESTATE DR, DEER PARK, TX 77536",29.677048,-95.127213,1241,7022,158378,141786,150836,6060,107031.0
77536,"2305 E CLARE ST, DEER PARK, TX 77536",29.690346999999996,-95.132814,1774,7475,201078,181928,191503,61,157097.0
77536,"4002 BLUEBONNET TRL, DEER PARK, TX 77536",29.676067,-95.095934,1340,6957,170470,150987,162352,-2918,148486.0
77536,"7418 OSCAR DR, DEER PARK, TX 77536",29.669835,-95.124677,1745,7440,196344,169074,181800,-2897,77806.0
77536,"1610 HARRISON DR, DEER PARK, TX 77536",29.67437,-95.107449,1682,7148,198279,179395,188837,1437,178966.0
77536,"514 BOONE CT, DEER PARK, TX 77536",29.668344,-95.118583,1733,7022,205938,186324,196131,-1428,155448.0
77536,"3917 RED BRIAR TRL, DEER PARK, TX 77536",29.676087,-95.097884,1438,7701,185918,168212,177065,-1633,147610.0
77536,"1706 ATLANTA ST, DEER PARK, TX 77536",29.686712,-95.138597,1687,7754,203678,184280,193979,-196,179875.0
77536,"3613 CHANDLER LN, DEER PARK, TX 77536",29.681033000000003,-95.14202399999999,1777,7910,205553,174816,192106,1333,186474.0
77536,"2222 CAMDON DR, DEER PARK, TX 77536",29.690395000000002,-95.100183,2884,11634,306118,271787,286092,1700,225000.0
77536,"1906 TULSA ST, DEER PARK, TX 77536",29.687528999999998,-95.140238,1609,7754,197443,178639,188041,105,151760.0
77536,"4608 LUELLA AVE, DEER PARK, TX 77536",29.667826,-95.113209,1175,6599,150509,131875,143342,1651,131162.0
77536,"1912 LOUISIANA AVE, DEER PARK, TX 77536",29.683435,-95.14278,2817,130680,373365,306441,352231,5430,282846.0
77536,"3013 PARK SHADOW LN, DEER PARK, TX 77536",29.683421999999997,-95.110529,1596,14348,209018,189112,199065,-1340,167002.0
77536,"1102 WISDOM DR, DEER PARK, TX 77536",29.674513,-95.13364,2152,6761,246662,211757,232700,-936,180625.0
77536,"301 W OAK ST, DEER PARK, TX 77536",29.693467,-95.126281,1561,7919,198025,179165,188595,-2011,135905.0
77536,"805 LUELLA AVE, DEER PARK, TX 77536",29.702343,-95.113484,1502,7888,182184,164834,173509,300,143287.0
77536,"1309 GARDEN PARK DR, DEER PARK, TX 77536",29.697492999999998,-95.109639,2033,10873,249254,209653,232948,88,208297.0
77536,"2218 HILLSHIRE DR, DEER PARK, TX 77536",29.677699,-95.134996,1028,7022,128430,99890,118917,4089,51320.0
77536,"2213 ST PATRICK LN, DEER PARK, TX 77536",29.70427,-95.1151,2503,12602,337332,301993,321269,-1143,278782.0
77536,"1901 WYNDALE DR, DEER PARK, TX 77536",29.697553000000003,-95.103602,2634,7475,292672,259540,276106,3535,243819.0
77536,"1505 MADISON DR, DEER PARK, TX 77536",29.677598,-95.10871800000001,1689,7148,196945,178189,187567,316,157026.0
77536,"609 KINGSTON CT, DEER PARK, TX 77536",29.678696999999996,-95.117538,1653,7227,213277,192965,203121,1049,166265.0
77536,"1813 S CARLSBAD LN, DEER PARK, TX 77536",29.688406,-95.105308,2774,7801,349102,315854,332478,280,300756.0
77536,"2214 TALLOWWOOD DR, DEER PARK, TX 77536",29.682585999999997,-95.10011800000001,2819,6050,294487,266441,280464,-443,250805.0
77536,"2002 TIPPERARY DR, DEER PARK, TX 77536",29.693271999999997,-95.128676,1761,5552,200534,179526,190985,1,173405.0
77536,"2213 ST ELMOS FIRE, DEER PARK, TX 77536",29.691069,-95.09404,3414,8125,365543,318158,338466,-5005,270000.0
77536,"2613 PICKERTON DR, DEER PARK, TX 77536",29.675793,-95.128574,1367,7022,168875,152791,160833,4271,127012.0
77536,"2501 GALLUP DR, DEER PARK, TX 77536",29.686892999999998,-95.096565,2232,7150,264766,239550,252158,-813,220222.0
77536,"2117 PICKERTON DR, DEER PARK, TX 77536",29.675715999999998,-95.133961,1200,7020,151694,123602,140457,1335,90000.0
77536,"1901 WOODCREST DR, DEER PARK, TX 77536",29.691657,-95.14003199999999,1821,7802,212404,192176,202290,95,184000.0
77536,"1113 PEARL ST, DEER PARK, TX 77536",29.702146999999997,-95.113466,1119,6421,136208,119503,128498,-360,106286.0
77536,"310 YORKSHIRE CT, DEER PARK, TX 77536",29.676740000000002,-95.11959399999999,1721,7235,214477,194051,204264,402,169158.0
77536,"3441 ASH LN, DEER PARK, TX 77536",29.680331,-95.12051899999999,1565,6299,179379,150610,169225,4429,175853.0
77536,"2346 PINE BROOK DR, DEER PARK, TX 77536",29.684445,-95.097187,3504,12341,372422,336954,354688,-173,299000.0
77536,"1822 HILLSHIRE DR, DEER PARK, TX 77536",29.677534,-95.141277,1150,9723,141919,125700,135161,943,104736.0
77536,"3313 PARK SHADOW LN, DEER PARK, TX 77536",29.681213,-95.110479,1191,14348,178216,161244,169730,1337,149235.0
77536,"2113 WOODLANDS DR, DEER PARK, TX 77536",29.68362,-95.101176,2188,6494,253060,228960,241010,-1358,216000.0
77536,"1242 CENTER ST, DEER PARK, TX 77536",29.700090000000003,-95.123968,,,184530,83092,107912,5421,
77536,"2214 E REATA DR, DEER PARK, TX 77536",29.691969,-95.105463,2550,12186,340951,308479,324715,-7389,349805.0
77536,"2025 PICKERTON DR, DEER PARK, TX 77536",29.675690000000003,-95.137343,924,10533,132298,97733,119187,-2038,90033.0
77536,"2006 KERRY DR, DEER PARK, TX 77536",29.693402000000003,-95.127815,1875,5554,225097,199852,210371,-115,177207.0
77536,"1209 E PURDUE LN, DEER PARK, TX 77536",29.671667,-95.11249699999999,2065,7662,210824,190746,200785,3146,173169.0
77536,"4009 BROWNWIND TRL, DEER PARK, TX 77536",29.6756,-95.097098,1340,7148,146299,132365,139332,1944,151957.0
77536,"822 W PASADENA BLVD, DEER PARK, TX 77536",29.681775,-95.131165,1265,8377,144096,102177,130996,12061,78304.0
77536,"2309 WIMBERLY DR, DEER PARK, TX 77536",29.689579,-95.09787,2144,6000,254881,230607,242744,-3686,215388.0
77536,"1506 BYRON AVE, DEER PARK, TX 77536",29.698824,-95.121844,1146,8708,156253,134349,146031,-6077,114200.0
77536,"1205 KIOWA CT, DEER PARK, TX 77536",29.693857,-95.110824,2318,7535,274194,248080,261137,1085,212000.0
77536,"1101 DORIS ST, DEER PARK, TX 77536",29.696507,-95.113523,1574,9095,193803,175345,184574,208,138074.0
77536,"7421 EVIE LN, DEER PARK, TX 77536",29.667646,-95.12451800000001,1059,7440,140928,116135,130489,2703,99896.0
77536,"2110 JUANITA LN, DEER PARK, TX 77536",29.692007,-95.11596999999999,2101,7754,227737,204104,214846,866,189232.0
77536,"833 HARVARD ST, DEER PARK, TX 77536",29.703409999999998,-95.121202,2136,7350,209968,182496,196232,-1169,141854.0
77536,"2806 WHITE SANDS DR, DEER PARK, TX 77536",29.685605,-95.09695500000001,1836,5749,243622,220420,232021,-3593,209555.0
77536,"2301 W LONESOME DOVE DR, DEER PARK, TX 77536",29.690984000000004,-95.10479000000001,2112,9601,301510,262060,281785,-2411,303500.0
77536,"2018 KERRY DR, DEER PARK, TX 77536",29.693325,-95.127808,2374,5554,271064,245248,258156,980,200574.0
77536,"2105 OKLAHOMA AVE, DEER PARK, TX 77536",29.685005,-95.138302,3172,46422,434696,366271,402496,-5437,325000.0
77536,"409 BOONE CT, DEER PARK, TX 77536",29.668608000000003,-95.119345,1440,7021,185878,168176,177027,-4136,158105.0
77536,"2406 ESTATE DR, DEER PARK, TX 77536",29.677007,-95.13203,1184,7022,137677,116698,131121,1301,81253.0
77536,"1601 MONROE DR, DEER PARK, TX 77536",29.676882,-95.10762700000001,1600,7148,193161,146176,174019,-4573,147000.0
77536,"757 YALE LN, DEER PARK, TX 77536",29.672383,-95.11419599999999,1834,8307,204441,184971,194706,-2760,173391.0
77536,"2321 DONEGAL CT, DEER PARK, TX 77536",29.690851000000002,-95.12883599999999,3735,17115,363844,329192,346518,2973,298000.0
77536,"1909 AZTEC DR, DEER PARK, TX 77536",29.693326000000003,-95.106768,2924,7143,326631,295523,311077,3524,251384.0
77536,"1614 TULSA ST, DEER PARK, TX 77536",29.687619,-95.135235,2198,7754,215130,194642,204886,420,161725.0
77536,"4014 PRIMROSE PATH, DEER PARK, TX 77536",29.676227,-95.095115,1640,7275,189812,171734,180773,-2080,159102.0
77536,"2614 GARRETT BLVD, DEER PARK, TX 77536",29.676942999999998,-95.094018,1994,7998,203715,184313,194014,-92,165074.0
77536,"2222 E VAN TREASE DR, DEER PARK, TX 77536",29.691887,-95.107382,2566,8403,286532,259244,272888,250,248586.0
77536,"1414 TULSA ST, DEER PARK, TX 77536",29.687595,-95.137325,2293,7754,206647,186967,196807,-959,162184.0
77536,"1602 SHAMROCK LN, DEER PARK, TX 77536",29.691608000000002,-95.137185,2971,13416,368131,326846,344048,-1895,290700.0
77536,"518 N TRAVIS ST, DEER PARK, TX 77536",29.665865999999998,-95.117428,2125,7562,221271,200197,210734,2626,185000.0
77536,"1221 E RUTGERS LN, DEER PARK, TX 77536",29.668465,-95.111082,1406,10840,178713,161693,170203,733,136016.0
77536,"2314 KILLARNEY LN, DEER PARK, TX 77536",29.69078,-95.130394,2400,14580,302690,271279,285557,798,251954.0
77536,"2317 ST ELMOS FIRE, DEER PARK, TX 77536",29.690207,-95.094021,4190,9286,435288,369218,388650,-8067,347114.0
77536,"2314 LUELLA AVE, DEER PARK, TX 77536",29.689727,-95.113528,1560,8777,186148,154538,175611,2024,139971.0
77536,"1418 CHEROKEE ST, DEER PARK, TX 77536",29.693862,-95.107752,2905,6956,324161,293289,308725,-167,251983.0
77536,"2434 PINEY POINT DR, DEER PARK, TX 77536",29.683992,-95.096998,3896,7562,428902,354310,372958,-3,341772.0
77536,"1205 E PRINCETON LN, DEER PARK, TX 77536",29.666079999999997,-95.111097,1355,7322,178003,161051,169527,586,146230.0
77536,"7433 VALEDA DR, DEER PARK, TX 77536",29.671770000000002,-95.12396,1051,7440,140360,115667,129963,2533,99088.0
77536,"1110 JEFFREY ST, DEER PARK, TX 77536",29.685909999999996,-95.112448,1548,6891,190476,172336,181406,-1561,150524.0
77536,"1818 WILCREST PLZ, DEER PARK, TX 77536",29.689952,-95.140151,1819,7174,210424,190384,200404,-513,182946.0
77536,"1006 DORIS ST, DEER PARK, TX 77536",29.696223,-95.114626,2060,9108,213841,193475,203658,-931,163668.0
77536,"1917 TULSA ST, DEER PARK, TX 77536",29.687806,-95.140156,1752,7754,201529,182335,191932,922,160693.0
77536,"2618 HENDERSON LN, DEER PARK, TX 77536",29.684372999999997,-95.132611,2051,7370,199059,180101,189580,711,174683.0
77536,"2117 CAMDON DR, DEER PARK, TX 77536",29.690659000000004,-95.101272,2020,6324,245323,221959,233641,218,209088.0
77536,"1202 BOSTON ST, DEER PARK, TX 77536",29.700029999999998,-95.1269,1617,8451,181766,152615,171477,6363,106338.0
77536,"1409 WEXFORD DR, DEER PARK, TX 77536",29.693672999999997,-95.13741999999999,2308,7405,256022,222524,239273,-2648,181246.0
77536,"1613 TULSA ST, DEER PARK, TX 77536",29.687893,-95.135261,1736,7754,199174,180206,189690,857,154816.0
77536,"409 KIMSWICK CT, DEER PARK, TX 77536",29.675753999999998,-95.11887,1840,7235,219400,198504,208952,2195,164119.0
77536,"1402 ASBURY LN, DEER PARK, TX 77536",29.699065,-95.10763399999999,2261,7215,265119,230103,250112,-2328,194528.0
77536,"918 LUELLA AVE, DEER PARK, TX 77536",29.704029,-95.11384,1450,7952,175993,159231,167612,-484,132512.0
77536,"2421 KINGSDALE DR, DEER PARK, TX 77536",29.67653,-95.13149399999999,1006,7020,133728,117171,127360,707,76959.0
77536,"1622 JOSHUA TREE LN, DEER PARK, TX 77536",29.688675,-95.10571,2470,7802,311888,282184,297036,1500,264561.0
77536,"2221 SUGAR HILL DR, DEER PARK, TX 77536",29.687759000000003,-95.100173,2123,8459,255906,231534,243720,-4558,213765.0
77536,"2601 LIVE OAK TRL, DEER PARK, TX 77536",29.675832,-95.093763,1515,7100,188203,170279,179241,-816,146141.0
77536,"2313 KILLARNEY LN, DEER PARK, TX 77536",29.690773999999998,-95.130077,3928,22908,384888,334995,356378,-4688,315000.0
77536,"4213 FLEET LN, DEER PARK, TX 77536",29.674228000000003,-95.117839,1400,7022,166546,140330,154209,3843,105000.0
77536,"3417 CHANDLER LN, DEER PARK, TX 77536",29.679351,-95.14192299999999,1674,8121,194865,169128,183835,1278,179331.0
77536,"737 ACADEMY LN, DEER PARK, TX 77536",29.665167999999998,-95.11626600000001,1641,7562,193339,174925,184132,444,158380.0
77536,"1502 NEW ORLEANS ST, DEER PARK, TX 77536",29.688454999999998,-95.136422,2002,7754,201092,181940,191516,-2830,162808.0
77536,"1602 NEW ORLEANS ST, DEER PARK, TX 77536",29.688470000000002,-95.135378,2112,7754,202912,183588,193250,-2739,161312.0
77536,"3014 BAYOU ST, DEER PARK, TX 77536",29.684383,-95.114475,1943,9801,249056,225336,237196,10642,166360.0
77536,"2229 W CLARE ST, DEER PARK, TX 77536",29.689497999999997,-95.133686,1768,7588,203929,184507,194218,-61,160008.0
77536,"2610 ESTATE DR, DEER PARK, TX 77536",29.677035999999998,-95.128559,1544,7022,166145,147512,155276,11900,118489.0
77536,"7437 ALJEAN LN, DEER PARK, TX 77536",29.665201,-95.123965,1040,7318,139044,122151,129948,-171,67786.0
77536,"2106 CANYON LAKE DR, DEER PARK, TX 77536",29.688205,-95.101314,3520,10716,347001,313953,330477,1523,304378.0
77536,"714 S KAUFMAN DR, DEER PARK, TX 77536",29.692973,-95.114226,2012,8451,204910,185394,195152,222,171260.0
77536,"729 PRINCETON LN, DEER PARK, TX 77536",29.666190000000004,-95.116591,1672,7322,195288,176690,185989,243,154119.0
77536,"1122 S AMY DR, DEER PARK, TX 77536",29.690346,-95.112987,2032,6955,204722,185224,194973,2666,170061.0
77536,"1905 EASTWIND DR, DEER PARK, TX 77536",29.694415000000003,-95.130292,1542,8533,190944,172758,181851,11641,147491.0
77536,"3436 PINE LN, DEER PARK, TX 77536",29.679415999999996,-95.11837,1167,6298,150302,125017,140469,1786,140357.0
77536,"2109 KINGWOOD DR, DEER PARK, TX 77536",29.685471000000003,-95.10096,1919,6050,248695,225009,236852,-2323,208859.0
77536,"4201 FLEET LN, DEER PARK, TX 77536",29.674393,-95.11784200000001,1450,7723,180066,161202,171491,1387,123619.0
77536,"2310 LAWRENCE LN, DEER PARK, TX 77536",29.690790999999997,-95.115615,1741,8280,198976,178327,187713,-3196,145000.0
77536,"1513 TULSA ST, DEER PARK, TX 77536",29.687877,-95.13630400000001,1844,7754,201351,182175,191763,-709,156763.0
77536,"4201 HASTINGS LN, DEER PARK, TX 77536",29.674415999999997,-95.11608199999999,1795,7723,205228,185682,195455,51,146920.0
77536,"1401 TAFT DR, DEER PARK, TX 77536",29.686117,-95.110423,1718,9300,211307,191183,201245,-3320,173185.0
77536,"2234 ROBINWOOD DR, DEER PARK, TX 77536",29.683594,-95.099101,2452,6324,273301,247273,260287,-1444,215244.0
77536,"2802 CRESTMONT DR, DEER PARK, TX 77536",29.686159999999997,-95.099153,2046,6351,253860,229682,241771,-3724,214500.0
77536,"1806 KATHLEEN CT, DEER PARK, TX 77536",29.702013,-95.104738,2658,6878,281823,254983,268403,381,240064.0
77536,"1406 CHEROKEE ST, DEER PARK, TX 77536",29.693820000000002,-95.10785600000001,2500,7344,288785,261281,275033,-461,228889.0
77536,"2124 PLUNKETT ST, DEER PARK, TX 77536",29.681333000000002,-95.140487,1544,16448,211875,191697,201786,-3147,181737.0
77536,"3202 LUELLA AVE, DEER PARK, TX 77536",29.684537,-95.11340799999999,1342,10080,185993,148453,170636,4084,105704.0
77536,"2710 WISDOM DR, DEER PARK, TX 77536",29.674734,-95.12648399999999,1853,7318,206663,186981,196822,174,142647.0
77536,"901 BOSTON ST, DEER PARK, TX 77536",29.701869,-95.12661999999999,1166,7802,146699,132727,139713,-2430,113431.0
77536,"1502 WEXFORD DR, DEER PARK, TX 77536",29.693413,-95.136689,1864,7606,226326,202839,213515,3061,199036.0
77536,"4426 JEFFERSON ST, DEER PARK, TX 77536",29.670538,-95.119609,1562,8280,199459,180463,189961,1187,136841.0
77536,"3448 PINE LN, DEER PARK, TX 77536",29.679674,-95.118376,1448,6299,179924,154220,171356,445,158957.0
77536,"2618 SALT GRASS TRL, DEER PARK, TX 77536",29.684375,-95.093878,2339,8450,273967,247875,260921,-571,219684.0
77536,"725 AMHERST LN, DEER PARK, TX 77536",29.670765000000003,-95.114506,1318,7562,179428,157213,170884,1026,156326.0
77536,"2725 LUELLA AVE, DEER PARK, TX 77536",29.686949,-95.113147,1690,15194,199766,180740,190253,-4245,158797.0
77536,"1914 WYNWOOD DR, DEER PARK, TX 77536",29.698818,-95.103378,2369,7039,286351,256635,270142,181,237310.0
77536,"207 E HIGHLINE DR, DEER PARK, TX 77536",29.692697999999996,-95.122321,1230,8999,133360,120660,127010,-1640,101828.0
77536,"3205 PARK HAVEN LN, DEER PARK, TX 77536",29.680055,-95.106298,1782,8398,205892,186284,196088,-1552,168588.0
77536,"1102 JEFFREY ST, DEER PARK, TX 77536",29.68592,-95.111975,1476,8163,184839,165475,176037,2977,136996.0
77536,"1314 WEXFORD DR, DEER PARK, TX 77536",29.693385,-95.138139,1864,8190,222996,201758,212377,686,178000.0
77536,"2517 GEORGIA AVE, DEER PARK, TX 77536",29.687684,-95.134202,2057,9243,202290,183024,192657,-1815,173507.0
77536,"2234 W CLARE ST, DEER PARK, TX 77536",29.689567999999998,-95.134002,1996,7588,213212,188845,203059,228,196452.0
77536,"2221 ESTATE DR, DEER PARK, TX 77536",29.677225,-95.135612,1772,7020,164342,139768,153591,6082,115403.0
77536,"2506 ARTESIA DR, DEER PARK, TX 77536",29.685541999999998,-95.09666700000001,2161,5998,267277,241823,254550,-1275,239442.0
77536,"2036 HILLSHIRE DR, DEER PARK, TX 77536",29.677674,-95.137834,1399,7562,182308,164946,173627,3403,144073.0
77536,"3810 WINDSOR DR, DEER PARK, TX 77536",29.676708,-95.116023,1818,7993,206465,186801,196633,-1025,170227.0
77536,"213 LINCOLN ST, DEER PARK, TX 77536",29.671768,-95.12145500000001,1533,7318,187465,169611,178538,-3083,147609.0
77536,"2322 TRINITY PARK CT, DEER PARK, TX 77536",29.691072,-95.097751,2408,6473,261407,218239,239823,2109,213936.0
77536,"802 PEGGY ST, DEER PARK, TX 77536",29.703009,-95.114708,1750,8063,183911,166395,175153,-866,125403.0
77536,"2109 COMAL SPRINGS DR, DEER PARK, TX 77536",29.68954,-95.101329,3460,7802,348673,312490,328937,1168,291952.0
77536,"1618 CLEVELAND DR, DEER PARK, TX 77536",29.673591,-95.107763,2050,12480,217751,194939,207382,1663,180238.0
77536,"821 S KAUFMAN DR, DEER PARK, TX 77536",29.693236,-95.115121,2025,8320,204225,184775,194500,629,168544.0
77536,"918 BRIARWOOD CT, DEER PARK, TX 77536",29.694271999999998,-95.13061,1340,7606,185765,168073,176919,12734,143682.0
77536,"2213 SABINE DR, DEER PARK, TX 77536",29.69185,-95.10033100000001,2518,6260,282597,255683,269140,1230,236709.0
77536,"3405 PARK HAVEN LN, DEER PARK, TX 77536",29.681387,-95.106313,1592,7797,203303,183941,193622,-2027,184472.0
77536,"1214 S AMY DR, DEER PARK, TX 77536",29.690893,-95.111551,2057,7153,209508,187767,197649,1313,153850.0
77536,"2225 W VAN TREASE DR, DEER PARK, TX 77536",29.689962,-95.108554,1960,7802,251027,227119,239073,3246,223027.0
77536,"1109 DORIS ST, DEER PARK, TX 77536",29.69652,-95.112888,1677,8346,209277,189345,199311,154,170098.0
77536,"1014 PARK GRN, DEER PARK, TX 77536",29.702657000000002,-95.10367600000001,1664,7039,225126,193566,210398,5661,198145.0
77536,"2005 NAVAJO DR, DEER PARK, TX 77536",29.693919,-95.105921,2878,6957,326274,295200,310737,5104,255863.0
77536,"813 JAMES ST, DEER PARK, TX 77536",29.703646999999997,-95.119575,1619,8398,180055,162907,171481,-354,128587.0
77536,"1305 WISDOM DR, DEER PARK, TX 77536",29.674443,-95.135091,1524,6760,182983,165557,174270,-1479,157885.0
77536,"4609 MEADOW WAY DR, DEER PARK, TX 77536",29.668065000000002,-95.103429,2380,5001,285857,258633,272245,-1325,233513.0
77536,"2306 DONEGAL CT, DEER PARK, TX 77536",29.690621999999998,-95.129139,3773,13591,387164,329806,358485,3984,300000.0
77536,"3802 WINDSOR DR, DEER PARK, TX 77536",29.67813,-95.11604200000001,1786,7993,205641,186057,195849,-507,170000.0
77536,"3425 BIRCH LN, DEER PARK, TX 77536",29.679852,-95.119701,1325,6299,170395,150921,162281,4076,128426.0
77536,"1101 GRACE ST, DEER PARK, TX 77536",29.701413,-95.113628,1328,6848,148062,131140,141011,-7141,117000.0
77536,"2426 LUFKIN LN, DEER PARK, TX 77536",29.688496,-95.133537,2024,7588,202434,183154,192794,-156,182096.0
77536,"1905 WYNWOOD DR, DEER PARK, TX 77536",29.699091999999997,-95.103424,2676,7475,290131,262499,276315,304,250000.0
77536,"1018 MARSHALL ST, DEER PARK, TX 77536",29.684053000000002,-95.131676,2209,7475,209979,189981,199980,-494,185466.0
77536,"2317 ESTATE DR, DEER PARK, TX 77536",29.677295,-95.130342,1140,7022,138447,121306,131854,1970,100771.0
77536,"3314 SURREY LN, DEER PARK, TX 77536",29.682043,-95.104199,2154,7800,270843,242736,255512,-2817,225222.0
77536,"2406 LUFKIN LN, DEER PARK, TX 77536",29.688784000000002,-95.13282199999999,2056,7658,201381,182201,191791,-3382,160091.0
77536,"1402 S PARK RIDGE DR, DEER PARK, TX 77536",29.682515000000002,-95.10900500000001,1868,8211,207852,188056,197954,-2440,159900.0
77536,"2602 GOODNIGHT TRL, DEER PARK, TX 77536",29.683685999999998,-95.09298100000001,2827,9322,294501,266453,280477,-1749,219557.0
77536,"402 LINCOLN ST, DEER PARK, TX 77536",29.671513,-95.119466,1966,7810,215711,195167,205439,1418,150000.0
77536,"2122 PICKERTON DR, DEER PARK, TX 77536",29.675440999999996,-95.134052,1302,7218,140997,120855,134283,-512,86461.0
77536,"3009 DOW CIR, DEER PARK, TX 77536",29.684361,-95.12002199999999,2469,21057,296957,252963,274960,1564,183477.0
77536,"806 E X ST, DEER PARK, TX 77536",29.694732000000002,-95.11354,2071,8189,205839,186235,196037,-591,154712.0
77536,"2710 CRESTWOOD DR, DEER PARK, TX 77536",29.68618,-95.10121600000001,2749,6050,280494,253780,267137,1423,238175.0
77536,"701 BROWN LN, DEER PARK, TX 77536",29.670069,-95.116636,2145,7148,205504,185932,195718,192,164583.0
77536,"2518 GARRETT BLVD, DEER PARK, TX 77536",29.676942999999998,-95.094382,2120,7501,210602,190544,200573,1489,185827.0
77536,"2006 CONCORD ST, DEER PARK, TX 77536",29.68485,-95.141997,2073,10271,204716,185220,194968,-2518,161659.0
77536,"2310 W LAWTHER DR, DEER PARK, TX 77536",29.690845,-95.110309,3114,11970,375029,325497,353801,-5409,325895.0
77536,"4601 COLLEGE PARK DR, DEER PARK, TX 77536",29.668134999999996,-95.11394200000001,1521,6930,180291,163121,171706,331,141852.0
77536,"1513 WASHINGTON DR, DEER PARK, TX 77536",29.6791,-95.108699,1601,7800,192194,159247,183042,-1802,152308.0
77536,"3002 LUELLA AVE, DEER PARK, TX 77536",29.682734999999997,-95.11336800000001,2196,11522,233322,207155,218058,-3197,150180.0
77536,"3106 ABBY LN, DEER PARK, TX 77536",29.683595,-95.11868100000001,2763,14501,314375,284435,299405,-1382,275979.0
77536,"2120 PLUNKETT ST, DEER PARK, TX 77536",29.681413,-95.140491,2208,16452,276690,224343,249270,-3074,249000.0
77536,"2821 SAN MARCOS DR, DEER PARK, TX 77536",29.686627,-95.097981,2194,7123,258496,233878,246187,-3355,227751.0
77536,"2146 LONGWOOD DR, DEER PARK, TX 77536",29.682919000000002,-95.101446,2331,10873,274637,248481,261559,-1534,228596.0
77536,"1409 HOOVER DR, DEER PARK, TX 77536",29.687719,-95.11035,1620,8184,204611,185125,194868,-1586,169882.0
77536,"2301 ST PATRICK LN, DEER PARK, TX 77536",29.70427,-95.1151,2904,12601,407332,353533,384275,-2107,380839.0
77536,"2209 KILLARNEY LN, DEER PARK, TX 77536",29.68934,-95.129932,2300,14845,274170,248058,261114,821,198474.0
77536,"1314 ATLANTA ST, DEER PARK, TX 77536",29.686718,-95.138378,2550,7754,224780,201454,212057,2236,181966.0
77536,"3409 KNOB HILL ST, DEER PARK, TX 77536",29.680818,-95.11440400000001,2075,9801,211424,191288,201356,-6724,161607.0
77536,"1109 E BROWN LN, DEER PARK, TX 77536",29.670071999999998,-95.111874,1440,7405,181616,164320,172968,1080,149253.0
77536,"1126 E AMHERST LN, DEER PARK, TX 77536",29.671136999999998,-95.111962,2377,7924,226994,205376,216185,2515,184183.0
77536,"2613 GALLUP DR, DEER PARK, TX 77536",29.686922999999997,-95.094883,2281,7840,269115,243485,256300,2278,218525.0
77536,"2621 PICKERTON DR, DEER PARK, TX 77536",29.675791999999998,-95.12870699999999,1441,7022,171307,153361,163150,4010,130382.0
77536,"1622 N PARK SIDE DR, DEER PARK, TX 77536",29.684047999999997,-95.106188,2078,7148,225092,201733,212351,2149,178618.0
77536,"2202 ERIN GLEN CT, DEER PARK, TX 77536",29.689162,-95.135319,3968,14720,421082,370396,389891,-998,284328.0
77536,"1606 MADISON DR, DEER PARK, TX 77536",29.67735,-95.107557,1620,7150,190914,161822,181823,-2100,155255.0
77536,"1509 CLEVELAND DR, DEER PARK, TX 77536",29.673877,-95.106563,1752,7667,201663,182457,192060,878,157724.0
77536,"1310 GARDEN PARK DR, DEER PARK, TX 77536",29.697217,-95.109649,2197,10441,267667,239626,254921,-2109,180000.0
77536,"1913 EASTWIND DR, DEER PARK, TX 77536",29.693680999999998,-95.130292,1340,7549,186220,168484,177352,9101,139020.0
77536,"1102 N AMY DR, DEER PARK, TX 77536",29.691716999999997,-95.111874,1991,8316,209201,187491,197359,-1876,145900.0
77536,"2226 W SHANNON ST, DEER PARK, TX 77536",29.6895,-95.132235,2001,8394,201417,182235,191826,-1353,149369.0
77536,"406 LINCOLN ST, DEER PARK, TX 77536",29.671514000000002,-95.119423,1470,7153,185471,167807,176639,-504,145395.0
77536,"513 N CROCKETT ST, DEER PARK, TX 77536",29.667866999999998,-95.119357,1499,7022,187487,169631,178559,-2181,145106.0
77536,"3605 DOWNING CIR, DEER PARK, TX 77536",29.679321999999996,-95.115537,1793,7370,212938,192658,202798,-5942,189766.0
77536,"1209 DUTCH ST, DEER PARK, TX 77536",29.700394,-95.125238,1297,5001,154692,139960,147326,1341,115246.0
77536,"2425 PICKERTON DR, DEER PARK, TX 77536",29.67574,-95.13233000000001,1221,7022,160847,142465,153188,236,123211.0
77536,"914 BRIARWOOD CT, DEER PARK, TX 77536",29.694271999999998,-95.130574,1542,8141,190372,172242,181307,15247,147582.0
77536,"2438 HENDERSON LN, DEER PARK, TX 77536",29.686849,-95.132646,1990,7484,205761,184408,194114,-189,186828.0
77536,"3205 PARK MEADOWS AVE, DEER PARK, TX 77536",29.68341,-95.108188,2068,8250,221785,200663,211224,-61,176968.0
77536,"2322 W CLARE ST, DEER PARK, TX 77536",29.690627000000003,-95.13401400000001,1330,7475,145318,126125,137092,-333,119000.0
77536,"2222 WAYSIDE CT, DEER PARK, TX 77536",29.691409999999998,-95.140188,1635,7801,207508,187746,197627,1143,171544.0
77536,"2006 WILLOWBEND DR, DEER PARK, TX 77536",29.693369,-95.140006,1396,7670,194707,176163,185435,-316,145309.0
77536,"1009 WILLOWBRIAR LN, DEER PARK, TX 77536",29.693740999999996,-95.132747,1803,8141,204904,185390,195147,3298,169861.0
77536,"3213 PARK HAVEN LN, DEER PARK, TX 77536",29.680108,-95.10629899999999,1692,7797,201739,182525,192132,-1842,164193.0
77536,"1806 WILDWOOD DR, DEER PARK, TX 77536",29.692557,-95.141899,1396,7736,195568,176942,186255,140,149237.0
77536,"3505 KNOB HILL ST, DEER PARK, TX 77536",29.680090000000003,-95.114386,2060,9801,217423,196717,207070,-6370,149000.0
77536,"1302 WILDWOOD DR, DEER PARK, TX 77536",29.69265,-95.134958,1864,9013,212293,192075,202184,1052,184236.0
77536,"1510 HOOVER DR, DEER PARK, TX 77536",29.687465000000003,-95.109165,1497,8185,198155,179283,188719,407,158003.0
77536,"2709 LUELLA AVE, DEER PARK, TX 77536",29.688653000000002,-95.11317199999999,2115,54450,256413,213677,237419,5909,169649.0
77536,"2301 E LAWTHER DR, DEER PARK, TX 77536",29.690799,-95.109573,5657,11970,456285,401362,422486,-299,339165.0
77536,"801 E X ST, DEER PARK, TX 77536",29.695007,-95.11348199999999,1536,18591,186360,168612,177486,-671,144208.0
77536,"1914 WYNRIDGE DR, DEER PARK, TX 77536",29.698058000000003,-95.103374,2688,7283,302538,263320,280128,5708,236405.0
77536,"2417 GEORGIA AVE, DEER PARK, TX 77536",29.688333,-95.134215,2255,9174,214492,194064,204278,-377,174000.0
77536,"210 E OAK ST, DEER PARK, TX 77536",29.693244,-95.122244,1264,7200,152151,136212,144906,-958,132881.0
77536,"1305 ATLANTA ST, DEER PARK, TX 77536",29.686988,-95.13849300000001,2279,7754,209645,189679,199662,-552,176817.0
77536,"2133 TALLOWWOOD DR, DEER PARK, TX 77536",29.682854,-95.100601,2500,7000,278911,252349,265630,556,233105.0
77536,"2113 SUGAR HILL DR, DEER PARK, TX 77536",29.687748,-95.101259,1900,6050,247639,224055,235847,-915,201589.0
77536,"202 E FORREST LN, DEER PARK, TX 77536",29.691603000000004,-95.12225500000001,2143,8999,227070,201604,212215,-1547,177791.0
77536,"3901 W COURT ST, DEER PARK, TX 77536",29.676557,-95.114424,2318,8411,244271,221007,232639,-1255,198464.0
77536,"4423 DAVE ALVIN DR, DEER PARK, TX 77536",29.70427,-95.1151,1982,7000,255569,231229,243399,-439,221067.0
77536,"1313 BROOKHOLLOW DR, DEER PARK, TX 77536",29.683509,-95.13603,1665,7353,200362,181280,190821,187,152617.0
77536,"1305 SEMINOLE ST, DEER PARK, TX 77536",29.693446,-95.109424,2043,10014,266141,231641,246427,851,214551.0
77536,"1206 WILLOWBRIAR LN, DEER PARK, TX 77536",29.693492,-95.130516,2478,7606,263787,238665,251226,-981,192192.0
77536,"2714 RUIDOSO CIR, DEER PARK, TX 77536",29.68961,-95.09429899999999,1848,7645,227168,199307,214309,4035,202067.0
77536,"2705 RUIDOSO CIR, DEER PARK, TX 77536",29.689334000000002,-95.094389,1462,5998,191989,156436,177768,-148,180320.0
77536,"3113 PARK SHADOW LN, DEER PARK, TX 77536",29.682663,-95.110509,1658,14349,209651,189685,199668,-1084,172133.0
77536,"2234 MOSSEY CREEK DR, DEER PARK, TX 77536",29.681363,-95.09916899999999,1918,6220,253530,229384,241457,-1521,199604.0
77536,"3601 CHRISTY ST, DEER PARK, TX 77536",29.677386,-95.112668,1992,16653,212857,192585,202721,-2669,160000.0
77536,"122 E FORREST LN, DEER PARK, TX 77536",29.69159,-95.123212,2200,12000,210888,177693,195267,-2852,149530.0
77536,"2201 KINGWOOD DR, DEER PARK, TX 77536",29.685488,-95.100224,1,5968,255327,231011,243169,-2854,204311.0
77536,"2106 MOSSEY CREEK DR, DEER PARK, TX 77536",29.680825,-95.101141,1625,6098,203588,180540,192064,-312,180100.0
77536,"1705 ATLANTA ST, DEER PARK, TX 77536",29.686987,-95.13857800000001,1669,7754,200353,181271,190812,571,156886.0
77536,"1818 WILDWOOD DR, DEER PARK, TX 77536",29.692559000000003,-95.141785,1580,7735,202138,182886,192512,-2141,150244.0
77536,"1806 JANELL RENE CIR, DEER PARK, TX 77536",29.695735,-95.107376,2198,9100,278533,252007,265270,-7581,261373.0
77536,"2325 WAKE FOREST DR, DEER PARK, TX 77536",29.690198,-95.140757,1922,11177,218382,197584,207983,-887,182000.0
77536,"1802 MEADOW LARK ST, DEER PARK, TX 77536",29.697768,-95.11760500000001,2384,17171,250806,226920,238863,3079,194683.0
77536,"3309 PARK HAVEN LN, DEER PARK, TX 77536",29.680747999999998,-95.106306,1661,7797,202300,183034,192667,-1484,165271.0
77536,"1814 PARK AVE, DEER PARK, TX 77536",29.694882,-95.120922,1443,7148,180942,163710,172326,2016,139034.0
77536,"1609 JOSHUA TREE LN, DEER PARK, TX 77536",29.688402000000004,-95.105586,2711,7275,338857,306585,322721,4387,296053.0
77536,"409 TUDOR CT, DEER PARK, TX 77536",29.677946999999996,-95.118937,1618,7227,211655,191497,201576,1289,168724.0
77536,"1126 E RUTGERS LN, DEER PARK, TX 77536",29.668713,-95.1123,1472,7200,181992,164660,173326,1017,145506.0
77536,"2009 KERRY DR, DEER PARK, TX 77536",29.693394,-95.12749699999999,2551,12841,296311,268091,282201,-209,201734.0
77536,"2018 DEERTRAIL ST, DEER PARK, TX 77536",29.693608,-95.103778,2320,21806,305389,276305,290847,705,255000.0
77536,"1101 BAYOU VISTA DR, DEER PARK, TX 77536",29.673294,-95.134047,1663,6891,184835,167231,176033,-1234,157834.0
77536,"917 MARLENE ST, DEER PARK, TX 77536",29.702853,-95.11543,1339,7370,139434,113371,130312,-27288,121131.0
77536,"2602 GREEN VALLEY DR, DEER PARK, TX 77536",29.674858,-95.093784,1675,7000,191504,173266,182385,-1734,164560.0
77536,"413 TEMPERANCE LN, DEER PARK, TX 77536",29.671046,-95.11756700000001,1676,7148,205975,186359,196167,-2198,163000.0
77536,"306 CRETE DR, DEER PARK, TX 77536",29.696983000000003,-95.120752,1777,7705,198974,180024,189499,-538,154827.0
77536,"3502 KNOB HILL ST, DEER PARK, TX 77536",29.680442,-95.114079,1988,9801,211843,191667,201755,-6405,149000.0
77536,"3001 VILLAGE LN, DEER PARK, TX 77536",29.6845,-95.115812,1745,7392,207863,188067,197965,-1833,164334.0
77536,"4209 JUSTIN LN, DEER PARK, TX 77536",29.674346000000003,-95.114267,1978,7022,209480,189530,199505,566,144710.0
77536,"1606 KARANKAWAS CT, DEER PARK, TX 77536",29.696741999999997,-95.11007099999999,2486,15860,314708,278741,299722,2154,294178.0
77536,"2313 FAY CT, DEER PARK, TX 77536",29.689773,-95.114152,2040,7423,212184,191976,202080,1150,170453.0
77536,"3705 ELIZABETH ST, DEER PARK, TX 77536",29.678148999999998,-95.110122,1595,7505,194122,161158,183134,-3098,146259.0
77536,"757 ACADEMY LN, DEER PARK, TX 77536",29.665177000000003,-95.115729,1812,8520,203799,184389,194094,-1313,160726.0
77536,"613 YORKSHIRE CT, DEER PARK, TX 77536",29.676501000000002,-95.11747700000001,1561,7235,211245,191127,201186,-5,172172.0
77536,"2625 KINGSDALE DR, DEER PARK, TX 77536",29.67657,-95.127945,1006,7022,132785,116345,126462,1525,73327.0
77536,"3214 BROOKHOLLOW DR, DEER PARK, TX 77536",29.683203999999996,-95.136792,1547,7950,198768,179838,189303,1944,154101.0
77536,"1417 WEXFORD DR, DEER PARK, TX 77536",29.693675,-95.13735799999999,1662,7606,202492,183208,192850,981,174285.0
77536,"609 TUDOR CT, DEER PARK, TX 77536",29.677971000000003,-95.117532,1947,7227,234888,212518,223703,7784,185535.0
77536,"2633 AUGUSTA DR, DEER PARK, TX 77536",29.684641999999997,-95.094516,3402,7800,347459,314367,330913,-587,304828.0
77536,"3214 PARK VISTA LN, DEER PARK, TX 77536",29.680128000000003,-95.105098,1848,7854,201583,182385,191984,-5998,156038.0
77536,"1109 CAROLYN ST, DEER PARK, TX 77536",29.696884999999998,-95.111687,1312,6956,178775,161749,170262,-891,130271.0
77536,"2410 SAVANNAH BND, DEER PARK, TX 77536",29.694368,-95.097464,5170,21780,527925,477647,502786,2476,493815.0
77536,"2414 SEGUINE DR, DEER PARK, TX 77536",29.688514,-95.096971,2144,6216,248571,224897,236734,-1512,213077.0
77536,"2505 CLOUDCROFT DR, DEER PARK, TX 77536",29.686083,-95.096775,1900,5998,250726,226848,238787,-3492,208596.0
77536,"2618 SAN MARCOS DR, DEER PARK, TX 77536",29.684998999999998,-95.097626,1922,6473,247542,223966,235754,-1092,190874.0
77536,"510 BOONE CT, DEER PARK, TX 77536",29.668344,-95.118612,1775,7022,214181,193783,203982,-995,163105.0
77536,"3305 SOMERSET LN, DEER PARK, TX 77536",29.680501,-95.103538,2700,7802,317625,287375,302500,1539,266858.0
77536,"1406 LUELLA AVE, DEER PARK, TX 77536",29.698401,-95.113713,1962,12384,219124,198256,208690,-1921,177542.0
77536,"3213 BROOKHURST LN, DEER PARK, TX 77536",29.682757000000002,-95.13261899999999,1310,7349,178221,161247,169734,4618,134867.0
77536,"2106 KINGSDALE DR, DEER PARK, TX 77536",29.676174,-95.136715,1008,7022,138859,125635,132247,1610,92343.0
77536,"1002 BRIARWOOD CT, DEER PARK, TX 77536",29.694265,-95.131361,1492,8141,191064,172868,181966,12241,147924.0
77536,"7437 FAITH DR, DEER PARK, TX 77536",29.668481,-95.123654,1386,7440,167318,137171,150737,2847,96109.0
77536,"2314 E CLARE ST, DEER PARK, TX 77536",29.690254,-95.133129,1654,7474,195072,176494,185783,-133,145581.0
77536,"313 AMBER CIR, DEER PARK, TX 77536",29.682012,-95.126349,1805,9400,238816,216072,227444,911,198550.0
77536,"3917 POLK LN, DEER PARK, TX 77536",29.675244,-95.108878,1816,12740,208538,188678,198608,-1067,171787.0
77536,"2402 LESLIE LN, DEER PARK, TX 77536",29.690453,-95.09589100000001,4196,12894,439793,386855,407216,-19943,376011.0
77536,"402 TUDOR CT, DEER PARK, TX 77536",29.678221,-95.118984,1433,7227,186205,168471,177338,642,151437.0
77536,"2506 PARK MEADOWS AVE, DEER PARK, TX 77536",29.687676,-95.10799399999999,2090,7754,224339,202973,213656,207,192486.0
77536,"2225 LOUISIANA AVE, DEER PARK, TX 77536",29.691938,-95.142629,1723,8377,212015,191823,201919,462,178794.0
77536,"2118 CANYON LAKE DR, DEER PARK, TX 77536",29.688208000000003,-95.101192,2444,7474,288580,261096,274838,2011,254049.0
77536,"2101 SUGAR HILL DR, DEER PARK, TX 77536",29.687746999999998,-95.10138,3051,9513,321192,290602,305897,26,267324.0
77536,"2517 PINE BROOK DR, DEER PARK, TX 77536",29.684172999999998,-95.09563100000001,3544,8320,374555,338883,356719,1545,309100.0
77536,"1714 LEXINGTON ST, DEER PARK, TX 77536",29.685619,-95.141958,1534,9100,197681,178855,188268,2987,146826.0
77536,"2213 E REATA DR, DEER PARK, TX 77536",29.691833000000003,-95.10573199999999,2397,11604,359443,300625,326766,-2741,349013.0
77536,"3013 ABBY LN, DEER PARK, TX 77536",29.684359999999998,-95.11829200000001,1910,13852,245663,210900,231758,-2490,213884.0
77536,"4613 MEADOW WAY DR, DEER PARK, TX 77536",29.668034000000002,-95.103429,1568,5001,236350,213840,225095,357,182509.0
77536,"814 E X ST, DEER PARK, TX 77536",29.694731,-95.113623,2352,8189,221587,200483,211035,-168,167551.0
77536,"1506 WESLEY LN, DEER PARK, TX 77536",29.697506,-95.111068,2496,11191,303857,272025,289388,3807,238705.0
77536,"2601 ESTATE DR, DEER PARK, TX 77536",29.677312,-95.128393,2182,7021,211472,191332,201402,1640,157326.0
77536,"2806 SAN MARCOS DR, DEER PARK, TX 77536",29.68652,-95.097662,2856,6473,303120,274252,288686,-1356,249196.0
77536,"1301 COMANCHE ST, DEER PARK, TX 77536",29.694584999999996,-95.109482,2052,6957,258434,231616,243806,5295,186000.0
77536,"1206 E PRINCETON LN, DEER PARK, TX 77536",29.666348,-95.111406,1344,7322,175799,155708,167428,2073,139340.0
77536,"2817 WISDOM DR, DEER PARK, TX 77536",29.675036,-95.12464200000001,1832,7754,204006,184576,194291,-490,139962.0
77536,"821 IVY AVE, DEER PARK, TX 77536",29.703758,-95.12039,1930,7980,211806,189617,201720,-1388,149289.0
77536,"2501 PINE LAKE DR, DEER PARK, TX 77536",29.688901,-95.09954300000001,3519,7475,347057,311041,327412,-487,297751.0
77536,"1818 WHITEBRIAR DR, DEER PARK, TX 77536",29.694141,-95.141755,1396,7671,192556,174218,183387,-186,152325.0
77536,"3609 POLK LN, DEER PARK, TX 77536",29.678219,-95.108948,2917,12737,295425,246639,271032,3973,184684.0
77536,"2206 APPLE SPRING DR, DEER PARK, TX 77536",29.685979,-95.099857,1996,6399,259728,234992,247360,-5149,209853.0
77536,"2118 CAMDON DR, DEER PARK, TX 77536",29.690385,-95.101247,2302,6599,258808,234160,246484,-317,227714.0
77536,"3905 REGENCY DR, DEER PARK, TX 77536",29.675879,-95.120488,2023,7492,252351,228317,240334,735,198241.0
77536,"1414 PARK AVE, DEER PARK, TX 77536",29.697954,-95.12098,1465,6710,170081,152263,161982,-376,134503.0
77536,"1902 DUBLIN DR, DEER PARK, TX 77536",29.694471000000004,-95.129577,2242,10550,272458,246510,259484,-136,203657.0
77536,"742 YALE LN, DEER PARK, TX 77536",29.672639,-95.114898,1948,7527,205851,186247,196049,225,162890.0
77536,"2430 TAYLOR LN, DEER PARK, TX 77536",29.688734000000004,-95.120541,1658,7448,197300,178510,187905,-1316,145550.0
77536,"2221 W LONESOME DOVE DR, DEER PARK, TX 77536",29.691871999999996,-95.104816,2581,11522,366267,317892,345535,-1715,370000.0
77536,"2801 ESTATE DR, DEER PARK, TX 77536",29.67734,-95.125628,1441,6695,162101,145119,154382,4511,132417.0
77536,"1106 BAYOU VISTA DR, DEER PARK, TX 77536",29.67302,-95.133995,1646,9426,192344,172194,183185,-242,156111.0
77536,"1709 JOSHUA TREE LN, DEER PARK, TX 77536",29.688391999999997,-95.10644,2240,7801,297642,266754,280794,-1519,276322.0
77536,"7438 VALEDA DR, DEER PARK, TX 77536",29.6715,-95.123627,1083,7440,143732,123199,136888,916,108700.0
77536,"1901 N EVERGLADES DR, DEER PARK, TX 77536",29.687621000000004,-95.10360899999999,2574,8181,320086,280456,304844,-4352,311409.0
77536,"1301 DENISE ST, DEER PARK, TX 77536",29.677263,-95.111639,2006,9713,231527,205317,218422,-5947,206000.0
77536,"4210 FLEET LN, DEER PARK, TX 77536",29.674249,-95.118155,1358,7021,173974,155749,165690,1720,132372.0
77536,"3710 FILMORE LN, DEER PARK, TX 77536",29.677527,-95.106362,1680,6957,191328,167640,182217,-3272,156538.0
77536,"1302 KITTY ST, DEER PARK, TX 77536",29.675542,-95.110079,1426,7812,181723,164417,173070,113,139907.0
77536,"3206 BROOKMEADE CT, DEER PARK, TX 77536",29.681908,-95.135439,1992,7353,207660,187882,197771,294,174575.0
77536,"2314 E VAN TREASE DR, DEER PARK, TX 77536",29.690815,-95.10735600000001,2396,7801,290201,262563,276382,-1379,248681.0
77536,"2218 CAMDON DR, DEER PARK, TX 77536",29.690395000000002,-95.100222,2840,6799,292371,264527,278449,194,252000.0
77536,"1125 JEFFREY ST, DEER PARK, TX 77536",29.686169,-95.113174,1406,6891,184101,164814,175334,-2813,162756.0
77536,"3814 DOWNING CIR, DEER PARK, TX 77536",29.677561999999998,-95.115165,1622,7653,211896,189698,201806,-3334,197689.0
77536,"2405 TYLER LN, DEER PARK, TX 77536",29.688786,-95.13196500000001,3399,7540,282435,240593,261514,-3159,118863.0
77536,"905 ARBOR DR, DEER PARK, TX 77536",29.674598,-95.113512,2259,8594,212257,192043,202150,1657,160333.0
77536,"714 GALWAY DR, DEER PARK, TX 77536",29.69296,-95.128889,2366,10267,282089,252816,266122,-72,211280.0
77536,"1121 N AMY DR, DEER PARK, TX 77536",29.692064000000002,-95.11177099999999,2297,7453,233494,211256,222375,-162,186023.0
77536,"1710 ASBURY LN, DEER PARK, TX 77536",29.6966,-95.10837099999999,2447,7301,283060,253686,267038,2969,209197.0
77536,"1113 GRACE ST, DEER PARK, TX 77536",29.701415,-95.113467,1477,6420,164935,140501,152718,-658,120282.0
77536,"4213 GLACIER LN, DEER PARK, TX 77536",29.673247999999997,-95.117377,1376,7022,170957,153216,161280,3422,120104.0
77536,"1122 JEFFREY ST, DEER PARK, TX 77536",29.685895000000002,-95.113158,1100,6891,158023,138458,150498,2011,133177.0
77536,"2325 PICKERTON DR, DEER PARK, TX 77536",29.67577,-95.130461,1578,7022,179552,162452,171002,2610,139120.0
77536,"206 E OAK ST, DEER PARK, TX 77536",29.693243,-95.12229,2095,7200,206496,186830,196663,-1097,152923.0
77536,"1114 E DARTMOUTH LN, DEER PARK, TX 77536",29.667119,-95.112365,1956,7200,207377,187627,197502,1830,164446.0
77536,"1117 E BROWN LN, DEER PARK, TX 77536",29.670073,-95.111819,1440,7320,181436,157244,172796,-765,156776.0
77536,"213 W HIGHLINE DR, DEER PARK, TX 77536",29.69267,-95.124977,2005,12502,199161,156747,184408,-8007,140047.0
77536,"2602 CRESTMONT DR, DEER PARK, TX 77536",29.687609000000002,-95.099202,2577,9652,289295,261743,275519,-1133,239571.0
77536,"1921 EASTWIND DR, DEER PARK, TX 77536",29.693749,-95.130292,1696,9479,201115,181961,191538,989,158263.0
77536,"738 BROWN LN, DEER PARK, TX 77536",29.670234999999998,-95.114696,1482,7560,184200,166658,175429,967,142330.0
77536,"1318 NEW ORLEANS ST, DEER PARK, TX 77536",29.688434,-95.138341,1684,7754,196836,178090,187463,1195,146082.0
77536,"2126 WOODLANDS DR, DEER PARK, TX 77536",29.683348,-95.10101,2155,10258,262219,235007,247376,-1670,214128.0
77536,"3809 W COURT ST, DEER PARK, TX 77536",29.676537,-95.11518199999999,1840,7671,210329,190297,200313,-3631,183932.0
77536,"1310 BAYOU VISTA DR, DEER PARK, TX 77536",29.673036,-95.132335,2282,6890,261354,236464,248909,-1650,185631.0
77536,"2017 HILLSHIRE DR, DEER PARK, TX 77536",29.677946000000002,-95.137955,1200,7022,158691,139043,151134,95,136972.0
77536,"1116 JAMES ST, DEER PARK, TX 77536",29.699927000000002,-95.120308,901,6250,127955,106020,121862,451,84053.0
77536,"4309 COLLEGE PARK DR, DEER PARK, TX 77536",29.672242999999998,-95.114049,3000,6821,313619,250895,285108,-1201,156621.0
77536,"4529 COLLEGE PARK DR, DEER PARK, TX 77536",29.669358000000003,-95.11393199999999,1960,6930,204599,185113,194856,320,167185.0
77536,"618 TEMPERANCE LN, DEER PARK, TX 77536",29.671618,-95.117232,1777,7280,215498,194974,205236,130,168008.0
77536,"1305 DENISE ST, DEER PARK, TX 77536",29.677263,-95.111674,1803,9714,207104,183658,195381,-2688,107000.0
77536,"3906 FILMORE LN, DEER PARK, TX 77536",29.676323999999997,-95.10635500000001,1554,6957,186468,168710,177589,-3810,148025.0
77536,"2605 LUFKIN LN, DEER PARK, TX 77536",29.686365999999996,-95.133202,1758,7370,215296,188891,203109,1662,187717.0
