zip,address,lat,lng,house area,lot area,high,low,estimate,month value change,property tax
77546,"1700 W PARKWOOD AVE, FRIENDSWOOD, TX 77546",29.493679999999998,-95.208505,15908,534046,4295051,2045262,2556578,-1753,2291500.0
77546,"1904 BLUE QUAIL DR, FRIENDSWOOD, TX 77546",29.496753000000002,-95.19090200000001,3317,12415,412590,361508,392943,3401,335000.0
77546,"1230 TORCHWOOD DR, FRIENDSWOOD, TX 77546",29.504901,-95.159494,3522,13430,397108,352573,371129,7,329362.0
77546,"2312 HALLS CREEK CT, FRIENDSWOOD, TX 77546",29.497612,-95.177878,4784,11586,693504,598935,630458,-26644,541810.0
77546,"707 BRIARMEADOW AVE, FRIENDSWOOD, TX 77546",29.511228999999997,-95.198521,1723,17998,258577,233951,246264,5143,200900.0
77546,"4140 LIVORNO LN, FRIENDSWOOD, TX 77546",29.503991999999997,-95.164996,3369,5001,340969,302730,318663,2804,288857.0
77546,"909 HIGH RIDGE DR, FRIENDSWOOD, TX 77546",29.496194,-95.18888199999999,3960,11700,448016,374032,411024,1520,416930.0
77546,"201 OAK DR, FRIENDSWOOD, TX 77546",29.505542,-95.179008,2554,23000,341022,290028,318712,-6441,247290.0
77546,"3537 FIRENZE DR, FRIENDSWOOD, TX 77546",29.504614,-95.165818,2828,5505,309293,279837,294565,-471,269643.0
77546,"1408 W CASTLEWOOD AVE, FRIENDSWOOD, TX 77546",29.503622999999997,-95.21483,2100,14680,285570,252933,271971,-1144,271660.0
77546,"215 PECAN VALLEY CT, FRIENDSWOOD, TX 77546",29.485205999999998,-95.219462,2380,18447,302149,231375,272206,-8446,205490.0
77546,"519 HEATHER LN, FRIENDSWOOD, TX 77546",29.514362,-95.197751,1410,9365,213566,163542,192402,-3797,125340.0
77546,"211 CEDAR OAK ST, FRIENDSWOOD, TX 77546",29.523484000000003,-95.198559,2368,37157,424778,346837,389705,2179,326360.0
77546,"4430 SAFFRON LN, FRIENDSWOOD, TX 77546",29.521887,-95.182239,1654,18830,216556,195932,206244,1221,134033.0
77546,"105 PALM AIRE DR, FRIENDSWOOD, TX 77546",29.48793,-95.222476,2056,10280,247283,208359,228966,-2782,181250.0
77546,"613 E CASTLE HARBOUR DR, FRIENDSWOOD, TX 77546",29.492358000000003,-95.21597299999999,2045,11661,256204,226924,244004,214,204350.0
77546,"1107 HACKBERRY BRANCH LN, FRIENDSWOOD, TX 77546",29.51864,-95.19283,4663,11674,819727,711461,773327,1059,600380.0
77546,"56 HIDEAWAY DR, FRIENDSWOOD, TX 77546",29.517208,-95.19144,1411,7362,157258,133295,149770,2170,104620.0
77546,"4115 RAVINE DR, FRIENDSWOOD, TX 77546",29.522456,-95.17684,1685,9600,199624,180612,190118,-495,136369.0
77546,"2809 HARVEST HILL DR, FRIENDSWOOD, TX 77546",29.514491999999997,-95.15529599999999,4279,13462,471437,422049,448988,-691,358249.0
77546,"1116 TWILIGHT SPRINGS CT, FRIENDSWOOD, TX 77546",29.51864,-95.19283,4131,13883,653658,566503,622531,37030,183120.0
77546,"3504 CORTONA LN, FRIENDSWOOD, TX 77546",29.505516999999998,-95.163501,1763,5001,255946,231570,243758,16604,224526.0
77546,"2318 LAKEWAY DR, FRIENDSWOOD, TX 77546",29.477087,-95.203778,8569,15599,1691309,1186644,1363959,736,1281630.0
77546,"4313 STAGHORN LN, FRIENDSWOOD, TX 77546",29.500975,-95.15486999999999,3501,7802,376232,340400,358316,-449,376143.0
77546,"1226 MARTINEZ CT, FRIENDSWOOD, TX 77546",29.505436,-95.158541,3664,7800,374351,338699,356525,-4003,345472.0
77546,"403 SUNSET DR, FRIENDSWOOD, TX 77546",29.521535999999998,-95.209439,9273,400534,1771175,1358919,1526875,-6934,1180000.0
77546,"3404 CORTONA LN, FRIENDSWOOD, TX 77546",29.506813,-95.163951,2501,5000,308484,276166,293794,1660,251952.0
77546,"1728 PAMPAS TRAIL DR, FRIENDSWOOD, TX 77546",29.496688,-95.19905899999999,6288,11718,730154,576437,640486,4046,613890.0
77546,"110 CANAL DR, FRIENDSWOOD, TX 77546",29.466091,-95.228277,3380,113082,619846,467511,525293,5280,298660.0
77546,"1711 ORLANDO ST, FRIENDSWOOD, TX 77546",29.479812,-95.216814,3896,15335,428858,348447,382909,-636,314990.0
77546,"1208 RED WING DR, FRIENDSWOOD, TX 77546",29.493439000000002,-95.192097,2462,18861,336211,300989,320201,-2824,270000.0
77546,"1922 ROLLING STONE DR, FRIENDSWOOD, TX 77546",29.490054999999998,-95.200533,3106,11718,417412,362282,393785,-3507,356760.0
77546,"313 GARDEN DR, FRIENDSWOOD, TX 77546",29.524261,-95.208164,2087,12148,241894,218856,230375,-18326,152250.0
77546,"2858 MARTINA DR, FRIENDSWOOD, TX 77546",29.47451,-95.224295,2722,12196,332726,271110,308080,1830,291570.0
77546,"330 DAWN HILL DR, FRIENDSWOOD, TX 77546",29.486371999999996,-95.221564,1894,9235,231781,203355,218661,1261,177600.0
77546,"3736 LAURA LEIGH DR, FRIENDSWOOD, TX 77546",29.524554,-95.172688,1460,3411,140384,125677,133699,517,115569.0
77546,"1402 SILVERLEAF DR, FRIENDSWOOD, TX 77546",29.513021000000002,-95.191355,2311,12541,331098,293258,315331,509,289210.0
77546,"248 E CASTLE HARBOUR DR, FRIENDSWOOD, TX 77546",29.483384,-95.221087,2040,9600,244744,214443,233090,-291,159500.0
77546,"623 HEATHER LN, FRIENDSWOOD, TX 77546",29.513410999999998,-95.198817,1690,9375,252575,211245,229614,-2230,162750.0
77546,"906 NOTTINGHAM WAY, FRIENDSWOOD, TX 77546",29.513515,-95.203102,2262,17555,311138,270806,288091,-278,250840.0
77546,"910 MERRIEWOOD DR, FRIENDSWOOD, TX 77546",29.516838,-95.198176,2188,19000,287382,244806,266094,1273,203870.0
77546,"2525 W RANCH DR, FRIENDSWOOD, TX 77546",29.496173,-95.172061,4555,13490,691416,584561,628560,-15365,525270.0
77546,"1113 MAXI CIR, FRIENDSWOOD, TX 77546",29.501523,-95.15928100000001,3743,12308,401118,362916,382017,2818,349900.0
77546,"536 GLENEAGLES DR, FRIENDSWOOD, TX 77546",29.490588,-95.21919100000001,2552,16466,320258,235980,280928,-9912,224310.0
77546,"212 PALM AIRE DR, FRIENDSWOOD, TX 77546",29.487468,-95.22349399999999,2270,9845,251552,218011,239573,-2302,190590.0
77546,"2810 BURR OAK DR, FRIENDSWOOD, TX 77546",29.513492,-95.154958,4523,18770,488076,441592,464834,-11236,432866.0
77546,"2606 TAMPA ST, FRIENDSWOOD, TX 77546",29.478834000000003,-95.219188,2898,12066,358087,301721,331562,7028,311150.0
77546,"2884 BRIDLE PATH LN, FRIENDSWOOD, TX 77546",29.475146999999996,-95.228038,3653,49092,620744,520982,554236,-13384,517960.0
77546,"3105 AUTUMN LEAF DR, FRIENDSWOOD, TX 77546",29.514338000000002,-95.162027,3009,9801,298103,264034,283908,-1020,219698.0
77546,"1106 BOB WHITE DR, FRIENDSWOOD, TX 77546",29.496209000000004,-95.192973,3263,13155,395106,353714,376291,1539,343640.0
77546,"317 OVERLOOK DR, FRIENDSWOOD, TX 77546",29.500460999999998,-95.18216899999999,3700,13504,443395,389525,414388,4466,398730.0
77546,"1208 TWIN OAKS ST, FRIENDSWOOD, TX 77546",29.496418,-95.194564,2912,12981,361676,311443,334885,2627,293120.0
77546,"427 W CASTLE HARBOUR DR, FRIENDSWOOD, TX 77546",29.488729,-95.222463,1758,13861,246692,210480,226323,-2884,166390.0
77546,"2501 MARBLE HOLLOW CT, FRIENDSWOOD, TX 77546",29.51864,-95.19283,3838,9888,567577,479860,515979,5845,419000.0
77546,"16915 STAR DALE LN, FRIENDSWOOD, TX 77546",29.522669,-95.17836,1484,8882,198829,179893,189361,169,107039.0
77546,"1040 BOLIVAR POINT LN, FRIENDSWOOD, TX 77546",29.51864,-95.19283,4127,10281,657962,534979,614918,107,515140.0
77546,"1101 PINE HOLLOW DR, FRIENDSWOOD, TX 77546",29.518390999999998,-95.219926,2746,41818,506069,417285,443920,-7862,398290.0
77546,"124 SAINT CLOUD DR, FRIENDSWOOD, TX 77546",29.481890000000003,-95.225619,2580,10062,283105,243043,267080,-3947,217280.0
77546,"2456 MORNING RIDGE LN, FRIENDSWOOD, TX 77546",29.51864,-95.19283,4126,9993,742794,371397,530567,-1701,53810.0
77546,"910 W CASTLEWOOD AVE, FRIENDSWOOD, TX 77546",29.51265,-95.205951,5248,32017,747849,602434,692453,8267,523540.0
77546,"407 N CLEAR CREEK DR, FRIENDSWOOD, TX 77546",29.51383,-95.179262,3008,37331,367216,297111,333833,473,195350.0
77546,"1048 BOLIVAR POINT LN, FRIENDSWOOD, TX 77546",29.51864,-95.19283,3727,14369,655315,521825,606773,1286,469360.0
77546,"1008 KNOLL BRIDGE LN, FRIENDSWOOD, TX 77546",29.491509000000004,-95.187012,4851,10341,735151,571784,628334,-11318,514780.0
77546,"659 E CASTLE HARBOUR DR, FRIENDSWOOD, TX 77546",29.493454999999997,-95.21726899999999,1872,10890,211446,181524,199477,-2836,169050.0
77546,"115 OAK DR, FRIENDSWOOD, TX 77546",29.503565999999996,-95.1801,3606,57368,499169,394995,434060,6306,328170.0
77546,"1001 TIPPERARY AVE, FRIENDSWOOD, TX 77546",29.508384000000003,-95.20683199999999,2134,13128,286982,257201,270738,-1209,248060.0
77546,"2003 PEBBLE LN, FRIENDSWOOD, TX 77546",29.491159999999997,-95.193799,2438,11718,336581,301320,320553,-1016,279620.0
77546,"2101 N CENTURY CIR, FRIENDSWOOD, TX 77546",29.501232,-95.18051700000001,4680,26441,768669,695463,732066,7599,673770.0
77546,"4418 PERIDOT LN, FRIENDSWOOD, TX 77546",29.522940000000002,-95.180771,1521,7200,200030,180980,190505,2887,125356.0
77546,"1902 DESOTA ST, FRIENDSWOOD, TX 77546",29.487021999999996,-95.208821,2520,7449,278269,249117,265018,787,257380.0
77546,"4 WINDSONG LN, FRIENDSWOOD, TX 77546",29.494952,-95.215558,3044,221067,556821,417616,497162,-14268,438850.0
77546,"1108 PARKERS CREEK LN, FRIENDSWOOD, TX 77546",29.51864,-95.19283,3487,8146,458631,414951,436791,-2192,408340.0
77546,"1206 SILVERLEAF DR, FRIENDSWOOD, TX 77546",29.513589,-95.19203900000001,3613,12545,405152,351132,385859,5650,386610.0
77546,"928 LAYFAIR PL, FRIENDSWOOD, TX 77546",29.500859000000002,-95.19506700000001,2793,43645,371636,304066,337851,3396,197920.0
77546,"240 PALM AIRE DR, FRIENDSWOOD, TX 77546",29.48647,-95.224722,2355,10397,272433,228741,257012,-4961,175000.0
77546,"17130 BARCELONA DR, FRIENDSWOOD, TX 77546",29.524582000000002,-95.17192800000001,1704,7118,176919,153330,168494,-1142,147143.0
77546,"2201 KELLER BAY CT, FRIENDSWOOD, TX 77546",29.51864,-95.19283,4246,12720,650649,588683,619666,-486,608780.0
77546,"2835 TREVINO CT, FRIENDSWOOD, TX 77546",29.476618,-95.224356,3863,11926,448882,360784,419516,-3558,386800.0
77546,"2101 ZAVALLA CIR, FRIENDSWOOD, TX 77546",29.486349,-95.210062,2548,9600,287978,260552,274265,1963,240930.0
77546,"803 ESSEX DR, FRIENDSWOOD, TX 77546",29.509359999999997,-95.19906800000001,1964,11674,271023,245211,258117,5189,215580.0
77546,"1118 BOXWOOD PL, FRIENDSWOOD, TX 77546",29.51864,-95.19283,2402,7801,372965,290424,305709,1975,52650.0
77546,"1003 BUCKINGHAM CT, FRIENDSWOOD, TX 77546",29.505108,-95.19954399999999,3314,21741,492861,417378,444019,-2722,349270.0
77546,"607 HEATHER LN, FRIENDSWOOD, TX 77546",29.513023999999998,-95.197393,1604,9365,231520,193288,212404,2629,136940.0
77546,"301 LEISURE LN, FRIENDSWOOD, TX 77546",29.509218,-95.182163,2510,87120,371649,293407,326008,-3201,220050.0
77546,"16934 CREEK LINE DR, FRIENDSWOOD, TX 77546",29.520623999999998,-95.182012,1521,13198,196591,174124,187230,2835,120029.0
77546,"101 LAMAR CANYON LN, FRIENDSWOOD, TX 77546",29.495701,-95.176397,3561,12062,446886,391558,425606,2278,380000.0
77546,"31 WILDERNESS TRL, FRIENDSWOOD, TX 77546",29.499981,-95.216302,3269,138825,634815,508995,571905,-15973,450000.0
77546,"703 VICTORY TERRACE LN, FRIENDSWOOD, TX 77546",29.490382,-95.180829,2754,8059,384037,323587,355590,799,342000.0
77546,"4407 W MAPLE DR, FRIENDSWOOD, TX 77546",29.504145,-95.157554,3521,8011,364946,316287,347568,9288,321000.0
77546,"1210 RED WING DR, FRIENDSWOOD, TX 77546",29.493634000000004,-95.1919,3875,17772,433615,388189,412967,-1428,405090.0
77546,"251 E CASTLE HARBOUR DR, FRIENDSWOOD, TX 77546",29.483156,-95.220913,2177,9600,255340,231022,243181,-489,186980.0
77546,"803 W LAKE CIR, FRIENDSWOOD, TX 77546",29.496739,-95.187139,4754,16226,678315,462977,538345,-1832,458000.0
77546,"2917 MANDALE RD, FRIENDSWOOD, TX 77546",29.467579999999998,-95.23050500000001,3584,21432,588870,488973,525777,-6506,501750.0
77546,"1407 HAMPTON CT, FRIENDSWOOD, TX 77546",29.506172999999997,-95.196838,1451,13242,237878,213192,224413,-2040,173040.0
77546,"1115 HICKORY TER, FRIENDSWOOD, TX 77546",29.51864,-95.19283,3648,7802,376564,337114,358632,1053,348402.0
77546,"1165 RYMERS SWITCH LN, FRIENDSWOOD, TX 77546",29.51864,-95.19283,5258,17642,1093791,979204,1041706,3922,995280.0
77546,"1211 HAWKHILL DR, FRIENDSWOOD, TX 77546",29.492581,-95.189948,3547,11587,410482,338268,380076,-2901,340000.0
77546,"1736 FLAT ROCK ST, FRIENDSWOOD, TX 77546",29.4961,-95.199791,4529,11718,638752,476161,580684,27272,520010.0
77546,"1615 CASCADE FALLS DR, FRIENDSWOOD, TX 77546",29.492333000000002,-95.200906,3708,20965,516561,457526,491963,876,487380.0
77546,"617 HEATHER LN, FRIENDSWOOD, TX 77546",29.513066,-95.198594,1616,12153,241350,212027,225561,8264,136730.0
77546,"60 HIDEAWAY DR, FRIENDSWOOD, TX 77546",29.517228999999997,-95.191425,1590,7200,190107,144219,163885,-268,113500.0
77546,"1808 CORONADO ST, FRIENDSWOOD, TX 77546",29.485244,-95.211867,1984,7318,253079,228977,241028,383,199260.0
77546,"2311 AIRLINE DR, FRIENDSWOOD, TX 77546",29.503653000000003,-95.174856,2623,23000,375387,336432,354139,-3096,271810.0
77546,"3003 CREEK BEND DR, FRIENDSWOOD, TX 77546",29.521978000000004,-95.157801,2396,9344,287791,260383,274087,1752,235400.0
77546,"33 WILDERNESS TRL, FRIENDSWOOD, TX 77546",29.500054,-95.21736999999999,2832,150805,637393,486432,559117,-22362,503100.0
77546,"2603 N MISSION CIR, FRIENDSWOOD, TX 77546",29.479756,-95.213666,1291,6316,189839,155487,180799,415,140560.0
77546,"2326 WAGONER BRANCH CT, FRIENDSWOOD, TX 77546",29.484634999999997,-95.184064,4244,15681,929960,730682,830321,-244,647840.0
77546,"3322 QUEENSBURG LN, FRIENDSWOOD, TX 77546",29.509234000000003,-95.161699,4854,12314,578948,523810,551379,6647,521879.0
77546,"1015 TIPPERARY AVE, FRIENDSWOOD, TX 77546",29.508589,-95.206593,2161,12937,280400,253696,267048,-1516,250640.0
77546,"2408 PRAIRIE MIST LN, FRIENDSWOOD, TX 77546",29.51864,-95.19283,4071,10019,638736,565738,608320,-3098,528780.0
77546,"235 E CASTLE HARBOUR DR, FRIENDSWOOD, TX 77546",29.483715999999998,-95.22006400000001,1732,9000,222617,199295,212016,5750,172880.0
77546,"529 HEATHER LN, FRIENDSWOOD, TX 77546",29.51453,-95.197569,2081,9374,269009,227053,246797,560,159480.0
77546,"1814 CORONADO ST, FRIENDSWOOD, TX 77546",29.485219,-95.211774,2374,7230,277963,248843,264727,597,223230.0
77546,"527 HEATHER LN, FRIENDSWOOD, TX 77546",29.514494,-95.197608,1847,10324,247501,215117,231309,4419,152970.0
77546,"1503 BAYOU OAK DR, FRIENDSWOOD, TX 77546",29.501421,-95.21161,3291,11700,353382,275573,324204,8644,303010.0
77546,"3006 HARVEST HILL DR, FRIENDSWOOD, TX 77546",29.516001,-95.15815500000001,3616,12306,351897,318383,335140,-1833,295704.0
77546,"4307 STAGHORN LN, FRIENDSWOOD, TX 77546",29.501226000000003,-95.15439,3855,7802,377975,341977,359976,1156,363306.0
77546,"1218 RED WING DR, FRIENDSWOOD, TX 77546",29.494417,-95.19111099999999,3109,11825,384864,337214,366537,2648,317310.0
77546,"505 POINT CLEAR DR, FRIENDSWOOD, TX 77546",29.490165,-95.221336,1608,10977,211110,181515,197299,-2129,157700.0
77546,"4426 SAFFRON LN, FRIENDSWOOD, TX 77546",29.521928999999997,-95.182221,1895,15080,225299,196361,206696,1162,147051.0
77546,"1100 COWARDS CREEK DR, FRIENDSWOOD, TX 77546",29.516653,-95.216614,5948,111688,894108,725985,764195,4439,587980.0
77546,"1606 CASCADE FALLS DR, FRIENDSWOOD, TX 77546",29.492795,-95.200357,3885,11874,622267,440140,505908,10005,446490.0
77546,"4 STEVEN LUKE LN, FRIENDSWOOD, TX 77546",29.513249,-95.165532,5912,346476,1011617,802003,911367,-11198,878213.0
77546,"2205 PINE DR, FRIENDSWOOD, TX 77546",29.508101,-95.172503,2949,45869,448446,382619,411418,15803,254640.0
77546,"2121 SAN MIGUEL DR, FRIENDSWOOD, TX 77546",29.482001,-95.204605,7132,118048,2035341,1170653,1330288,3044,1556890.0
77546,"1705 SANDY LAKE DR, FRIENDSWOOD, TX 77546",29.494964000000003,-95.20134300000001,3291,11718,413084,361940,393413,-3767,360340.0
77546,"2437 MORNING RIDGE LN, FRIENDSWOOD, TX 77546",29.51864,-95.19283,4126,12388,573490,425338,477908,2197,56620.0
77546,"607 FERNWOOD DR, FRIENDSWOOD, TX 77546",29.508953,-95.215448,3400,12898,351363,311207,334631,358,312870.0
77546,"2309 LESLIES CT, FRIENDSWOOD, TX 77546",29.51864,-95.19283,5392,15246,786436,636298,714942,-6687,854630.0
77546,"2210 BAILEY BEND LN, FRIENDSWOOD, TX 77546",29.51864,-95.19283,4876,11761,805636,713563,767272,-1874,637280.0
77546,"4317 STAGHORN LN, FRIENDSWOOD, TX 77546",29.500689,-95.155417,3736,7800,374655,338973,356814,1851,339000.0
77546,"514 PINE CREEK DR, FRIENDSWOOD, TX 77546",29.513834999999997,-95.181422,1993,7536,276111,244556,262963,-2868,209120.0
77546,"1314 W CASTLEWOOD AVE, FRIENDSWOOD, TX 77546",29.505148,-95.212376,1665,11700,229080,207262,218171,-3063,186430.0
77546,"1525 SUN MEADOW BLVD, FRIENDSWOOD, TX 77546",29.482217,-95.21965,1666,5227,236631,205669,221150,620,189110.0
77546,"608 HEATHER LN, FRIENDSWOOD, TX 77546",29.513292,-95.197535,1626,10106,221043,182155,204669,4423,121660.0
77546,"1205 VERDUN LN, FRIENDSWOOD, TX 77546",29.520584999999997,-95.187927,2800,12153,363269,308949,339504,-5840,231350.0
77546,"210 W CASTLE HARBOUR DR, FRIENDSWOOD, TX 77546",29.483465999999996,-95.223615,2621,14201,269053,238304,256241,-6807,208150.0
77546,"2844 EVERETT DR, FRIENDSWOOD, TX 77546",29.473189,-95.222564,4042,11761,464163,378996,425838,-1562,395120.0
77546,"3006 AUTUMN HILLS CT, FRIENDSWOOD, TX 77546",29.522004,-95.157063,2374,8233,282792,255860,269326,-1083,243003.0
77546,"1916 SANDY LAKE DR, FRIENDSWOOD, TX 77546",29.491606,-95.198424,3277,12272,419688,367727,399703,-1505,366540.0
77546,"1306 EDGEWATER DR, FRIENDSWOOD, TX 77546",29.493084999999997,-95.195009,4647,13068,535225,413787,449769,7721,420000.0
77546,"923 FALLING LEAF DR, FRIENDSWOOD, TX 77546",29.517329999999998,-95.20788,2363,33280,375800,284390,338559,-4701,240000.0
77546,"2310 BUTLER DR, FRIENDSWOOD, TX 77546",29.504334000000004,-95.17266500000001,3194,19994,431443,375515,399484,4465,337270.0
77546,"211 LEISURE LN, FRIENDSWOOD, TX 77546",29.508809000000003,-95.182606,2636,17816,342750,303948,323349,-8060,246940.0
77546,"1809 N MISSION CIR, FRIENDSWOOD, TX 77546",29.487859000000004,-95.20693100000001,2759,7361,286305,250857,272671,2730,244150.0
77546,"907 REMINGTON CT, FRIENDSWOOD, TX 77546",29.523894,-95.190797,3610,13634,397527,330686,351794,5196,299030.0
77546,"2106 ZAVALLA CIR, FRIENDSWOOD, TX 77546",29.486549,-95.21028199999999,1712,15159,251000,211121,234579,2427,171920.0
77546,"210 PECAN VALLEY CT, FRIENDSWOOD, TX 77546",29.48531,-95.219889,1428,9017,212517,179065,196775,-1990,149820.0
77546,"3936 LAURA LEIGH DR, FRIENDSWOOD, TX 77546",29.523421000000003,-95.173855,1610,3162,145041,129989,136831,146,118852.0
77546,"3131 RICHARD LN, FRIENDSWOOD, TX 77546",29.510009999999998,-95.162348,5950,12641,611264,553048,582156,-697,555799.0
77546,"211 CAREY LN, FRIENDSWOOD, TX 77546",29.522322999999997,-95.197171,1667,9278,224945,189206,210229,886,141220.0
77546,"708 ESSEX DR, FRIENDSWOOD, TX 77546",29.510362,-95.198418,1453,11700,247837,224233,236035,-2115,175260.0
77546,"2833 TREVINO CT, FRIENDSWOOD, TX 77546",29.476633000000003,-95.224354,2370,11718,318642,282226,303469,467,270660.0
77546,"3115 RED MAPLE DR, FRIENDSWOOD, TX 77546",29.517073,-95.162348,3668,7802,360120,319352,339736,1391,323780.0
77546,"404 FALLING LEAF DR, FRIENDSWOOD, TX 77546",29.520496,-95.20443399999999,3389,20038,399622,298847,347497,399,191490.0
77546,"1046 BOLIVAR POINT LN, FRIENDSWOOD, TX 77546",29.51864,-95.19283,4347,10106,793195,642110,755424,-483,513290.0
77546,"1712 VALERO ST, FRIENDSWOOD, TX 77546",29.486319,-95.210262,1974,7717,256612,232172,244392,-253,203780.0
77546,"2403 SAN MIGUEL DR, FRIENDSWOOD, TX 77546",29.479967,-95.20900300000001,5289,164091,985820,771512,857235,12177,893980.0
77546,"2239 RINGWOOD WAY LN, FRIENDSWOOD, TX 77546",29.51864,-95.19283,2576,7536,403814,347204,377396,1907,335670.0
77546,"2413 LAKE SHADOWS LN, FRIENDSWOOD, TX 77546",29.51864,-95.19283,4028,10890,635525,544736,605262,-4748,523610.0
77546,"2902 CEDAR RIDGE TRL, FRIENDSWOOD, TX 77546",29.515843,-95.15652299999999,4214,21524,460929,380584,422871,2657,243475.0
77546,"531 GLENEAGLES DR, FRIENDSWOOD, TX 77546",29.490365,-95.218942,2420,10397,297569,235468,258756,-5197,217860.0
77546,"832 FALCON LAKE DR, FRIENDSWOOD, TX 77546",29.496387,-95.186329,3105,13983,427310,382544,406962,5016,370530.0
77546,"1111 MAXI CIR, FRIENDSWOOD, TX 77546",29.500690999999996,-95.158419,2953,11291,348374,309304,325583,6931,303897.0
77546,"2102 N CENTURY CIR, FRIENDSWOOD, TX 77546",29.501481,-95.180386,4603,29620,721930,606149,681066,6670,657760.0
77546,"2313 LESLIES CT, FRIENDSWOOD, TX 77546",29.51864,-95.19283,4360,29686,791277,625828,719343,978,721560.0
77546,"3750 LAURA LEIGH DR, FRIENDSWOOD, TX 77546",29.524584,-95.17265400000001,1312,3411,137322,122936,130783,2689,106744.0
77546,"303 OAK DR, FRIENDSWOOD, TX 77546",29.509016,-95.176339,2160,47045,429269,315531,366897,8219,358400.0
77546,"1576 GARDEN LAKES DR, FRIENDSWOOD, TX 77546",29.494405,-95.20523399999999,2406,7231,326375,295291,310833,-5860,293100.0
77546,"51 HIDEAWAY DR, FRIENDSWOOD, TX 77546",29.516969,-95.19125799999999,1590,7200,190227,144310,163989,-160,113500.0
77546,"121 SAINT CLOUD DR, FRIENDSWOOD, TX 77546",29.482153000000004,-95.225512,2125,16466,261000,231452,246226,-1217,193880.0
77546,"4226 EVERGREEN DR, FRIENDSWOOD, TX 77546",29.51864,-95.19283,3725,7884,393774,352911,371485,1588,52705.0
77546,"420 BROADMOOR ST, FRIENDSWOOD, TX 77546",29.488909999999997,-95.221356,1976,9365,241436,216143,229939,-681,179790.0
77546,"1618 BRILL DR, FRIENDSWOOD, TX 77546",29.499741999999998,-95.198091,2370,11718,303841,264815,278753,267,249680.0
77546,"2529 PEBBLE LODGE LN, FRIENDSWOOD, TX 77546",29.498683000000003,-95.171913,3303,11062,466142,417769,439757,-1645,384130.0
77546,"912 APPLEWOOD DR, FRIENDSWOOD, TX 77546",29.502774,-95.21472,3277,11674,370641,315731,343186,3011,324190.0
77546,"3317 PRINCE GEORGE DR, FRIENDSWOOD, TX 77546",29.508184000000004,-95.159739,3219,15416,435700,382764,407196,-9180,385000.0
77546,"912 LESLIE LN, FRIENDSWOOD, TX 77546",29.517205,-95.2006,2863,19994,328602,276395,307105,-2007,244000.0
77546,"326 W CASTLE HARBOUR DR, FRIENDSWOOD, TX 77546",29.485497,-95.22277199999999,1982,9496,253327,217814,236754,-236,177730.0
77546,"329 W CASTLE HARBOUR DR, FRIENDSWOOD, TX 77546",29.485545000000002,-95.22238399999999,2030,10193,236315,213809,225062,1683,185420.0
77546,"403 FIELDCREEK DR, FRIENDSWOOD, TX 77546",29.510609999999996,-95.178607,4350,22913,631178,553032,601122,-6560,499760.0
77546,"1006 COWARDS CREEK CT, FRIENDSWOOD, TX 77546",29.515105,-95.212773,5716,117854,842486,721046,758996,318,695320.0
77546,"1107 TIPPERARY AVE, FRIENDSWOOD, TX 77546",29.507734999999997,-95.207596,1902,12937,273885,245192,260843,-16,205340.0
77546,"2513 SIERRA MADRE ST, FRIENDSWOOD, TX 77546",29.483434999999997,-95.178935,2928,207076,655080,544879,612224,-2958,719490.0
77546,"1024 KNOLL BRIDGE LN, FRIENDSWOOD, TX 77546",29.491095,-95.1874,4358,10833,536390,461891,496657,-10843,464040.0
77546,"606 LINKWOOD ST, FRIENDSWOOD, TX 77546",29.517334,-95.202628,2393,20386,314064,267963,288132,-335,216620.0
77546,"1705 DESTIN LN, FRIENDSWOOD, TX 77546",29.484091999999997,-95.214246,1965,12589,268490,237806,255705,1508,237250.0
77546,"1512 REGENCY CT, FRIENDSWOOD, TX 77546",29.506421000000003,-95.194022,1951,6621,267923,225750,248077,2702,230680.0
77546,"1206 PEREGRINE DR, FRIENDSWOOD, TX 77546",29.492925,-95.191365,3586,11874,426012,341613,401898,5514,390140.0
77546,"701 MURPHY LN, FRIENDSWOOD, TX 77546",29.513022999999997,-95.19941899999999,2656,44039,473784,369884,415600,-5262,319770.0
77546,"907 RIGEL ST, FRIENDSWOOD, TX 77546",29.514552000000002,-95.202065,4016,18992,450622,376884,409656,-712,346000.0
77546,"71 HIDEAWAY DR, FRIENDSWOOD, TX 77546",29.516610999999997,-95.191621,1411,7057,144720,118408,131564,178,104620.0
77546,"2304 SAN AUGUSTINE LN, FRIENDSWOOD, TX 77546",29.481723,-95.216054,3366,11610,386921,339912,361608,-2629,361770.0
77546,"1130 SYDNEY LN, FRIENDSWOOD, TX 77546",29.51864,-95.19283,3040,16614,365351,318425,335184,6213,302786.0
77546,"702 REGENCY CT, FRIENDSWOOD, TX 77546",29.507453,-95.194038,1554,7797,223879,202557,213218,-2426,175000.0
77546,"3005 CREEK BEND DR, FRIENDSWOOD, TX 77546",29.521956,-95.157798,2925,8668,313073,283257,298165,-3969,260241.0
77546,"1604 KEYSTONE DR, FRIENDSWOOD, TX 77546",29.50062,-95.19765500000001,3638,12632,438974,337972,388473,1187,359650.0
77546,"1022 KNOLL BRIDGE LN, FRIENDSWOOD, TX 77546",29.491134999999996,-95.187354,4327,10890,691726,521828,606777,-4623,477900.0
77546,"1203 W EDGEWOOD DR, FRIENDSWOOD, TX 77546",29.517699,-95.223013,1985,24960,320396,257461,286068,1768,247180.0
77546,"1815 STERLING CREEK DR, FRIENDSWOOD, TX 77546",29.491496,-95.205816,4818,12153,776787,661707,719247,165,586500.0
77546,"1007 BOLIVAR POINT LN, FRIENDSWOOD, TX 77546",29.51864,-95.19283,3815,10362,501094,439639,472730,-6166,478090.0
77546,"601 HIGH RIDGE DR, FRIENDSWOOD, TX 77546",29.497076,-95.18496,4754,13499,657134,457365,525707,2580,447160.0
77546,"1103 BOB WHITE DR, FRIENDSWOOD, TX 77546",29.495998999999998,-95.192747,2954,12502,364401,326226,347049,5726,321550.0
77546,"3011 MANDALE RD, FRIENDSWOOD, TX 77546",29.470139,-95.230581,5508,147538,786500,662699,728241,6551,501140.0
77546,"501 DESERET DR, FRIENDSWOOD, TX 77546",29.516340999999997,-95.19738100000001,2032,20400,287545,242699,263803,2547,190000.0
77546,"2607 N MISSION CIR, FRIENDSWOOD, TX 77546",29.479714,-95.21368100000001,1551,6316,207896,158757,188996,-4028,149050.0
77546,"4037 FIRENZE DR, FRIENDSWOOD, TX 77546",29.506131,-95.164873,2060,5001,261947,236999,249473,6309,234107.0
77546,"2402 S FRIENDSWOOD DR, FRIENDSWOOD, TX 77546",29.493653000000002,-95.17605,1400,108900,264602,200732,228105,4236,113780.0
77546,"2880 EVERETT DR, FRIENDSWOOD, TX 77546",29.472640000000002,-95.225877,3466,22783,480732,377718,429225,-3129,346190.0
77546,"1701 SANDY LAKE DR, FRIENDSWOOD, TX 77546",29.494934999999998,-95.201308,3082,21214,473424,403931,434334,854,397850.0
77546,"809 ESSEX DR, FRIENDSWOOD, TX 77546",29.509314,-95.199117,1723,11700,267931,242413,255172,7247,214130.0
77546,"3310 SUSSEX WAY, FRIENDSWOOD, TX 77546",29.510765000000003,-95.162171,4209,11700,529865,474879,499873,10264,445000.0
77546,"1106 KILLARNEY AVE, FRIENDSWOOD, TX 77546",29.50811,-95.20827,2210,13068,289859,259779,273452,-896,256720.0
77546,"901 LAURELFIELD DR, FRIENDSWOOD, TX 77546",29.523164,-95.191409,3474,12998,417171,357575,397306,-370,377490.0
77546,"136 SAINT ANDREWS DR, FRIENDSWOOD, TX 77546",29.484089,-95.225259,2428,13162,294443,236110,277776,-2263,262590.0
77546,"1114 RICHARDS DR, FRIENDSWOOD, TX 77546",29.501292,-95.15740799999999,3463,7802,351291,314837,331407,-913,319308.0
77546,"102 VICTORIA WAY, FRIENDSWOOD, TX 77546",29.514840000000003,-95.18391700000001,2270,8973,294225,258809,272431,588,193840.0
77546,"16915 PAINT ROCK RD, FRIENDSWOOD, TX 77546",29.523283000000003,-95.177713,1482,7200,189109,171099,180104,5268,148333.0
77546,"2501 S MISSION CIR, FRIENDSWOOD, TX 77546",29.481073,-95.21167700000001,2007,11544,278963,244751,263173,-2422,220400.0
77546,"1111 HACKBERRY BRANCH LN, FRIENDSWOOD, TX 77546",29.51864,-95.19283,4901,12284,839282,736351,791775,8853,625640.0
77546,"2009 BUTLER DR, FRIENDSWOOD, TX 77546",29.507109999999997,-95.178079,2648,43080,401959,345610,375663,9574,322610.0
77546,"2322 DOLAN SPRINGS LN, FRIENDSWOOD, TX 77546",29.51864,-95.19283,3353,8799,467328,418831,440875,-1781,407440.0
77546,"410 FOREST PINES CT, FRIENDSWOOD, TX 77546",29.512853000000003,-95.182733,1727,4487,281452,249286,268050,-1448,226270.0
77546,"1108 SYDNEY LN, FRIENDSWOOD, TX 77546",29.51864,-95.19283,3735,8821,377596,341634,359615,2655,320382.0
77546,"1003 PINE HOLLOW DR, FRIENDSWOOD, TX 77546",29.519947,-95.218222,3995,153331,757312,639199,694782,-2767,601100.0
77546,"108 LAMAR CANYON LN, FRIENDSWOOD, TX 77546",29.495147999999997,-95.17643100000001,3530,7801,440349,381636,419380,5708,370000.0
77546,"1699 PENSACOLA LN, FRIENDSWOOD, TX 77546",29.480916999999998,-95.216497,2684,12807,373994,315665,343114,1256,355340.0
77546,"520 OLD COURSE DR, FRIENDSWOOD, TX 77546",29.486917,-95.218624,1457,9714,199502,175263,186450,-11514,152340.0
77546,"2808 CREEK BEND DR, FRIENDSWOOD, TX 77546",29.521464,-95.154899,3014,8712,318265,287955,303110,-2385,277137.0
77546,"40 HIDEAWAY DR, FRIENDSWOOD, TX 77546",29.517409999999998,-95.191639,829,6839,96988,76709,88171,2268,59170.0
77546,"906 WINCHESTER CT, FRIENDSWOOD, TX 77546",29.5242,-95.190097,3389,12981,397973,327305,371937,9702,286630.0
77546,"901 W EDGEWOOD DR, FRIENDSWOOD, TX 77546",29.522809000000002,-95.217444,2374,24829,346893,310552,330374,-19378,246710.0
77546,"1105 HAYE RD, FRIENDSWOOD, TX 77546",29.51864,-95.19283,4245,8040,446397,371997,391576,1923,385332.0
77546,"1813 EAGLES CV, FRIENDSWOOD, TX 77546",29.506411,-95.184489,1980,11700,298315,262071,278799,14725,157920.0
77546,"709 CEDARWOOD DR, FRIENDSWOOD, TX 77546",29.523937,-95.19720699999999,1401,1873,195424,159566,179288,-2249,134210.0
77546,"108 EAGLES CV, FRIENDSWOOD, TX 77546",29.507153000000002,-95.184086,3022,13809,350547,307556,330705,-2719,252600.0
77546,"2904 BRIDLE PATH LN, FRIENDSWOOD, TX 77546",29.475806,-95.22791099999999,4198,110638,741301,663641,706001,8631,619180.0
77546,"1409 KENT WAY, FRIENDSWOOD, TX 77546",29.507572999999997,-95.19704899999999,1484,12350,241138,218172,229655,67,187290.0
77546,"503 HEATHER LN, FRIENDSWOOD, TX 77546",29.514422999999997,-95.195931,1920,9365,247951,215509,231730,-1256,163840.0
77546,"4423 CROFTER GLEN DR, FRIENDSWOOD, TX 77546",29.520974,-95.180312,1488,8734,197689,178861,188275,2726,122327.0
77546,"602 DESERET DR, FRIENDSWOOD, TX 77546",29.514160999999998,-95.200633,3243,20865,374115,300628,334031,-3452,268370.0
77546,"4202 EVERGREEN DR, FRIENDSWOOD, TX 77546",29.51864,-95.19283,4047,24324,448938,394899,415683,-9397,412287.0
77546,"1225 ABIGAIL LN, FRIENDSWOOD, TX 77546",29.505833000000003,-95.15653,3977,7802,381498,345164,363331,-1142,335000.0
77546,"1878 ROUND ROCK ST, FRIENDSWOOD, TX 77546",29.495453,-95.200415,3767,11700,439988,353635,411204,2606,390000.0
77546,"1517 REGENCY CT, FRIENDSWOOD, TX 77546",29.506164000000002,-95.194171,2744,6621,309095,251140,275978,18,250307.0
77546,"1117 TIPPERARY AVE, FRIENDSWOOD, TX 77546",29.506894,-95.208464,1886,13852,277256,250850,264053,1095,227080.0
77546,"1110 KILLARNEY AVE, FRIENDSWOOD, TX 77546",29.508476,-95.207849,1902,12937,273950,245251,260905,480,202140.0
77546,"1006 W PARKWOOD AVE, FRIENDSWOOD, TX 77546",29.502021999999997,-95.197393,2708,28967,468482,395416,429800,4245,307450.0
77546,"2509 PEBBLE LODGE LN, FRIENDSWOOD, TX 77546",29.498032000000002,-95.17154599999999,3303,11108,470375,417623,439603,-1781,384220.0
77546,"3984 LAURA LEIGH DR, FRIENDSWOOD, TX 77546",29.523103999999996,-95.174203,1312,3280,139469,126187,132828,1554,117429.0
77546,"2011 SAN MIGUEL DR, FRIENDSWOOD, TX 77546",29.482519,-95.203294,4245,121140,759874,624943,710163,-2202,826030.0
77546,"1813 ANNA WAY, FRIENDSWOOD, TX 77546",29.51864,-95.19283,4944,13068,724592,655584,690088,349,687240.0
77546,"1302 CAMBRIDGE DR, FRIENDSWOOD, TX 77546",29.506903,-95.21230600000001,3308,11718,388026,336290,369549,-2230,340575.0
77546,"1811 N MISSION CIR, FRIENDSWOOD, TX 77546",29.487875,-95.206947,2496,7362,277649,248562,264428,-538,236360.0
77546,"4425 W MAPLE DR, FRIENDSWOOD, TX 77546",29.503007,-95.158989,2762,7800,319710,289262,304486,4172,279241.0
77546,"802 MURPHY LN, FRIENDSWOOD, TX 77546",29.511867,-95.201109,3258,67257,567709,435570,489404,1405,286760.0
77546,"2004 N MISSION CIR, FRIENDSWOOD, TX 77546",29.488877000000002,-95.20920699999999,2422,7362,277747,246005,264521,578,241800.0
77546,"703 TIMBERSTONE LN, FRIENDSWOOD, TX 77546",29.492069,-95.181434,2567,8572,348856,308987,332244,-3260,335310.0
77546,"1013 QUAKER BEND DR, FRIENDSWOOD, TX 77546",29.524496000000003,-95.188807,7990,187744,1147270,840672,989026,3839,1081580.0
77546,"1104 TWILIGHT SPRINGS CT, FRIENDSWOOD, TX 77546",29.51864,-95.19283,4297,17694,655078,538755,612222,-2112,493570.0
77546,"611 FALLING LEAF DR, FRIENDSWOOD, TX 77546",29.519410999999998,-95.205291,2640,16335,327333,277925,308805,1927,198000.0
77546,"1202 BEECHWOOD DR, FRIENDSWOOD, TX 77546",29.50977,-95.21333,3520,17260,436538,372459,400494,-3820,373000.0
77546,"2019 SANDY LAKE DR, FRIENDSWOOD, TX 77546",29.488721,-95.198139,3978,14113,471162,401360,436261,-140,449400.0
77546,"1909 HUNT DR, FRIENDSWOOD, TX 77546",29.506469,-95.181607,2211,23198,321652,279169,303445,-336,211160.0
77546,"506 N CLEAR CREEK DR, FRIENDSWOOD, TX 77546",29.51275,-95.180872,2468,43560,295954,254074,279202,16499,131910.0
77546,"3601 KINGSTON DR, FRIENDSWOOD, TX 77546",29.505207000000002,-95.161305,3528,12863,479079,424327,456266,4212,409554.0
77546,"32 HIDEAWAY DR, FRIENDSWOOD, TX 77546",29.517373,-95.191525,1061,7187,119023,83720,100867,-649,59590.0
77546,"2901 PARK BEND DR, FRIENDSWOOD, TX 77546",29.511926000000003,-95.156984,3570,14196,385959,338174,367580,-598,335726.0
77546,"2002 N MISSION CIR, FRIENDSWOOD, TX 77546",29.489046000000002,-95.209034,2771,8625,288262,252572,274535,495,263330.0
77546,"3114 AUTUMN LEAF DR, FRIENDSWOOD, TX 77546",29.513986,-95.160938,2822,8873,313585,283719,298652,354,246393.0
77546,"1006 MIDDLECREEK ST, FRIENDSWOOD, TX 77546",29.49959,-95.19246700000001,2004,14854,335758,288245,316753,-5184,225090.0
77546,"2321 SHALLOW CREEK LN, FRIENDSWOOD, TX 77546",29.51864,-95.19283,3499,12632,584527,477274,536263,20450,449840.0
77546,"2841 EVERETT DR, FRIENDSWOOD, TX 77546",29.473740999999997,-95.222033,3083,11700,388961,341704,363515,6080,331450.0
77546,"3327 QUEENSBURG LN, FRIENDSWOOD, TX 77546",29.509016,-95.161495,4564,12471,508040,459656,483848,-5931,469909.0
77546,"1207 EAGLE LAKES DR, FRIENDSWOOD, TX 77546",29.494112,-95.19250699999999,3162,11718,403116,353677,380298,-2246,332140.0
77546,"317 SAINT CLOUD DR, FRIENDSWOOD, TX 77546",29.483742,-95.22735899999999,2306,11626,270924,232944,253200,-2576,211700.0
77546,"520 BELMONT DR, FRIENDSWOOD, TX 77546",29.490877,-95.220991,1608,11848,210192,182430,198294,-710,145000.0
77546,"3306 KING GEORGE LN, FRIENDSWOOD, TX 77546",29.511224,-95.163054,2921,11700,400716,351572,378034,-2408,366862.0
77546,"325 GLENEAGLES DR, FRIENDSWOOD, TX 77546",29.485862,-95.219116,1416,9748,209125,172672,191858,-8446,150910.0
77546,"3302 DUCHESS PARK LN, FRIENDSWOOD, TX 77546",29.509331,-95.157848,5127,11700,573416,461919,530941,38722,487316.0
77546,"16910 CREEK LINE DR, FRIENDSWOOD, TX 77546",29.52089,-95.182292,1654,14301,191819,173551,182685,10162,116879.0
77546,"1012 LONDONDERRY AVE, FRIENDSWOOD, TX 77546",29.507028000000002,-95.204841,2062,12327,283131,251079,267105,-526,237490.0
77546,"1201 W CASTLEWOOD AVE, FRIENDSWOOD, TX 77546",29.506369,-95.21145899999999,1802,11614,240000,214857,228571,-2219,172060.0
77546,"17154 BLACKHAWK BLVD, FRIENDSWOOD, TX 77546",29.524055,-95.170518,965,4147,113671,96513,107237,1832,87573.0
77546,"1807 BLUE QUAIL DR, FRIENDSWOOD, TX 77546",29.495626,-95.189143,3527,11935,420715,356606,400681,4046,394090.0
77546,"3105 BAY RIDGE CT, FRIENDSWOOD, TX 77546",29.519019,-95.161057,3113,8276,318941,288565,303753,-2010,279812.0
77546,"1304 BAYOU OAK DR, FRIENDSWOOD, TX 77546",29.502990999999998,-95.209204,2345,11674,289146,261608,275377,-284,246970.0
77546,"209 SAINT CLOUD DR, FRIENDSWOOD, TX 77546",29.4832,-95.226225,2675,15542,316465,267108,290335,-1853,253540.0
77546,"1805 SAN JOSE ST, FRIENDSWOOD, TX 77546",29.485545000000002,-95.209591,2396,7667,281294,249146,267899,2482,240140.0
77546,"1909 SAN JOAQUIN PKWY, FRIENDSWOOD, TX 77546",29.483890000000002,-95.21165,2980,10759,317736,275371,302606,887,249000.0
77546,"3105 DUCHESS PARK LN, FRIENDSWOOD, TX 77546",29.512178000000002,-95.161555,4900,13512,507713,459359,483536,-8601,438000.0
77546,"3321 PRINCE GEORGE DR, FRIENDSWOOD, TX 77546",29.508409999999998,-95.159548,5628,13040,586528,513910,558598,18597,453000.0
77546,"511 FAIRDALE ST, FRIENDSWOOD, TX 77546",29.519419,-95.203275,4565,20355,673902,482188,580950,-76,320000.0
77546,"11 DOMINION CT, FRIENDSWOOD, TX 77546",29.51864,-95.19283,5345,22303,758143,671498,722041,6552,686330.0
77546,"1802 VAQUERO ST, FRIENDSWOOD, TX 77546",29.480590999999997,-95.213216,1758,9627,252325,199566,229386,-3830,168600.0
77546,"409 FOREST PINES CT, FRIENDSWOOD, TX 77546",29.513088,-95.182563,1325,5619,231283,198860,216152,-3825,192030.0
77546,"903 LONGLEAF CT, FRIENDSWOOD, TX 77546",29.51864,-95.19283,5561,16639,813946,715971,753654,3385,628730.0
77546,"202 PINE WILLOW CT, FRIENDSWOOD, TX 77546",29.52226,-95.215326,4231,27573,579998,470269,522521,-10571,538540.0
77546,"2900 AUTUMN COVE CT, FRIENDSWOOD, TX 77546",29.519546000000002,-95.158869,2808,17729,314983,284985,299984,-1118,285347.0
77546,"402 CARRIAGE CREEK LN, FRIENDSWOOD, TX 77546",29.509575,-95.179969,3300,24742,595468,494451,531668,20045,403170.0
77546,"1401 CAMBRIDGE DR, FRIENDSWOOD, TX 77546",29.504443,-95.21523,3797,12900,452807,363061,407934,-2009,360000.0
77546,"2601 N MISSION CIR, FRIENDSWOOD, TX 77546",29.479777000000002,-95.21365899999999,1634,6665,245777,201888,219444,-3062,176020.0
77546,"1805 PALO DURO ST, FRIENDSWOOD, TX 77546",29.483288,-95.212571,2330,7362,267460,241988,254724,-1142,198370.0
77546,"207 STANLEY CT, FRIENDSWOOD, TX 77546",29.524417,-95.202038,3939,41382,588653,506896,545049,-7592,487760.0
77546,"906 EMBER HILLS LN, FRIENDSWOOD, TX 77546",29.488284999999998,-95.182056,3852,7971,523649,414366,455347,471,441770.0
77546,"2012 N MISSION CIR, FRIENDSWOOD, TX 77546",29.488324,-95.209744,2759,7362,310859,259049,287832,2618,267720.0
77546,"16918 STAR DALE LN, FRIENDSWOOD, TX 77546",29.522326,-95.1784,1646,7200,198631,179713,189172,2675,136009.0
77546,"1003 GLENSHANNON AVE, FRIENDSWOOD, TX 77546",29.507759000000004,-95.206013,2145,17685,283115,256151,269633,-164,250030.0
77546,"4315 RAVINE DR, FRIENDSWOOD, TX 77546",29.521261,-95.178122,1729,8215,200558,181458,191008,-546,114022.0
77546,"506 FALLING LEAF DR, FRIENDSWOOD, TX 77546",29.519688000000002,-95.199702,3689,26446,441581,323572,380673,3941,251950.0
77546,"225 SAINT CLOUD DR, FRIENDSWOOD, TX 77546",29.484259,-95.226213,2045,12196,274070,219750,246910,-5231,193840.0
77546,"4422 SAFFRON LN, FRIENDSWOOD, TX 77546",29.521971999999998,-95.182203,1521,15642,207623,186077,195871,-3790,142000.0
77546,"501 HUNTERS LN, FRIENDSWOOD, TX 77546",29.5039,-95.190161,4645,13990,724578,629774,677176,1612,622860.0
77546,"2908 CEDAR RIDGE TRL, FRIENDSWOOD, TX 77546",29.515890000000002,-95.15657900000001,3553,12598,356662,298299,324238,-2918,279000.0
77546,"502 PINE CREEK DR, FRIENDSWOOD, TX 77546",29.513540000000003,-95.182348,1667,6055,284373,257289,270831,448,220540.0
77546,"1909 SANDY LAKE DR, FRIENDSWOOD, TX 77546",29.492115999999996,-95.198278,4539,42210,660654,566275,629194,88,537310.0
77546,"711 REGENCY CT, FRIENDSWOOD, TX 77546",29.50719,-95.19389,1908,6621,241957,218913,230435,-1243,195000.0
77546,"1474 GARDEN LAKES DR, FRIENDSWOOD, TX 77546",29.496290000000002,-95.203236,2488,7492,329427,298053,313740,-4946,292270.0
77546,"2207 PINE DR, FRIENDSWOOD, TX 77546",29.508059999999997,-95.172484,4942,45738,802489,691032,743045,1146,650000.0
77546,"20 HIDEAWAY DR, FRIENDSWOOD, TX 77546",29.517326,-95.191397,1111,7362,126411,95109,120391,-2141,89760.0
77546,"1527 CLUBHOUSE DR, FRIENDSWOOD, TX 77546",29.476334,-95.221331,3825,12240,444271,351378,403883,-569,358250.0
77546,"1810 LAKESIDE LN, FRIENDSWOOD, TX 77546",29.502226,-95.188713,3248,11718,399180,357361,380171,7034,308370.0
77546,"1500 RICHLAND HOLLOW LN, FRIENDSWOOD, TX 77546",29.51864,-95.19283,3708,9453,455902,337856,407055,-3934,438720.0
77546,"709 W EDGEWOOD DR, FRIENDSWOOD, TX 77546",29.524519,-95.21558399999999,2167,26964,343152,270743,314818,-436,229400.0
77546,"1801 TALON DR, FRIENDSWOOD, TX 77546",29.507333000000003,-95.184061,2274,15943,305832,271533,285824,-3197,207620.0
77546,"4220 SYCAMORE PT, FRIENDSWOOD, TX 77546",29.51864,-95.19283,2305,11181,362494,281607,299582,6261,54933.0
77546,"17007 TOWNES RD, FRIENDSWOOD, TX 77546",29.523587,-95.175372,1209,7800,167557,150169,158073,82,81573.0
77546,"615 SUN CT, FRIENDSWOOD, TX 77546",29.493315999999997,-95.215351,2452,15464,271770,238123,258829,-1604,212620.0
77546,"609 HIGH RIDGE DR, FRIENDSWOOD, TX 77546",29.497146,-95.184884,3216,13504,424941,380424,404706,3867,360050.0
77546,"3021 BRIDLE PATH LN, FRIENDSWOOD, TX 77546",29.471846000000003,-95.228891,5969,29839,762082,660471,725792,6993,735290.0
77546,"36 WILDERNESS TRL, FRIENDSWOOD, TX 77546",29.499996999999997,-95.218321,2556,234135,730318,570161,640630,1884,670580.0
77546,"2318 DOLAN SPRINGS LN, FRIENDSWOOD, TX 77546",29.51864,-95.19283,2923,9430,428956,388104,408530,2113,361230.0
77546,"642 W CASTLE HARBOUR DR, FRIENDSWOOD, TX 77546",29.493284000000003,-95.219385,1854,9845,204688,178398,187787,-5965,179000.0
77546,"1506 FROST CREEK LN, FRIENDSWOOD, TX 77546",29.51864,-95.19283,3438,9583,478025,432499,455262,3129,422720.0
77546,"801 GALLOWAY MIST LN, FRIENDSWOOD, TX 77546",29.51864,-95.19283,3322,9901,454908,399639,425148,-8150,54030.0
77546,"1908 CORONADO ST, FRIENDSWOOD, TX 77546",29.484744,-95.210369,2308,7231,271876,240805,258930,-959,213890.0
77546,"1804 PARKVIEW DR, FRIENDSWOOD, TX 77546",29.50088,-95.190039,2564,11700,333768,298802,317874,-2688,276530.0
77546,"615 HEATHER LN, FRIENDSWOOD, TX 77546",29.512938000000002,-95.19839300000001,1656,10728,248099,216233,227614,2224,145800.0
77546,"1013 SUNSET DR, FRIENDSWOOD, TX 77546",29.514115000000004,-95.200478,3255,21035,342527,277135,311388,-13554,250790.0
77546,"1207 BEECHWOOD DR, FRIENDSWOOD, TX 77546",29.509258000000003,-95.213465,2755,11700,340335,294957,324129,2990,312340.0
77546,"3116 TYLER CT, FRIENDSWOOD, TX 77546",29.510042,-95.164282,3506,15002,517115,450081,478810,-2823,500385.0
77546,"1508 AZALEA TRL, FRIENDSWOOD, TX 77546",29.515197999999998,-95.182357,4163,16248,601394,430999,501162,-15160,497945.0
77546,"2106 N MISSION CIR, FRIENDSWOOD, TX 77546",29.487239000000002,-95.210769,2414,7362,276298,244721,263141,-487,248000.0
77546,"603 WILDERNESS PINES CT, FRIENDSWOOD, TX 77546",29.510787,-95.214033,3708,43560,464216,384756,418213,-6825,398180.0
77546,"1500 CAROLINA CT, FRIENDSWOOD, TX 77546",29.516386999999998,-95.182024,3780,44083,453295,389150,427637,-154,256560.0
77546,"1405 OSBORNE DR, FRIENDSWOOD, TX 77546",29.5088,-95.195649,1895,11674,269853,239013,257003,11384,198810.0
77546,"505 REGENCY CT, FRIENDSWOOD, TX 77546",29.509313,-95.191738,3476,11326,393322,348371,374592,-1617,345670.0
77546,"428 BROADMOOR ST, FRIENDSWOOD, TX 77546",29.489337,-95.221274,1918,9104,240567,211063,226950,1523,180260.0
77546,"1336 CASCADE FALLS DR, FRIENDSWOOD, TX 77546",29.494049,-95.19899699999999,3450,10890,425291,369121,401218,-4605,411120.0
77546,"2404 QUIET MANOR CT, FRIENDSWOOD, TX 77546",29.51864,-95.19283,4283,11970,754997,416140,594486,-6782,56130.0
77546,"713 FALCON LAKE DR, FRIENDSWOOD, TX 77546",29.497640999999998,-95.188074,3200,11829,456859,384274,426971,3152,372940.0
77546,"105 LAURELFIELD DR, FRIENDSWOOD, TX 77546",29.523102,-95.191077,3302,11700,402147,356187,382997,205,340900.0
77546,"906 LAURELFIELD DR, FRIENDSWOOD, TX 77546",29.522988,-95.191654,3332,11718,388561,324978,353237,1590,317900.0
77546,"1603 COUNTRY CLUB DR, FRIENDSWOOD, TX 77546",29.478811999999998,-95.218508,2676,11718,321847,285065,306521,487,280000.0
77546,"542 W CASTLE HARBOUR DR, FRIENDSWOOD, TX 77546",29.491608000000003,-95.221919,1608,9104,209439,176774,192146,-6165,161970.0
77546,"1528 CLUBHOUSE DR, FRIENDSWOOD, TX 77546",29.476606,-95.221289,3918,12545,431665,353887,388887,-4866,361357.0
77546,"344 SAINT CLOUD DR, FRIENDSWOOD, TX 77546",29.482662,-95.22743100000001,2483,9000,276130,239313,262981,-3987,211460.0
77546,"1811 DESOTA ST, FRIENDSWOOD, TX 77546",29.486359999999998,-95.207573,2570,7492,278413,251897,265155,167,257690.0
77546,"1007 COWARDS CREEK DR, FRIENDSWOOD, TX 77546",29.516799,-95.21409399999999,4546,55757,758138,637686,708540,8811,344700.0
77546,"336 SAINT CLOUD DR, FRIENDSWOOD, TX 77546",29.482763000000002,-95.227651,3416,11500,360597,277627,319112,4899,220510.0
77546,"432 BROADMOOR ST, FRIENDSWOOD, TX 77546",29.489565000000002,-95.221233,1795,9121,224608,198938,213912,5491,174750.0
77546,"3401 VOLTERRA CIR, FRIENDSWOOD, TX 77546",29.505599,-95.165216,2796,5362,314205,284281,299243,555,279325.0
77546,"1016 APPLEWOOD DR, FRIENDSWOOD, TX 77546",29.500640999999998,-95.213002,3466,12506,460148,357893,426063,6175,366290.0
77546,"1608 ORLANDO ST, FRIENDSWOOD, TX 77546",29.479467,-95.21869699999999,2693,13460,368651,294274,323378,6358,275000.0
77546,"3305 SUSSEX WAY, FRIENDSWOOD, TX 77546",29.510308000000002,-95.162233,3730,17315,488856,442298,465577,-2389,411300.0
77546,"104 EAGLES CV, FRIENDSWOOD, TX 77546",29.507154999999997,-95.184083,2348,11620,319572,280006,304354,-50,229300.0
77546,"510 PINE CREEK DR, FRIENDSWOOD, TX 77546",29.513914,-95.181929,1615,6372,272758,244184,259770,-257,218710.0
77546,"2504 GARNETFIELD LN, FRIENDSWOOD, TX 77546",29.494103000000003,-95.175069,3558,8276,429468,384476,409017,4641,367720.0
77546,"137 SAINT ANDREWS DR, FRIENDSWOOD, TX 77546",29.484315000000002,-95.224963,1882,9600,239976,214836,228549,6634,174200.0
77546,"133 MOSS POINT DR, FRIENDSWOOD, TX 77546",29.505574,-95.16970400000001,1798,3201,180925,139297,160111,688,81860.0
77546,"1025 POINT ISABEL LN, FRIENDSWOOD, TX 77546",29.491093,-95.188588,4236,10977,735094,535746,622961,2869,490140.0
77546,"1306 CAMBRIDGE DR, FRIENDSWOOD, TX 77546",29.506856,-95.212356,3381,11700,426452,352116,391240,-2056,372220.0
77546,"1504 WINDSOR DR, FRIENDSWOOD, TX 77546",29.506553000000004,-95.19540400000001,1620,11718,240155,212709,228719,-1115,176800.0
77546,"431 OLD COURSE DR, FRIENDSWOOD, TX 77546",29.488852,-95.21834100000001,1612,11781,211262,189130,201202,830,162000.0
77546,"1201 SUNSET DR, FRIENDSWOOD, TX 77546",29.510036,-95.19507,2052,25700,324667,270556,300618,361,235640.0
77546,"2359 OPAL SPRINGS LN, FRIENDSWOOD, TX 77546",29.51864,-95.19283,2567,6873,344362,301727,327964,-7386,333340.0
77546,"1902 LA SALLE ST, FRIENDSWOOD, TX 77546",29.48763,-95.208334,2494,7405,275756,249494,262625,484,247510.0
77546,"4460 CHESTNUT CIR, FRIENDSWOOD, TX 77546",29.504151,-95.160247,3633,7802,362791,317874,345515,9138,314000.0
77546,"16606 OXNARD LN, FRIENDSWOOD, TX 77546",29.524548,-95.184454,1839,6599,216645,196013,206329,-2875,112290.0
77546,"1010 TIPPERARY AVE, FRIENDSWOOD, TX 77546",29.508321999999996,-95.206456,1902,12937,274061,243035,258548,1269,197970.0
77546,"308 OLD COURSE DR, FRIENDSWOOD, TX 77546",29.491274,-95.218102,1420,10646,205888,155352,187171,-1748,150430.0
77546,"436 E CASTLE HARBOUR DR, FRIENDSWOOD, TX 77546",29.487107,-95.21673299999999,1740,10890,236315,203187,220855,4931,164800.0
77546,"2508 IVY STONE LN, FRIENDSWOOD, TX 77546",29.49532,-95.173365,3031,8364,403772,365318,384545,620,334870.0
77546,"2207 JORDAN BEND LN, FRIENDSWOOD, TX 77546",29.491291999999998,-95.185701,3948,11021,509070,446637,480255,-7071,444640.0
77546,"4042 LAURA LEIGH DR, FRIENDSWOOD, TX 77546",29.523217,-95.174072,1460,3193,145082,125920,136870,2346,110000.0
77546,"2301 S MISSION CIR, FRIENDSWOOD, TX 77546",29.482530999999998,-95.210365,2069,7318,263477,233649,248563,-3242,200130.0
77546,"1813 AVERY LN, FRIENDSWOOD, TX 77546",29.51864,-95.19283,4728,12153,667091,603559,635325,222,630340.0
77546,"1934 SKIP ROCK ST, FRIENDSWOOD, TX 77546",29.49325,-95.19663,6180,21956,816284,724738,762882,979,700180.0
77546,"102 LAKEVIEW CIR, FRIENDSWOOD, TX 77546",29.502544,-95.186652,3499,19079,439178,381716,410447,711,240400.0
77546,"1904 CANDLELIGHT CT, FRIENDSWOOD, TX 77546",29.507888,-95.18050600000001,3252,26441,541869,466610,501731,17768,385000.0
77546,"606 FERNWOOD DR, FRIENDSWOOD, TX 77546",29.508737,-95.215643,2364,11718,316115,271800,295435,3874,266550.0
77546,"2404 BUTLER DR, FRIENDSWOOD, TX 77546",29.503602,-95.171165,2626,19994,365355,305570,332141,-2063,255440.0
77546,"707 TIMBERSTONE LN, FRIENDSWOOD, TX 77546",29.492068,-95.181413,2487,6882,335581,291673,313627,-18173,323890.0
77546,"214 W CASTLE HARBOUR DR, FRIENDSWOOD, TX 77546",29.483721999999997,-95.22370699999999,2548,13286,272180,230705,259219,-7992,214440.0
77546,"531 OLD COURSE DR, FRIENDSWOOD, TX 77546",29.486745000000003,-95.218278,2035,14034,250028,226216,238122,1534,177240.0
77546,"117 HAWKE BAY LN, FRIENDSWOOD, TX 77546",29.495025,-95.174562,3371,8930,412918,373592,393255,-515,346000.0
77546,"1704 PAMPAS TRAIL DR, FRIENDSWOOD, TX 77546",29.497677000000003,-95.20029,4253,11718,505459,407051,447309,-629,426330.0
77546,"2878 EVERETT DR, FRIENDSWOOD, TX 77546",29.472626,-95.22577199999999,3315,14201,377750,338176,359762,4055,335900.0
77546,"311 GARDEN DR, FRIENDSWOOD, TX 77546",29.524265000000003,-95.208168,1770,12110,245610,215769,229542,1977,148240.0
77546,"1901 HUNT DR, FRIENDSWOOD, TX 77546",29.508102,-95.18356700000001,2196,11718,303660,267109,281167,5142,220010.0
77546,"2540 ROYAL FIELD LN, FRIENDSWOOD, TX 77546",29.51864,-95.19283,3345,8712,483409,420745,447601,-4008,463660.0
77546,"2875 MATCH POINT LN, FRIENDSWOOD, TX 77546",29.475077000000002,-95.22549599999999,3341,11718,384608,328151,352851,7189,315800.0
77546,"729 FALCON LAKE DR, FRIENDSWOOD, TX 77546",29.496856,-95.186762,3278,18265,440186,398264,419225,-4319,378000.0
77546,"405 REGENCY CT, FRIENDSWOOD, TX 77546",29.508384000000003,-95.192577,3426,11718,395751,332875,369861,-1139,315170.0
77546,"406 CHARLESTON ST, FRIENDSWOOD, TX 77546",29.517190000000003,-95.184322,3328,27878,614964,471825,530141,-12083,624510.0
77546,"2914 AUTUMN CREEK DR, FRIENDSWOOD, TX 77546",29.51977,-95.156888,3429,8886,347104,311084,327457,-16851,296828.0
77546,"3024 BRIDLE PATH LN, FRIENDSWOOD, TX 77546",29.471777000000003,-95.228574,8230,31058,1097161,796170,970939,40296,934710.0
77546,"1470 GARDEN LAKES DR, FRIENDSWOOD, TX 77546",29.496259000000002,-95.203261,4086,10411,460421,384389,422405,-2048,427400.0
77546,"1147 RYMERS SWITCH LN, FRIENDSWOOD, TX 77546",29.51864,-95.19283,5324,14113,860950,764395,804626,3976,707790.0
77546,"517 POINT CLEAR DR, FRIENDSWOOD, TX 77546",29.490240999999997,-95.221518,1872,13112,234515,207967,221241,19,176550.0
77546,"4416 W MAPLE DR, FRIENDSWOOD, TX 77546",29.503739000000003,-95.158534,2262,7800,290227,262587,276407,7372,257119.0
77546,"125 SAINT CLOUD DR, FRIENDSWOOD, TX 77546",29.482162,-95.22557900000001,2378,16771,278960,239485,263170,-5193,221810.0
77546,"701 EVERGREEN DR, FRIENDSWOOD, TX 77546",29.516675,-95.204263,3692,65332,624065,509558,572537,2926,402000.0
77546,"2308 N MISSION CIR, FRIENDSWOOD, TX 77546",29.483197999999998,-95.212815,2850,7362,308017,264837,287866,-929,267990.0
77546,"1412 BUTTONWOOD DR, FRIENDSWOOD, TX 77546",29.506239,-95.214414,2977,14113,351937,308775,332016,1439,310000.0
77546,"1223 BIRCH CT, FRIENDSWOOD, TX 77546",29.503860999999997,-95.160081,3463,10110,373473,324146,352333,8946,317836.0
77546,"2309 SAN AUGUSTINE LN, FRIENDSWOOD, TX 77546",29.481765000000003,-95.215737,3620,11578,381296,338533,356351,-1716,346100.0
77546,"308 N CLEAR CREEK DR, FRIENDSWOOD, TX 77546",29.515337,-95.17797900000001,2472,37354,319030,279531,303838,7190,165970.0
77546,"2854 EVERETT DR, FRIENDSWOOD, TX 77546",29.472416,-95.22368,3088,13033,410171,333264,366224,12088,321380.0
77546,"3023 MANDALE RD, FRIENDSWOOD, TX 77546",29.470465,-95.230591,4229,87120,666150,509750,579261,-17767,440000.0
77546,"907 EMBER HILLS LN, FRIENDSWOOD, TX 77546",29.488071,-95.18186,3383,8407,448543,397281,427184,43,373720.0
77546,"1821 ANNA WAY, FRIENDSWOOD, TX 77546",29.51864,-95.19283,5011,13068,738354,655548,690050,547,650030.0
77546,"508 FALLING LEAF DR, FRIENDSWOOD, TX 77546",29.519608,-95.199636,2558,29098,333131,283317,311337,3065,192800.0
77546,"1604 MOSSY STONE DR, FRIENDSWOOD, TX 77546",29.491364,-95.200132,3807,11726,490893,395442,454531,-413,426050.0
77546,"1481 GARDEN LAKES DR, FRIENDSWOOD, TX 77546",29.496163,-95.202954,2928,7282,394511,345667,375725,5257,312000.0
77546,"2103 ZAVALLA CIR, FRIENDSWOOD, TX 77546",29.486355,-95.21005699999999,2688,10890,297300,268986,283143,-4106,269490.0
77546,"3206 DUCHESS PARK LN, FRIENDSWOOD, TX 77546",29.510156,-95.15869,4619,12863,506391,458163,482277,-8901,446000.0
77546,"2701 MIAMI CT, FRIENDSWOOD, TX 77546",29.478640000000002,-95.217863,3102,20433,444212,355370,403829,5307,344000.0
77546,"2414 SAN MIGUEL DR, FRIENDSWOOD, TX 77546",29.480149,-95.209357,3925,113038,748542,616854,693094,8524,708810.0
77546,"2204 N MISSION CIR, FRIENDSWOOD, TX 77546",29.485802000000003,-95.2121,2321,7455,281759,254925,268342,3501,237700.0
77546,"1103 TALL PINES DR, FRIENDSWOOD, TX 77546",29.517439000000003,-95.218194,2266,30056,354518,265090,319386,1411,259250.0
77546,"515 PINE RIDGE CT, FRIENDSWOOD, TX 77546",29.513278000000003,-95.181786,2055,6934,306937,267514,281594,-2692,215020.0
77546,"2402 NILELAKE CT, FRIENDSWOOD, TX 77546",29.477808000000003,-95.206386,3503,21916,503330,438083,466046,4350,440050.0
77546,"64 HIDEAWAY DR, FRIENDSWOOD, TX 77546",29.517235999999997,-95.191415,1599,7187,160705,131625,153052,2393,113940.0
77546,"1211 BOB WHITE DR, FRIENDSWOOD, TX 77546",29.494628999999996,-95.19337,2931,11979,366908,325372,346140,6635,319640.0
77546,"1310 OAK HOLLOW DR, FRIENDSWOOD, TX 77546",29.504109000000003,-95.21074300000001,2087,12240,272981,241783,259982,-1858,220120.0
77546,"3129 RED MAPLE DR, FRIENDSWOOD, TX 77546",29.517566,-95.160973,2619,8145,309854,280344,295099,158,249867.0
77546,"1703 FALCON RIDGE BLVD, FRIENDSWOOD, TX 77546",29.497794,-95.196729,2466,11718,337602,299019,321526,-4811,256220.0
77546,"2327 WAGONER BRANCH CT, FRIENDSWOOD, TX 77546",29.484908,-95.18409799999999,3911,14745,754836,570884,634316,-11029,563030.0
77546,"418 HUNTERS LN, FRIENDSWOOD, TX 77546",29.504661,-95.188962,5408,16949,873377,754280,793979,1114,768800.0
77546,"2857 LOVE LN, FRIENDSWOOD, TX 77546",29.473015999999998,-95.22415500000001,3565,14043,415623,345705,388433,-1091,356830.0
77546,"1301 YORKSHIRE DR, FRIENDSWOOD, TX 77546",29.507263000000002,-95.20017800000001,1612,11700,253938,229754,241846,3256,199030.0
77546,"3111 AUTUMN HARVEST DR, FRIENDSWOOD, TX 77546",29.512839000000003,-95.160863,3944,19758,421888,381708,401798,-846,407800.0
77546,"212 SALMON CREEK LN, FRIENDSWOOD, TX 77546",29.495663,-95.169173,3457,16801,719705,575764,654277,-693,512740.0
77546,"1812 LAVACA ST, FRIENDSWOOD, TX 77546",29.484524,-95.212006,1756,7449,241734,212087,228051,-2083,184660.0
77546,"357 W CASTLE HARBOUR DR, FRIENDSWOOD, TX 77546",29.486492,-95.222181,2314,10193,257105,225573,242552,-2942,217200.0
77546,"1002 LONDONDERRY AVE, FRIENDSWOOD, TX 77546",29.506884000000003,-95.205014,2251,12937,276964,247948,263775,104,214610.0
77546,"2436 MORNING RIDGE LN, FRIENDSWOOD, TX 77546",29.51864,-95.19283,4283,11509,758306,505538,631922,-7449,55580.0
77546,"605 HIGH RIDGE DR, FRIENDSWOOD, TX 77546",29.497111,-95.184922,3242,13504,415955,372379,396148,3200,360590.0
77546,"1806 LAKESIDE LN, FRIENDSWOOD, TX 77546",29.501882000000002,-95.188313,3405,11718,420691,380625,400658,981,354950.0
77546,"1407 BEECHWOOD DR, FRIENDSWOOD, TX 77546",29.507409999999997,-95.21550500000001,2227,13286,315107,246356,286461,-9934,256360.0
77546,"407 FIELDCREEK DR, FRIENDSWOOD, TX 77546",29.510664000000002,-95.17854799999999,3453,21998,521811,440428,478726,11479,393560.0
77546,"717 FALCON LAKE DR, FRIENDSWOOD, TX 77546",29.497970000000002,-95.188142,3019,11829,417985,378177,398081,501,348000.0
77546,"2504 MOUNTAIN FALL CT, FRIENDSWOOD, TX 77546",29.496826000000002,-95.172459,4435,9600,507754,459396,483575,-17219,461480.0
77546,"1216 MARTINEZ CT, FRIENDSWOOD, TX 77546",29.505128999999997,-95.15805300000001,3873,7889,402601,357450,376263,-2372,340000.0
77546,"1007 W CASTLEWOOD AVE, FRIENDSWOOD, TX 77546",29.507572999999997,-95.210213,1605,11674,231006,209006,220006,-6536,182870.0
77546,"606 S CLEAR CREEK DR, FRIENDSWOOD, TX 77546",29.513819,-95.177768,2500,37657,313845,131423,196153,-550,162610.0
77546,"1503 OAK HOLLOW DR, FRIENDSWOOD, TX 77546",29.502409000000004,-95.213809,2150,11802,285182,258022,271602,1758,227360.0
77546,"601 LEISURE LN, FRIENDSWOOD, TX 77546",29.513593,-95.17746,2823,43537,332489,288575,313669,5172,173050.0
77546,"303 PARKWOOD VILLAGE DR, FRIENDSWOOD, TX 77546",29.510503000000003,-95.18431899999999,1606,4500,268074,239990,255309,7956,213950.0
77546,"5 STEVEN LUKE LN, FRIENDSWOOD, TX 77546",29.513794,-95.16569100000001,3800,61683,506927,440601,473764,-8528,417000.0
77546,"1829 ANNA WAY, FRIENDSWOOD, TX 77546",29.51864,-95.19283,6622,13068,783217,687162,738884,12512,341980.0
77546,"1112 MIDDLECREEK ST, FRIENDSWOOD, TX 77546",29.497077,-95.195305,3032,23914,413212,362535,389823,6013,323360.0
77546,"307 W CASTLEWOOD AVE, FRIENDSWOOD, TX 77546",29.519940999999996,-95.19763,2807,44867,429221,384679,404925,4869,308690.0
77546,"2314 DOLAN SPRINGS LN, FRIENDSWOOD, TX 77546",29.51864,-95.19283,3145,7797,449293,390507,419900,4499,384760.0
77546,"710 W CASTLEWOOD AVE, FRIENDSWOOD, TX 77546",29.515215,-95.203165,3776,26400,491144,391177,434641,2510,303600.0
77546,"1202 PEREGRINE DR, FRIENDSWOOD, TX 77546",29.492569,-95.191753,3558,12763,429387,356472,405082,7245,387470.0
77546,"9 WINDCREEK ST, FRIENDSWOOD, TX 77546",29.495340999999996,-95.21859599999999,2289,78364,409798,360010,382989,2217,250000.0
77546,"802 W LAKE CIR, FRIENDSWOOD, TX 77546",29.496806,-95.187445,3148,23305,413894,366592,394185,3379,368950.0
77546,"1402 BAYOU OAK DR, FRIENDSWOOD, TX 77546",29.502042,-95.210239,1560,11700,219492,198588,209040,-17577,186590.0
77546,"232 MESQUITE FALLS LN, FRIENDSWOOD, TX 77546",29.498683000000003,-95.174947,4052,10324,537849,462450,502663,2321,437770.0
77546,"213 HUNTERS LN, FRIENDSWOOD, TX 77546",29.506721999999996,-95.186364,3711,12745,604465,483572,525622,-9161,536880.0
77546,"518 SUN PARK DR, FRIENDSWOOD, TX 77546",29.510225,-95.19506,2824,72328,527495,430707,483940,-2135,361030.0
77546,"503 VICTORIA WAY, FRIENDSWOOD, TX 77546",29.514859,-95.183471,3770,23914,452955,381657,419403,4073,367070.0
77546,"3409 VOLTERRA CIR, FRIENDSWOOD, TX 77546",29.505571000000003,-95.165186,2592,8514,312054,282334,297194,662,270435.0
77546,"204 CENTURY DR, FRIENDSWOOD, TX 77546",29.502253000000003,-95.179642,4436,56889,752532,659361,716697,11195,581450.0
77546,"437 E CASTLE HARBOUR DR, FRIENDSWOOD, TX 77546",29.487078000000004,-95.21641899999999,2380,9000,252398,206087,231558,-5392,191160.0
77546,"2110 AIRLINE DR, FRIENDSWOOD, TX 77546",29.501903999999996,-95.171774,3011,77101,534259,473777,504018,1068,476960.0
77546,"1105 COWARDS CREEK DR, FRIENDSWOOD, TX 77546",29.516333000000003,-95.216656,5249,146797,1030577,766326,880835,9578,890000.0
77546,"1210 BLUEBERRY LN, FRIENDSWOOD, TX 77546",29.508371,-95.213487,3374,11718,382521,328896,357496,-215,351200.0
77546,"1210 SILVERLEAF DR, FRIENDSWOOD, TX 77546",29.513577,-95.192025,3481,12545,406842,360346,387469,2051,372950.0
77546,"4109 LIVORNO LN, FRIENDSWOOD, TX 77546",29.504547,-95.163825,1775,6673,260340,235546,247943,11700,231858.0
77546,"4213 SYCAMORE PT, FRIENDSWOOD, TX 77546",29.51864,-95.19283,2898,7802,365561,318173,338482,-7678,355236.0
77546,"1149 RYMERS SWITCH LN, FRIENDSWOOD, TX 77546",29.51864,-95.19283,5000,11957,880645,774641,815412,-826,723620.0
77546,"1414 CAMBRIDGE DR, FRIENDSWOOD, TX 77546",29.505791,-95.213516,3430,11718,406446,357065,379856,-838,369610.0
77546,"905 LONGLEAF CT, FRIENDSWOOD, TX 77546",29.51864,-95.19283,4746,43560,748088,658040,692674,-1910,618140.0
77546,"303 E VIEJO DR, FRIENDSWOOD, TX 77546",29.497134999999997,-95.163786,3713,333234,654200,550262,611402,-20398,594860.0
77546,"902 ESSEX DR, FRIENDSWOOD, TX 77546",29.508807,-95.20010699999999,2321,11674,281547,254733,268140,1825,235260.0
77546,"1817 ANNA WAY, FRIENDSWOOD, TX 77546",29.51864,-95.19283,3418,,595166,420971,483875,-5755,
77546,"416 E CASTLE HARBOUR DR, FRIENDSWOOD, TX 77546",29.48661,-95.21685500000001,1408,9932,212152,182411,198273,-2467,147880.0
77546,"120 BANDERA CREEK LN, FRIENDSWOOD, TX 77546",29.497488,-95.17756800000001,4621,15507,634025,561565,603833,-9940,547210.0
77546,"1103 RYMERS SWITCH LN, FRIENDSWOOD, TX 77546",29.51864,-95.19283,3783,10799,540500,473581,514762,-8197,524340.0
77546,"3443 TUSCANIA LN, FRIENDSWOOD, TX 77546",29.505634999999998,-95.16410400000001,1849,7932,269422,243762,256592,4990,243945.0
77546,"3200 AUTUMN BAY CT, FRIENDSWOOD, TX 77546",29.516446000000002,-95.161089,3418,10080,335865,303877,319871,-4974,290296.0
77546,"802 BRIARMEADOW AVE, FRIENDSWOOD, TX 77546",29.510319,-95.19995899999999,4535,35327,635432,527528,599464,3232,380940.0
77546,"900 DOLAN SPRINGS LN, FRIENDSWOOD, TX 77546",29.490643,-95.183898,4185,12110,540399,439074,482499,-2329,439780.0
77546,"32 WINDSONG LN, FRIENDSWOOD, TX 77546",29.494931,-95.217566,2325,95004,435955,349549,392752,3065,240000.0
77546,"1107 LONDONDERRY AVE, FRIENDSWOOD, TX 77546",29.506421999999997,-95.206002,1986,12959,276565,244957,263395,-272,205450.0
77546,"305 BRIARMEADOW AVE, FRIENDSWOOD, TX 77546",29.517033,-95.192275,2684,46479,460319,369899,410999,244,303430.0
77546,"405 CARRIAGE CREEK LN, FRIENDSWOOD, TX 77546",29.511458,-95.176852,3776,22477,595409,490027,526911,14800,391730.0
